time,eiPosition_m_X,eiPosition_m_Y,eiPosition_m_Z,gePosition_m_X,gePosition_m_Y,gePosition_m_Z,eiVelocity_m_s_X,eiVelocity_m_s_Y,eiVelocity_m_s_Z,feVelocity_m_s_X,feVelocity_m_s_Y,feVelocity_m_s_Z,altitudeMsl_m,longitude_rad,latitude_rad,localGravity_m_s2,eulerAngle_rad_Yaw,eulerAngle_rad_Pitch,eulerAngle_rad_Roll,bodyAngularRateWrtEi_rad_s_Roll,bodyAngularRateWrtEi_rad_s_Pitch,bodyAngularRateWrtEi_rad_s_Yaw,altitudeRateWrtMsl_m_s,speedOfSound_m_s,airDensity_kg_m3,ambientPressure_Pa,ambientTemperature_K,aero_bodyForce_N_X,aero_bodyForce_N_Y,aero_bodyForce_N_Z,aero_bodyMoment_Nm_L,aero_bodyMoment_Nm_M,aero_bodyMoment_Nm_N,mach,dynamicPressure_Pa,trueAirspeed_m_s,feVelocity_m_s_Z_1
0.0,6378137.000000001,0.0,0.0,6378137.000000001,0.0,0.0,304.8,769.9010848975499,0.0,1.8663617219005664e-14,304.8,-304.8,0.0,0.0,0.0,9.81419735327356,1.5707963267948963,-0.0,0.0,2.79183632379757e-20,-7.292114999999996e-05,2.79183632379757e-20,304.8,340.29371844685693,1.2250039125041485,101325.16165865559,288.15,-146.79529249781558,-0.0,146.79529249781558,0.0,0.0,0.0,1.2667065858840942,113806.58289375546,431.0519179787598,-304.8
0.0099999997764825,6378140.047006564,7.698508076443071,3.450830259865565e-20,6378140.047010483,3.047495005553708,3.450830259865565e-20,304.6013405068098,769.8005518630348,7.124262566865384e-18,1.8658633990607496e-14,304.6988771151013,-304.60226966708336,3.0470112113356587,4.778030872780658e-07,5.4104021461281966e-27,9.814187961054012,1.5707963267948963,4.778030871145284e-07,1.6353739228023525e-16,2.79183632379757e-20,-7.292114999999996e-05,2.79183632379757e-20,304.60226966708336,340.2820234535834,1.2246456117800302,101288.56271969902,288.1301944366198,-146.63181986219783,-6.925713525650635e-18,146.58518888149456,0.0,0.0,0.0,1.2661291360855105,113661.7731651802,430.8406015651856,-304.60226966708336
0.0199999995529651,6378143.092027274,15.396011399256462,1.4024125826323962e-19,6378143.092042944,6.09398081653969,1.4024125826323962e-19,304.4028279070091,769.7001327943274,1.424409355774367e-17,1.8653655302909732e-14,304.59786886654126,-304.40468586256,6.092045857045055,9.554474913145777e-07,2.1987788019076207e-26,9.814178574940575,1.5707963267948963,9.554474916848276e-07,1.007776507237577e-16,2.79183632379757e-20,-7.292114999999996e-05,2.79183632379757e-20,304.40468586256003,340.27033565637345,1.2242876239271372,101251.99825190166,288.11040173987845,-146.46862434961548,-8.139309066567946e-15,146.37545085650893,0.0,0.0,0.0,1.2655521631240845,113517.22060596471,430.6294735466309,-304.40468586256
0.0299999993294477,6378146.135063581,23.09251108924717,3.238392580129999e-19,6378146.135098836,9.139458558096292,3.238392580129999e-19,304.2044590661296,769.5998252647184,2.136137538244773e-17,1.8648682846427413e-14,304.4969728268383,-304.20724545255064,9.135105384850503,1.4329333891858862e-06,5.0773257801445655e-26,9.814169194928768,1.5707963267948963,1.4329333890676737e-06,-3.879675596224696e-17,2.79183632379757e-20,-7.292114999999996e-05,2.79183632379757e-20,304.2072454525506,340.2586550503899,1.2239299486062472,101215.4682145799,288.0906219003288,-146.30570303087987,-2.073988654158396e-17,146.1660749796511,0.0,0.0,0.0,1.264975666999817,113372.91352659262,430.41856532226564,-304.20724545255064
0.0399999991059303,6378149.176116915,30.78800826086858,5.607937622036906e-19,6378149.176179589,12.183929349004071,5.607937622036907e-19,304.0062337360775,769.4996290867617,2.6253793011133807e-17,1.864149429097531e-14,304.39618880777425,-304.0099481895487,12.176191226577759,1.9102609569704723e-06,8.79242154286793e-26,9.814159821014146,1.5707963267948966,1.9102609566191006e-06,3.513715011365903e-16,2.79183632379757e-20,-7.292114999999996e-05,2.79183632379757e-20,304.0099481895487,340.24698163085503,1.2235725854800446,101178.97256728464,288.0708549086272,-146.14305529104448,-1.8369733034545263e-17,145.95706043411556,0.0,0.0,0.0,1.264399766921997,113228.85192706392,430.20781409375,-304.0099481895487
0.050000000745058,6378152.215188713,38.48250402670168,8.533076487907248e-19,6378152.215286629,15.22739430616699,8.533076487907248e-19,303.80815166931865,769.3995440734298,3.2251664250552887e-17,1.863541993923891e-14,304.2955166215535,-303.8127938266055,15.215304806104303,2.387430370451539e-06,1.3378602767477949e-25,9.814150453192292,1.5707963267948963,2.3874303703746203e-06,7.691779139096134e-17,2.79183632379757e-20,-7.292114999999996e-05,2.79183632379757e-20,303.81279382660546,340.23531539302115,1.2232155342126567,101142.51126970557,288.0511007554816,-145.98068051698837,-4.899685746633749e-17,145.7484064054915,0.0,0.0,0.0,1.263824224472046,113085.03580737863,429.99728265942383,-303.8127938266055
0.0599999986588954,6378155.252280407,46.175999497459316,1.2058543747523632e-18,6378155.252421392,18.26985454461675,1.205854374752363e-18,303.6102126188766,769.299570038115,3.825823594165132e-17,1.8629363022972046e-14,304.1949560808014,-303.61578211732956,18.252447558662297,2.864441805117686e-06,1.890600537341307e-25,9.814141091458767,1.5707963267948966,2.8644418051282327e-06,3.0347094093701624e-16,2.79183632379757e-20,-7.292114999999996e-05,2.79183632379757e-20,303.6157821173296,340.22365633209546,1.2228587944670264,101106.08428143935,288.0313594315263,-145.81857809713878,-4.349250063127054e-17,145.54011208148415,0.0,0.0,0.0,1.2632492780685425,112941.4768570531,429.7869082209473,-303.61578211732956
0.0700000002980232,6378158.287393423,53.86849578199034,1.6184349734062933e-18,6378158.287585302,21.311311177516806,1.6184349734062939e-18,303.412416338331,769.1997067946274,4.426127710236993e-17,1.8623311296139448e-14,304.09450699856177,-303.4189128158834,21.28762090585828,3.3412954361635507e-06,2.5374644222101625e-25,9.814131735809147,1.5707963267948966,3.3412954360029977e-06,1.6055318932881755e-16,2.79183632379757e-20,-7.292114999999996e-05,2.79183632379757e-20,303.4189128158834,340.21200444333647,1.222502365908054,101069.69156228953,288.0116309274841,-145.6567474218156,-5.08687653433862e-17,145.33217665225618,0.0,0.0,0.0,1.2626748085021973,112798.16338657097,429.57675357666017,-303.4189128158834
0.0799999982118606,6378161.320529189,61.55999398728377,2.0909938347276466e-18,6378161.320779782,24.351765316166738,2.0909938347276474e-18,303.2147625818164,769.0999541571935,5.0251384274608286e-17,1.8617255340263725e-14,303.9941691882981,-303.22218567698354,24.32082626929879,3.8179914384904916e-06,3.278364609405593e-25,9.814122386239042,1.5707963267948963,3.8179914379805184e-06,1.9595302553571163e-16,2.79183632379757e-20,-7.292114999999996e-05,2.79183632379757e-20,303.2221856769835,340.20035972200196,1.222146248201001,101033.3330721027,287.99191523407785,-145.49518788303527,-7.880817908539956e-17,145.12459931022985,0.0,0.0,0.0,1.2621008157730105,112655.0837064159,429.3667873273926,-303.22218567698354
0.0900000035762786,6378164.351689129,69.25049521847298,2.6146456252328536e-18,6378164.352006255,27.391218070006286,2.6146456252328536e-18,303.01725110402015,769.0003119404558,5.5139849947233436e-17,1.861010643284823e-14,303.8939424638904,-303.0256004558977,27.352065070590378,4.294529986707222e-06,4.09937010228704e-25,9.814113042744026,1.5707963267948961,4.294529986293946e-06,4.132737277162886e-16,2.79183632379757e-20,-7.292114999999996e-05,2.79183632379757e-20,303.0256004558977,340.1887221633481,1.2217904410113352,100997.00877076847,287.97221234203073,-145.33389887450429,-6.611602825469708e-17,144.91737925007882,0.0,0.0,0.0,1.2615272998809814,112512.26119562058,429.15697807397464,-303.0256004558977
0.1000000014901161,6378167.380874665,76.94000057883986,3.196056971758441e-18,6378167.381266143,30.42967054661956,3.1960569717584415e-18,302.81988166018095,768.9007799594702,6.114013762520764e-17,1.8604078022446108e-14,303.79382663963474,-302.82915690844436,30.38133873133958,4.77091125513047e-06,5.010933048118929e-25,9.814103705319706,1.5707963267948966,4.770911254936881e-06,3.657996486054051e-17,2.79183632379757e-20,-7.292114999999996e-05,2.79183632379757e-20,302.8291569084444,340.1770917626303,1.221434944004833,100960.71861821953,287.95252224206564,-145.17287979161378,-7.344877695933806e-17,144.7105156687214,0.0,0.0,0.0,1.2609542608261108,112369.68416466865,428.9473886147461,-302.82915690844436
0.1099999994039535,6378170.408087218,84.62851116981892,3.8495310845215415e-18,6378170.408560861,33.467123851739146,3.849531084521542e-18,302.6226540060877,768.801358029707,7.098136923867873e-17,1.8601899216069273e-14,303.6938215302422,-302.63285479099017,33.408648664069176,5.247135417785641e-06,6.03547857439127e-25,9.814094373961689,1.5707963267948966,5.247135417056392e-06,2.582209585893436e-16,2.79183632379757e-20,-7.292114999999996e-05,2.79183632379757e-20,302.6328547909901,340.1654685151379,1.2210797568487664,100924.46257454014,287.93284492496474,-145.01213003155996,-7.893277150786253e-17,144.50400776543796,0.0,0.0,0.0,1.260381817817688,112227.35261356014,428.7379875505371,-302.63285479099017
0.1199999973177909,6378173.433328199,92.31602809100134,4.596957427938034e-18,6378173.433891821,36.503579089250316,4.596957427938034e-18,302.42556789807753,768.7020459670471,8.026063119923586e-17,1.8599167085244574e-14,303.5939269508368,-302.4366938604489,36.43399627903104,5.723202648407458e-06,7.207325851999899e-25,9.814085048665612,1.5707963267948966,5.723202647387146e-06,2.352650951696295e-16,2.79183632379757e-20,-7.292114999999996e-05,2.79183632379757e-20,302.4366938604489,340.15385241616764,1.2207248792107672,100888.24059988461,287.9131803815251,-144.8516489932437,-8.46730499664057e-17,144.2978547417692,0.0,0.0,0.0,1.2598097324371338,112085.26654229502,428.52877488134766,-302.4366938604489
0.1299999952316284,6378176.456599027,100.00255244013934,5.430568165810088e-18,6378176.457260439,39.53903736119511,5.430568165810089e-18,302.2286230930344,768.6028435877827,8.843527989247264e-17,1.8595338971506297e-14,303.49414271695633,-302.24067387428033,39.457382992154365,6.199113120440616e-06,8.514295899612485e-25,9.814075729427087,1.5707963267948966,6.199113119739746e-06,2.298428137583443e-16,2.79183632379757e-20,-7.292114999999996e-05,2.79183632379757e-20,302.2406738742804,340.14224346099354,1.2203703107582102,100852.05265438184,287.89352860250676,-144.69143607715492,-9.092772125990924e-17,144.09205580139837,0.0,0.0,0.0,1.2592382431030271,111943.42595087332,428.31975060717775,-302.24067387428033
0.1400000005960464,6378179.477901113,107.68808531314997,6.33160855942068e-18,6378179.47866812,42.573499767776404,6.331608559420681e-18,302.03181934838756,768.503750708616,9.276904977195171e-17,1.858767859448997e-14,303.3944686445487,-302.0447945904876,42.478810208013655,6.674867007040424e-06,9.926983993560786e-25,9.814066416241749,1.5707963267948963,6.674867006137662e-06,2.747253955691588e-16,2.79183632379757e-20,-7.292114999999996e-05,2.79183632379757e-20,302.0447945904876,340.13064164493204,1.2200160511601703,100815.89869833934,287.8738895787437,-144.53149068560174,-8.086310461001459e-15,143.88661015037917,0.0,0.0,0.0,1.2586671113967896,111801.81914977866,428.11091472802735,-302.0447945904876
0.1500000059604644,6378182.497235865,115.37262780411939,7.30449115639036e-18,6378182.498116278,45.60696740736204,7.304491156390361e-18,301.83515642210995,768.4047671466576,1.0093253067432477e-16,1.858385652924746e-14,303.29490454997296,-301.8490557676167,45.49827933345437,7.1504644810734485e-06,1.1452308174563713e-24,9.814057109105235,1.5707963267948963,7.150464479879397e-06,4.090046816687718e-16,2.79183632379757e-20,-7.292114999999996e-05,2.79183632379757e-20,301.8490557676167,340.1190469632901,1.2196621000855685,100779.7786920799,287.8542633010552,-144.37181222251792,-8.081158063094007e-15,143.6815169969404,0.0,0.0,0.0,1.2580965757369995,111660.4578285274,427.9022358447266,-301.8490557676167
0.1599999964237213,6378185.514604691,123.05618100530688,8.369919608235065e-18,6378185.515606312,48.63944137648898,8.369919608235065e-18,301.6386340727168,768.3058927194247,1.1018539743238652e-16,1.858113243585987e-14,303.19545024999593,-301.65345716475434,48.51579177078009,7.625905715118174e-06,1.3122728380214017e-24,9.814047808013202,1.5707963267948966,7.625905713733371e-06,1.2872783216271534e-16,2.79183632379757e-20,-7.292114999999996e-05,2.79183632379757e-20,301.6534571647544,340.1074594113906,1.219308457204356,100743.692596023,287.8346497602903,-144.21240009354943,-8.075494074234571e-15,143.4767755515713,0.0,-0.0,0.0,1.2575265169143677,111519.34198711955,427.69377675561526,-301.65345716475434
0.1700000017881393,6378188.530008996,130.73874600714902,9.51691321072658e-18,6378188.531139627,51.67092276986731,9.51691321072658e-18,301.4422520592639,768.2071272448413,1.1833943012469881e-16,1.857731807968712e-14,303.0961055617936,-301.45799854152705,51.531348924565314,8.101190881465618e-06,1.4921028382824938e-24,9.814038512961298,1.5707963267948963,8.101190880409417e-06,2.711547281827862e-16,2.79183632379757e-20,-7.292114999999996e-05,2.79183632379757e-20,301.45799854152705,340.0958789845471,1.2189551221863297,100707.6403706032,287.8150489472829,-144.05325370595662,-8.070359682338692e-15,143.27238502692154,0.0,-0.0,0.0,1.256956934928894,111378.4716255551,427.48550606152344,-301.45799854152705
0.1800000071525573,6378191.543450181,138.42032389826352,1.0755217074399086e-17,6378191.544717624,54.70141268038422,1.075521707439909e-17,301.2460101413463,768.1084705412363,1.2921012678942036e-16,1.8576228944081663e-14,302.99687030294757,-301.2626796580986,54.544952191436295,8.576320152119988e-06,1.6862486801467964e-24,9.814029223945191,1.5707963267948963,8.576320151067678e-06,1.1025319655046348e-16,2.79183632379757e-20,-7.292114999999996e-05,2.79183632379757e-20,301.2626796580986,340.0843056781023,1.2186020947026264,100671.62197639255,287.79546085291906,-143.8943724687478,-1.2205316323975373e-16,143.06834463793342,0.0,0.0,0.0,1.2563878297805786,111237.84674383406,427.2774237624512,-301.2626796580986
0.1899999976158142,6378194.554929645,146.1009157654535,1.2082588206164686e-17,6378194.556341695,57.730912199108346,1.208258820616469e-17,301.0499080790965,768.0099224273424,1.3735076808727917e-16,1.857241829505135e-14,302.897744291446,-301.0675002751697,57.556602964612836,9.051293698799332e-06,1.894358677669421e-24,9.814019940960552,1.5707963267948963,9.051293697360223e-06,2.6024240272507155e-17,2.79183632379757e-20,-7.292114999999996e-05,2.79183632379757e-20,301.06750027516966,340.07273948741124,1.2182493744251042,100635.63737404557,287.7758854681068,-143.73575579261234,-8.058827693919352e-15,142.864653601772,0.0,-0.0,0.0,1.2558192014694214,111097.44396292372,427.0694984592285,-301.0675002751697
0.2000000029802322,6378197.564448789,153.7805226937114,1.3492434691319576e-17,6378197.56601324,60.759422415293436,1.3492434691319577e-17,300.85394563318334,767.9114827222951,1.4385752219063107e-16,1.856698228614842e-14,302.79872734568045,-300.87246015397557,60.566302639585736,9.526111692936138e-06,2.1153993038100538e-24,9.814010664003069,1.5707963267948963,9.526111691274476e-06,2.4857452387726204e-16,2.79183632379757e-20,-7.292114999999996e-05,2.79183632379757e-20,300.8724601539755,340.06118040781894,1.2178969610254669,100599.68652423196,287.7563227837395,-143.5774030898367,-1.352013179927611e-16,142.66131113774037,0.0,0.0,0.0,1.2552510499954224,110957.29835137312,426.8617929501953,-300.87246015397557
0.209999993443489,6378200.572009005,161.45914576622297,1.4967327431827482e-17,6378200.573733653,63.786944416382696,1.4967327431827482e-17,300.65812256481024,767.8131512456312,1.50903636330812e-16,1.8562094150016748e-14,302.6998192844461,-300.677559056285,63.5740526129812,1.000077430567799e-05,2.3466379362098784e-24,9.814001393068393,1.5707963267948966,1.0000774304662702e-05,2.3024134276712494e-16,2.79183632379757e-20,-7.292114999999996e-05,2.79183632379757e-20,300.677559056285,340.049628434665,1.2175448541758305,100563.76938764953,287.73677279070324,-143.4193137743128,-1.418867652359191e-16,142.45831646728655,0.0,0.0,0.0,1.2546833753585815,110817.38653014958,426.6542758361816,-300.677559056285
0.2199999988079071,6378203.577611686,169.13678606437142,1.6515911515609366e-17,6378203.5795043195,66.81347928801253,1.6515911515609366e-17,300.4624386357135,767.7149278172885,1.595699560374349e-16,1.8558834717631057e-14,302.6010199269405,-300.48279674439857,66.57985426552891,1.0475281707888207e-05,2.5894299717518167e-24,9.813992128152266,1.5707963267948966,1.0475281706573296e-05,5.883490851951173e-17,2.79183632379757e-20,-7.292114999999996e-05,2.79183632379757e-20,300.48279674439857,340.0380835633495,1.217193053550218,100527.88592522802,287.7172354799875,-143.26148726176967,-1.4779156844681403e-16,142.25566881423129,0.0,0.0,0.0,1.2541162967681885,110677.70849925309,426.4469157180176,-300.48279674439857
0.2300000041723251,6378206.5812582215,176.8134446677412,1.8151126255167273e-17,6378206.583326633,69.83902811401686,1.8151126255167273e-17,300.2668936081614,767.6168122576034,1.6876961993706926e-16,1.8556117113095505e-14,302.5023290927623,-300.28817298114717,69.58370898704231,1.0949634070146463e-05,2.84580406999176e-24,9.813982869250353,1.5707963267948963,1.094963406851109e-05,2.222860093283242e-16,2.79183632379757e-20,-7.292114999999996e-05,2.79183632379757e-20,300.28817298114717,340.02654578923585,1.2168415588220851,100492.03609783029,287.69771084252267,-143.10392296942265,-1.5343169545422722e-16,142.0533674044174,0.0,0.0,0.0,1.253549575805664,110538.27594820001,426.23974399487304,-300.28817298114717
0.2399999946355819,6378209.582949999,184.48912265412233,1.987506770984126e-17,6378209.585201976,72.86359197643085,1.987506770984126e-17,300.07148724495187,767.5188043873115,1.7634235736749678e-16,1.8551781051257848e-14,302.4037466019096,-300.093687529891,72.58561816619934,1.1423831562749417e-05,3.116088840143531e-24,9.813973616358362,1.5707963267948963,1.1423831560983606e-05,3.870855865910008e-17,2.79183632379757e-20,-7.292114999999996e-05,2.79183632379757e-20,300.09368752989104,340.0150151076912,1.216490369665146,100456.21986637445,287.6781988692466,-142.94662031610818,-8.034164068006173e-15,141.85141146584252,0.0,0.0,0.0,1.252983331680298,110399.08887699032,426.032792065918,-300.093687529891
0.25,6378212.582688408,192.1638210995139,2.1693059302972687e-17,6378212.585131732,75.8871719554951,2.1693059302972693e-17,299.876219309412,767.4209040275448,1.8714585521490132e-16,1.8550684204546518e-14,302.30527227477904,-299.89934015451684,75.58558318032324,1.1897874355711351e-05,3.40111888901383e-24,9.81396436947203,1.5707963267948966,1.1897874354286576e-05,3.257087321978024e-16,2.79183632379757e-20,-7.292114999999996e-05,2.79183632379757e-20,299.8993401545168,340.0034915141254,1.2161394857549175,100420.4371919557,287.6586995511712,-142.78957872241938,-8.027830518586487e-15,141.64980022879135,0.0,-0.0,0.0,1.2524175643920898,110260.12390659134,425.8259971328125,-299.89934015451684
0.2599999904632568,6378215.580474828,199.8375410781286,2.361687678290779e-17,6378215.583117282,78.90976912965937,2.361687678290779e-17,299.68108956539567,767.3231109998311,1.9740041150143885e-16,1.8549046856558142e-14,302.20690593216506,-299.70513061943797,78.58360540900827,1.2371762618764778e-05,3.702740441011857e-24,9.813955128587063,1.5707963267948963,1.2371762616777313e-05,2.6036098734695233e-16,2.79183632379757e-20,-7.292114999999996e-05,2.79183632379757e-20,299.70513061943797,339.9919750039383,1.2157889067667114,100384.68803568353,287.6392128792934,-142.63279761051305,-8.021764424222521e-15,141.4485329256429,0.0,-0.0,0.0,1.2518523931503296,110121.40441603576,425.61939059472655,-299.70513061943797
0.270000010728836,6378218.576310641,207.5102836623961,2.5627059059301692e-17,6378218.579160008,81.93138457558676,2.5627059059301705e-17,299.4860977772827,767.2254251260939,2.038825822827946e-16,1.8543645548954997e-14,302.10864739525965,-299.5110586895921,81.57968623298407,1.2845496521361058e-05,4.0179022934272635e-24,9.813945893699183,1.5707963267948963,1.2845496519585436e-05,4.8518047222729226e-17,2.79183632379757e-20,-7.292114999999996e-05,2.79183632379757e-20,299.5110586895922,339.98046557252457,1.2154386323761484,100348.9723586953,287.619738844603,-142.47627640412105,-1.7666797284294573e-16,141.24760879087853,0.0,0.0,0.0,1.251287579536438,109982.91871580723,425.41297245166015,-299.5110586895921
0.2800000011920929,6378221.5701972265,215.18204992296742,2.7704191856070743e-17,6378221.573261282,84.95201936815769,2.7704191856070743e-17,299.29124370997664,767.1278462286497,2.1089901982871635e-16,1.8538786919645416e-14,302.0104964856483,-299.31712413043977,84.57382702389658,1.3319076232671074e-05,4.3435605890135025e-24,9.813936664804142,1.5707963267948963,1.3319076230725541e-05,6.142174714264638e-17,2.79183632379757e-20,-7.292114999999996e-05,2.79183632379757e-20,299.31712413043977,339.96896321531233,1.2150886622602401,100313.29012227799,287.6002774381487,-142.3200145286826,-1.8327684633751247e-16,141.0470270612132,0.0,0.0,0.0,1.2507232427597046,109844.66680590576,425.2067427036133,-299.31712413043977
0.2899999916553497,6378224.562135954,222.85284092871876,2.985360725156436e-17,6378224.565422478,87.9716745804737,2.985360725156436e-17,299.0965271289043,767.030374130208,2.189834161239945e-16,1.853500464628474e-14,301.91245302531263,-299.12332670796303,87.56602915339172,1.3792501921585804e-05,4.6805512948801865e-24,9.813927441897686,1.5707963267948966,1.3792501919886388e-05,1.2932075523435082e-16,2.79183632379757e-20,-7.292114999999996e-05,2.79183632379757e-20,299.12332670796303,339.95746792772917,1.2147389960961021,100277.64128775973,287.58082865097947,-142.16401141121696,-8.007936750129707e-15,140.84678697546562,0.0,0.0,0.0,1.250159502029419,109706.66037584767,425.000669951416,-299.12332670796303
0.3000000119209289,6378227.552128206,230.52265774675521,3.209990853538446e-17,6378227.555644971,90.99035128386129,3.209990853538447e-17,298.90194780001366,766.9330086538697,2.297392539953897e-16,1.853390219740211e-14,301.8145168366261,-298.92966618866416,90.55629399538637,1.4265773756716918e-05,5.032731781999292e-24,9.813918224975557,1.5707963267948966,1.4265773754584674e-05,2.4813576082455484e-16,2.79183632379757e-20,-7.292114999999996e-05,2.79183632379757e-20,298.9296661886641,339.94597970519266,1.2143896335610556,100242.02581648274,287.5613924741296,-142.00826648028513,-8.0016632096162e-15,140.6468877745202,0.0,0.0,0.0,1.249596118927002,109568.8760466003,424.79481699340823,-298.92966618866416
0.3100000023841858,6378230.540175349,238.19150144241493,3.443446018372507e-17,6378230.543930128,94.00805054787601,3.443446018372507e-17,298.7075054897722,766.8357496231263,2.3781125853682645e-16,1.8530124283825563e-14,301.7166877423546,-298.73614233956357,93.54462291471363,1.4738891906397445e-05,5.398748123451668e-24,9.813909014033518,1.5707963267948961,1.47388919042477e-05,2.6563376745253735e-16,2.79183632379757e-20,-7.292114999999996e-05,2.79183632379757e-20,298.7361423395636,339.93449854315435,1.2140405743336589,100206.44366993837,287.5419688986922,-141.8527791661408,-7.996659730415287e-15,140.44732870147314,0.0,0.0,0.0,1.2490332126617432,109431.33719719632,424.58912103125,-298.73614233956357
0.3199999928474426,6378233.526278755,245.8593730792729,3.685931787724188e-17,6378233.530279316,97.02477344030649,3.685931787724188e-17,298.5131999651661,766.7385968618585,2.4641184837271007e-16,1.8526883309945328e-14,301.6189655656555,-298.5427549281996,96.53101727961304,1.521185653868238e-05,5.778922596357665e-24,9.813899809067326,1.5707963267948966,1.5211856536524178e-05,2.740930854996262e-16,2.79183632379757e-20,-7.292114999999996e-05,2.79183632379757e-20,298.5427549281996,339.92302443705154,1.2136918180924183,100170.89480961846,287.52255791573856,-141.6975489005544,-7.991414239509824e-15,140.2481090014575,0.0,0.0,0.0,1.248470902442932,109294.0321381194,424.38364486328123,-298.5427549281996
0.3300000131130218,6378236.510439786,253.526273719145,3.937761280626503e-17,6378236.514693898,100.0405210271782,3.937761280626504e-17,298.3190309936984,766.6415501943357,2.5713828366604364e-16,1.8525776521721784e-14,301.5213501300759,-298.3495037226256,99.51547844924033,1.568466782134931e-05,6.173746099051834e-24,9.813890610072772,1.5707963267948963,1.5684667819561296e-05,3.7493066381876164e-16,2.79183632379757e-20,-7.292114999999996e-05,2.79183632379757e-20,298.3495037226256,339.9115573823556,1.2133433645171292,100135.37919716374,287.5031595163989,-141.54257511697807,-2.1088364186416376e-16,140.04922792180386,0.0,0.0,0.0,1.2479089498519895,109156.94917985317,424.1783256911621,-298.3495037226256
0.3400000035762787,6378239.49265981,261.1922044220915,4.198714090645667e-17,6378239.49717524,103.05529437275695,4.1987140906456686e-17,298.12499834338746,766.5446094452135,2.6466038203009767e-16,1.8521473722597084e-14,301.4238412595504,-298.15638849140964,102.49800778956414,1.6157325921898934e-05,6.582873051344523e-24,9.813881417045616,1.5707963267948966,1.615732591964997e-05,2.0783308616312697e-16,2.79183632379757e-20,-7.292114999999996e-05,2.79183632379757e-20,298.1563884914097,339.90009737451044,1.2129952132871746,100099.8967941746,287.4837736917594,-141.38785725032196,-7.980452015560712e-15,139.85068471181893,0.0,-0.0,0.0,1.2473474740982056,109020.11170143035,423.9731635148926,-298.15638849140964
0.3499999940395355,6378242.472940188,268.85716624642123,4.468250831066894e-17,6378242.477724698,106.06909453955352,4.468250831066894e-17,297.93110178276595,766.4477744395348,2.727105786474359e-16,1.851770733361403e-14,301.32643877840326,-297.9634090036323,105.47860665406286,1.662983100755579e-05,7.005457766859622e-24,9.813872229981666,1.5707963267948966,1.6629831005229174e-05,2.85502619306907e-16,2.79183632379757e-20,-7.292114999999996e-05,2.79183632379757e-20,297.9634090036323,339.8886444090073,1.2126473640835351,100064.44756244075,287.46440043298725,-141.2333947372157,-2.2321501553028336e-16,139.65247862303926,0.0,0.0,0.0,1.2467865943908691,108883.49632381822,423.7682211328125,-297.9634090036323
0.3600000143051147,6378245.4512822805,276.5211602486955,4.74392195535395e-17,6378245.456343635,109.08192258832685,4.743921955353951e-17,297.73734108087876,766.3510450027273,2.786313390263961e-16,1.851181980617259e-14,301.22914251134443,-297.7705650288858,108.45727640416325,1.710218324526879e-05,7.437659756323754e-24,9.813863048876687,1.5707963267948966,1.71021832430395e-05,3.451777845178686e-16,2.79183632379757e-20,-7.292114999999996e-05,2.79183632379757e-20,297.77056502888587,339.87719848130564,1.2122998165866752,100029.03146369781,287.44503973119816,-141.0791870157214,-2.3023539304575864e-16,139.45460890894844,0.0,0.0,0.0,1.2462260723114014,108747.11473653316,423.56343574658206,-297.7705650288858
0.3700000047683716,6378248.427687445,284.1841874837318,5.025512921440164e-17,6378248.433033398,112.09377957808854,5.025512921440164e-17,297.54371600728246,766.254420960602,2.8455026286363077e-16,1.85059387258922e-14,301.1319522834696,-297.5778563372723,111.43401838766636,1.757438280171031e-05,7.879142641475976e-24,9.813853873726517,1.5707963267948966,1.7574382799535632e-05,2.9088974885688826e-16,2.79183632379757e-20,-7.292114999999996e-05,2.79183632379757e-20,297.5778563372723,339.8657595869162,1.2119525704788132,99993.64845988413,287.4256915775966,-140.92523352562364,-2.3724270041286627e-16,139.25707482526096,0.0,0.0,0.0,1.2456660270690918,108610.96693957513,423.358870154541,-297.5778563372723
0.3799999952316284,6378251.402157037,291.84624900460744,5.313869071598121e-17,6378251.407795349,115.1046665661057,5.313869071598122e-17,297.35022633204284,766.157902139353,2.9152617223931517e-16,1.850112290080701e-14,301.0348679202584,-297.3852826994023,114.40883396259248,1.8046429843283844e-05,8.331231760852736e-24,9.81384470452693,1.5707963267948963,1.8046429840657127e-05,4.290713157651124e-16,2.79183632379757e-20,-7.292114999999996e-05,2.79183632379757e-20,297.38528269940235,339.8543277213096,1.2116056254413925,99958.29851285664,287.4063559633203,-140.77153370809918,-2.4374184547913755e-16,139.05987562959416,0.0,0.0,0.0,1.2451064586639404,108475.05293294416,423.1544615583496,-297.3852826994023
0.3899999856948852,6378254.374692405,299.5073458626637,5.608775655693815e-17,6378254.380630833,118.11458460790608,5.608775655693817e-17,297.1568718257344,766.0614883655566,2.9849793323508514e-16,1.849631118298365e-14,300.93788924757416,-297.19284388639386,117.3817244756073,1.8518324536112425e-05,8.793590408944122e-24,9.813835541273768,1.5707963267948966,1.851832453338622e-05,5.567378156667671e-17,2.79183632379757e-20,-7.292114999999996e-05,2.79183632379757e-20,297.19284388639386,339.842902879999,1.2112589811574044,99922.98158464786,287.3870328795814,-140.61808700600574,-7.958675404583915e-15,138.86301058175133,0.0,-0.0,0.0,1.2445473670959473,108339.36102712389,422.9502099580078,-297.19284388639386
0.4000000059604645,6378257.345294904,307.1674791075096,5.911919811877654e-17,6378257.351541198,121.12353475728088,5.911919811877652e-17,296.96365225943856,765.9651794661696,3.065223541287934e-16,1.8492560366715956e-14,300.84101609166305,-297.00053966987036,120.35269126996995,1.899006704604771e-05,9.268863711469956e-24,9.81382638396285,1.5707963267948966,1.8990067043724674e-05,-3.1557059488596304e-17,2.79183632379757e-20,-7.292114999999996e-05,2.79183632379757e-20,297.0005396698704,339.83148505850977,1.2109126373104573,99887.69763737077,287.3677223176136,-140.4648928637691,-2.562132398706585e-16,138.66647894360864,0.0,0.0,0.0,1.2439887523651123,108203.90291163066,422.7461781518555,-297.00053966987036
0.4099999964237213,6378260.313965884,314.8266497870257,6.221924420915356e-17,6378260.320527796,124.13151806628889,6.221924420915356e-17,296.7705674047419,765.8689752685285,3.150670195047327e-16,1.8489338022635087e-14,300.74424827915186,-296.8083698219599,123.32173569915894,1.946165753867257e-05,9.754892567981925e-24,9.813817232589983,1.5707963267948963,1.9461657535890515e-05,2.689177142111168e-16,2.79183632379757e-20,-7.292114999999996e-05,2.79183632379757e-20,296.80836982195984,339.82007425232666,1.210566593583336,99852.4466330572,287.34842426858455,-140.31195072719154,-7.948586303487672e-15,138.47027997892494,0.0,-0.0,0.0,1.2434306144714355,108068.67858646449,422.5423033415527,-296.8083698219599
0.4199999868869781,6378263.280706684,322.48485894736757,6.540577210019052e-17,6378263.287591968,127.13853558526047,6.540577210019052e-17,296.57761703373563,765.7728756003485,3.2150095484699325e-16,1.8484013162302774e-14,300.64758563704805,-296.61633411529317,126.28885909962058,1.9933096179292382e-05,1.0254479807134126e-23,9.813808087151033,1.5707963267948966,1.9933096176417826e-05,2.0563588271167347e-16,2.79183632379757e-20,-7.292114999999996e-05,2.79183632379757e-20,296.61633411529317,339.80867045699944,1.2102208496610405,99817.2285339812,287.32913872377287,-140.1592600438183,-2.686421575618766e-16,138.27441295370053,0.0,0.0,0.0,1.242872953414917,107933.67636210902,422.33861692626954,-296.61633411529317
0.4300000071525574,6378266.245518654,330.14210763296984,6.865766954673968e-17,6378266.252735051,130.14458836280085,6.865766954673968e-17,296.38480091901323,765.6768802897221,3.300337790727895e-16,1.848079539074461e-14,300.5510279927374,-296.42443232300263,129.25406281120777,2.0404383132943733e-05,1.0764315381629972e-23,9.813798947641832,1.5707963267948966,2.040438312990337e-05,2.153140811709704e-16,2.79183632379757e-20,-7.292114999999996e-05,2.79183632379757e-20,296.42443232300263,339.7972736680632,1.209875405228417,99782.04330241642,287.3098656744347,-140.00682026265306,-2.743515821950474e-16,138.07887713589574,0.0,0.0,0.0,1.242315649986267,107798.90792808059,422.13511890600586,-296.42443232300263
0.4399999976158142,6378269.208403133,337.7983968865503,7.198856843694777e-17,6378269.215958389,133.14967744579465,7.198856843694778e-17,296.1921188336699,765.5809891651187,3.38034732154486e-16,1.8477053934071948e-14,300.45457517398506,-296.2326642187209,132.2173481737733,2.087551856439443e-05,1.1286536517014208e-23,9.813789814058238,1.5707963267948963,2.0875518561608885e-05,1.1747330541440107e-16,2.79183632379757e-20,-7.292114999999996e-05,2.79183632379757e-20,296.23266421872086,339.78588388105237,1.2095302599707234,99746.89090067636,287.2906051118266,-139.85463083420203,-7.93437809525983e-15,137.8836717954715,0.0,-0.0,0.0,1.241758942604065,107664.36159486287,421.9317778815918,-296.2326642187209
0.449999988079071,6378272.169361458,345.45372774911294,7.541938901403032e-17,6378272.17726332,136.15380387940905,7.541938901403033e-17,295.99957055130017,765.4852020553833,3.46555860491904e-16,1.8473840824854125e-14,300.35822700893203,-296.041029576579,135.17871652376354,2.1346502638140008e-05,1.1824423119743174e-23,9.813780686396084,1.5707963267948963,2.1346502635413805e-05,5.659535341663782e-17,2.79183632379757e-20,-7.292114999999996e-05,2.79183632379757e-20,296.041029576579,339.77450109151346,1.209185413573785,99711.7712911546,287.2713570272269,-139.70269121051217,-7.929251355548997e-15,137.68879620442678,0.0,-0.0,0.0,1.2412025928497314,107530.0490519722,421.7286566513672,-296.041029576579
0.4600000083446502,6378275.1283949725,353.1081012599522,7.893119233796e-17,6378275.136651177,139.15696870709758,7.893119233796002e-17,295.8071558459979,765.3895187897348,3.545475137562548e-16,1.8470106398962353e-14,300.261983326096,-295.8495281712058,138.13816919421853,2.1817335518403735e-05,1.2375005879821022e-23,9.813771564651262,1.5707963267948963,2.181733551531101e-05,2.6675947427407404e-16,2.79183632379757e-20,-7.292114999999996e-05,2.79183632379757e-20,295.8495281712058,339.7631252950049,1.2088408657240968,99676.68443632494,287.25212141193646,-139.55100084516783,-2.919130832094628e-16,137.49424963679223,0.0,0.0,0.0,1.2406468391418457,107395.95860989222,421.5256610178223,-295.8495281712058
0.4699999988079071,6378278.085505003,360.7615184566565,8.251032634186537e-17,6378278.09412329,142.15917297060395,8.251032634186537e-17,295.6148744923534,765.2939391977659,3.6148785277665256e-16,1.846532880345609e-14,300.1658439543694,-295.6581597777258,141.09570751136542,2.2288017369145328e-05,1.2936144380000242e-23,9.813762448819649,1.5707963267948963,2.2288017366110202e-05,2.082532145295622e-16,2.79183632379757e-20,-7.292114999999996e-05,2.79183632379757e-20,295.6581597777258,339.7517564871105,1.2084966161092876,99641.63029878156,287.23289825730046,-139.39955919333053,-2.983144924581364e-16,137.30003136866807,0.0,0.0,0.0,1.2400914430618286,107262.10195813929,421.32288517846683,-295.6581597777258
0.4799999892711639,6378281.040692888,368.4139803751124,8.616824338209094e-17,6378281.049680992,145.1604177099666,8.616824338209094e-17,295.42272626545326,765.1984631094417,3.7103353158904935e-16,1.846316467863195e-14,300.06980872301887,-295.46692417175865,144.05133281278611,2.2758548354052247e-05,1.350963413004279e-23,9.813753338897095,1.5707963267948963,2.2758548351167216e-05,2.1632543852119323e-16,2.79183632379757e-20,-7.292114999999996e-05,2.79183632379757e-20,295.4669241717587,339.74039466336944,1.2081526644158527,99606.60884102344,287.2136875545902,-139.24836571149103,-3.034940586053128e-16,137.10614067797823,0.0,0.0,0.0,1.2395365238189695,107128.46740719707,421.12026633496095,-295.46692417175865
0.4900000095367431,6378283.993959952,376.0654880495074,8.991949592566552e-17,6378284.003325612,148.16070396352052,8.991949592566555e-17,295.2307109408784,765.1030903550983,3.8004978637266227e-16,1.846047924695998e-14,299.97387746168306,-295.27582112941656,147.00504641903044,2.3228928636544888e-05,1.4097756677896805e-23,9.813744234879513,1.5707963267948963,2.3228928633473112e-05,8.820662301907121e-17,2.79183632379757e-20,-7.292114999999996e-05,2.79183632379757e-20,295.2758211294165,339.72903981938515,1.2078090103326578,99571.62002579101,287.19448929518774,-139.0974198578436,-7.909082897563438e-15,136.91257684483756,0.0,0.0,0.0,1.238982081413269,106995.05495706554,420.9178358864746,-295.27582112941656
0.5,6378286.945307529,383.7160425123346,9.377025445744625e-17,6378286.955058474,151.16003276790275,9.377025445744628e-17,295.0388282947024,765.0078207654425,3.885394908631403e-16,1.845727536849681e-14,299.87805000037343,-295.084850427304,149.95684965632557,2.3699158379776644e-05,1.4701479424149487e-23,9.81373513676278,1.5707963267948966,2.3699158376533823e-05,2.608675131027431e-16,2.79183632379757e-20,-7.292114999999996e-05,2.79183632379757e-20,295.08485042730405,339.71769195073847,1.2074656535480528,99536.66381579675,287.17530347043845,-138.94672109197853,-3.145548658009063e-16,136.7193391512466,0.0,0.0,0.0,1.2384281158447266,106861.8646077447,420.7155938330078,-295.084850427304
0.5099999904632568,6378289.894736943,391.36564479439585,9.769339304628967e-17,6378289.904880905,154.15840515805533,9.769339304628967e-17,294.847078103491,764.9126541715499,3.954639530328954e-16,1.845251433756585e-14,299.7823261694713,-294.8940118425162,152.90674385089875,2.41692377466356e-05,1.5316549494402435e-23,9.813726044542792,1.5707963267948963,2.4169237743411978e-05,8.404430311701348e-17,2.79183632379757e-20,-7.292114999999996e-05,2.79183632379757e-20,294.8940118425162,339.7063510530091,1.2071225937508012,99501.74017379234,287.1561300716875,-138.7962688749515,-3.2091460057296953e-16,136.52642688115867,0.0,0.0,0.0,1.2378746271133425,106728.90804875093,420.5135087753906,-294.8940118425162
0.5199999809265137,6378292.842249516,399.0142959248058,1.0168679143293001e-16,6378292.852794224,157.15582216722964,1.0168679143293003e-16,294.6554601443002,764.817590404865,4.0394100986744526e-16,1.844931397753359e-14,299.686705799729,-294.70330515263726,155.85473031762243,2.463916689974106e-05,1.5942634455474448e-23,9.813716958215467,1.5707963267948963,2.4639166896660557e-05,2.540539800788879e-16,2.79183632379757e-20,-7.292114999999996e-05,2.79183632379757e-20,294.70330515263726,339.6950171218196,1.20677983063116,99466.84906270317,287.1369690903542,-138.64606266943238,-7.894591692433544e-15,136.33383932062407,0.0,0.0,0.0,1.2373216152191162,106596.1619010515,420.311612112793,-294.70330515263726
0.5299999713897705,6378295.787846569,406.66199693099514,1.0576596975285517e-16,6378295.7987997485,160.15228482698862,1.0576596975285519e-16,294.46397419467473,764.7226292971992,4.1137556999022375e-16,1.8445079183434276e-14,299.59118872226696,-294.51273013573893,158.80081037704647,2.510894600144879e-05,1.6582167565734003e-23,9.813707877776713,1.5707963267948966,2.5108945998242622e-05,2.2322536892387103e-16,2.79183632379757e-20,-7.292114999999996e-05,2.79183632379757e-20,294.512730135739,339.68369015276954,1.2064373638789743,99431.99044542646,287.11782051782086,-138.49610193947103,-3.3264233837541205e-16,136.141575757559,0.0,0.0,0.0,1.2367689609527588,106463.64954367912,420.10990384521483,-294.51273013573893
0.5400000214576721,6378298.731529424,414.3087488387148,1.0992464399271603e-16,6378298.742898801,163.14779416721214,1.0992464399271605e-16,294.2726200326472,764.6277706807299,4.208753847406386e-16,1.844291769304795e-14,299.495774768573,-294.3222865703802,161.74498534404339,2.5578575213847522e-05,1.72341635893332e-23,9.81369880322246,1.5707963267948963,2.5578575210309737e-05,2.4123837158873046e-16,2.79183632379757e-20,-7.292114999999996e-05,2.79183632379757e-20,294.3222865703802,339.67237014147935,1.2060951931851713,99397.16428496568,287.0986843455067,-138.34638615064446,-3.3777504998005527e-16,135.94963548188753,0.0,0.0,0.0,1.2362169027328491,106331.35928711743,419.90835257348635,-294.3222865703802
0.550000011920929,6378301.673299393,421.9545526720389,1.1416587136367645e-16,6378301.685092686,166.14235121609968,1.1416587136367645e-16,294.08139743673627,764.5330143880001,4.2881632893252467e-16,1.843920536765875e-14,299.40046377050203,-294.1319742356042,164.68725652894378,2.6048054698764173e-05,1.789910182388725e-23,9.813689734548625,1.5707963267948963,2.604805469552484e-05,4.1316742521776435e-16,2.79183632379757e-20,-7.292114999999996e-05,2.79183632379757e-20,294.1319742356042,339.6610570835861,1.2057533182413485,99362.37054441683,287.07956056486057,-138.1969147700374,-3.436164442526742e-16,135.75801778552102,0.0,0.0,0.0,1.235665202140808,106199.29113136644,419.7069896967773,-294.1319742356042
0.5600000023841858,6378304.613157792,429.59940945336933,1.1848442655929707e-16,6378304.625382725,169.1359570001743,1.184844265592971e-16,293.8903061859458,764.4383602519167,4.367517065318835e-16,1.843549549773265e-14,299.30525556027493,-293.9417929109388,167.6276252466202,2.6517384617762132e-05,1.857616302083253e-23,9.813680671751149,1.5707963267948966,2.651738461455073e-05,3.856117493730959e-16,2.79183632379757e-20,-7.292114999999996e-05,2.79183632379757e-20,293.9417929109388,339.64975097470835,1.205411738738897,99327.60918686126,287.06044916730195,-138.04768726611564,-7.874913299598458e-15,135.5667219622326,0.0,-0.0,0.0,1.2351139783859253,106067.44507642616,419.505783815918,-293.9417929109388
0.5699999928474426,6378307.551105936,437.2433202034384,1.2289572929490423e-16,6378307.563770227,172.12861254428577,1.2289572929490426e-16,293.69934605976306,764.3438081057502,4.441680136041197e-16,1.843127456586454e-14,299.21014997047683,-293.7517423763936,170.5660928074032,2.698656513213775e-05,1.9267764688586053e-23,9.813671614825966,1.5707963267948966,2.6986565128631387e-05,2.1037926725205198e-16,2.79183632379757e-20,-7.292114999999996e-05,2.79183632379757e-20,293.7517423763936,339.63845181048094,1.2050704543699293,99292.88017547259,287.0413501442798,-137.8987031088431,-3.555078797817755e-16,135.37574730776987,0.0,0.0,0.0,1.234563231468201,105935.82112229656,419.3047663300781,-293.7517423763936
0.5799999833106995,6378310.487145134,444.886285941313,1.2737601538780652e-16,6378310.5002564965,175.12031887161515,1.2737601538780652e-16,293.5085168381578,764.2493577831328,4.526083818554812e-16,1.8428085690319617e-14,299.11514683405665,-293.5618224124599,173.50266051253976,2.7455596402929068e-05,1.997018102751122e-23,9.813662563769034,1.5707963267948963,2.7455596399522186e-05,2.661682453137225e-16,2.79183632379757e-20,-7.292114999999996e-05,2.79183632379757e-20,293.5618224124599,339.62715958657293,1.2047294648280529,99258.18347357058,287.0222634873021,-137.74996176973607,-7.86536359804993e-15,135.1850931199065,0.0,0.0,0.0,1.2340129613876345,105804.40757946132,419.10393723925785,-293.5618224124599
0.5899999737739563,6378313.421276693,452.5283076843984,1.3194273336793236e-16,6378313.434842846,178.11107700367793,1.3194273336793236e-16,293.3178183015805,764.1550091180584,4.615559369417796e-16,1.842541198334205e-14,299.0202459843261,-293.3720328001086,176.43732967463137,2.792447859090883e-05,2.0686147625754048e-23,9.813653518576286,1.5707963267948966,2.7924478587686953e-05,2.3811451409317793e-16,2.79183632379757e-20,-7.292114999999996e-05,2.79183632379757e-20,293.37203280010857,339.61587429860884,1.2043887698055866,99223.51904437946,287.00318918780323,-137.6014627215885,-3.66414156791416e-16,134.99475869817127,0.0,0.0,0.0,1.2334630489349363,105673.22782695312,418.9032651442871,-293.3720328001086
0.6000000238418579,6378316.353501918,460.16938644844157,1.365906829420935e-16,6378316.367530569,181.10088796032724,1.3659068294209352e-16,293.12725023096135,764.0607619448808,4.694700529636937e-16,1.8421712805650134e-14,298.9254472549592,-293.1823733207891,179.37010158697666,2.8393211856591475e-05,2.1414849157116686e-23,9.813644479243715,1.5707963267948963,2.8393211853390544e-05,5.998348521693911e-17,2.79183632379757e-20,-7.292114999999996e-05,2.79183632379757e-20,293.1823733207891,339.604595942286,1.2040483689976322,99188.8868513899,286.98412723734293,-137.45320543887294,-3.7220895949466816e-16,134.80474334423934,0.0,0.0,0.0,1.232913613319397,105542.25848573928,418.7027814443359,-293.1823733207891
0.6100000143051147,6378319.2838221155,467.8095232475347,1.413239075437856e-16,6378319.298320977,184.08975275975817,1.4132390754378563e-16,292.93681240770894,763.966616098313,4.784036120435198e-16,1.8419041026013027e-14,298.8307504799893,-292.99284375642804,182.30097755763532,2.886179636022616e-05,2.2156919538682544e-23,9.813635445767265,1.5707963267948966,2.8861796356700595e-05,7.135066737463094e-17,2.79183632379757e-20,-7.292114999999996e-05,2.79183632379757e-20,292.9928437564281,339.59332451324434,1.2037082620975912,99154.28685795667,286.96507762738526,-137.30518939728358,-3.7752357951443434e-16,134.61504636148317,0.0,0.0,0.0,1.2323647737503052,105411.51124533614,418.5024861394043,-292.99284375642804
0.6200000047683716,6378322.212238584,475.44871909411864,1.4613825196867305e-16,6378322.227215362,187.0776724185108,1.4613825196867308e-16,292.74650461370896,763.8725714134259,4.863066298160195e-16,1.841534664674149e-14,298.7361554938105,-292.8034438894278,185.229958877635,2.933023226180547e-05,2.2911707295417602e-23,9.81362641814292,1.5707963267948966,2.933023225796051e-05,7.566545321077271e-17,2.79183632379757e-20,-7.292114999999996e-05,2.79183632379757e-20,292.8034438894278,339.5820600071882,1.2033684488013379,99119.71902767404,286.9460403495048,-137.1574140741549,-3.833002869035085e-16,134.42566705538005,0.0,0.0,0.0,1.231816291809082,105280.98610574368,418.3023478303223,-292.8034438894278
0.6299999952316284,6378325.138752625,483.0869749989874,1.5103979114295256e-16,6378325.1542150285,190.06464795147423,1.5103979114295258e-16,292.5563266313223,763.7786277256487,4.952264863423404e-16,1.8412677034601735e-14,298.6416621311753,-292.6141735026657,188.1570468493581,2.979851972106019e-05,2.3680164843286805e-23,9.81361739636666,1.5707963267948966,2.97985197172449e-05,2.0394859313043868e-16,2.79183632379757e-20,-7.292114999999996e-05,2.79183632379757e-20,292.6141735026657,339.5708024197775,1.2030289288034595,99085.1833240406,286.92701539520266,-137.00987894807903,-3.8859876665990615e-16,134.2366047331367,0.0,0.0,0.0,1.2312681674957275,105150.68306696192,418.1023665170899,-292.6141735026657
0.6399999856948853,6378328.063365532,490.7242919712903,1.560213160621804e-16,6378328.0793212615,193.0506803718896,1.560213160621804e-16,292.36627824338484,763.6847848707656,5.015886161927245e-16,1.840745761089802e-14,298.5472702271937,-292.42503237949194,191.08224276156128,3.0266658897464548e-05,2.446116192996455e-23,9.81360838043448,1.5707963267948966,3.026665889395818e-05,2.0837688138357988e-16,2.79183632379757e-20,-7.292114999999996e-05,2.79183632379757e-20,292.42503237949194,339.5595517467233,1.2026897018006035,99050.67971075365,286.90800275606824,-136.8625834992323,-3.9505874428958415e-16,134.04785870400673,0.0,0.0,0.0,1.2307206392288208,105020.59043947452,417.902573598877,-292.42503237949194
0.6499999761581421,6378330.986078604,498.36067101853695,1.6107053283429825e-16,6378331.002535366,196.03577069135454,1.6107053283429827e-16,292.17635923320523,763.5910426849172,5.084580740944708e-16,1.84027534171206e-14,298.4529796173331,-292.236020303729,194.00554791208506,3.073464995022922e-05,2.525277109234345e-23,9.813599370342354,1.5707963267948963,3.073464994621322e-05,2.4750641543639515e-16,2.79183632379757e-20,-7.292114999999996e-05,2.79183632379757e-20,292.23602030372894,339.54830798370097,1.202350767488542,99016.20815144178,286.8890024236322,-136.71552720907118,-4.012735756925476e-16,133.85942827899189,0.0,0.0,0.0,1.2301734685897827,104890.71991279781,417.7029690756836,-292.236020303729
0.6600000262260437,6378333.906893129,505.9961131465998,1.6619250191113204e-16,6378333.92385862,199.01991991982564,1.6619250191113204e-16,291.9865693845639,763.4974010045977,5.153245206319112e-16,1.839805410064555e-14,298.35879013741646,-292.0471370596696,196.9269635806024,3.1202493038311814e-05,2.605578569798216e-23,9.813590366086311,1.5707963267948963,3.1202493034128264e-05,1.0134579812241743e-16,2.79183632379757e-20,-7.292114999999996e-05,2.79183632379757e-20,292.0471370596696,339.53707112645463,1.2020121255653664,98981.76860998555,286.8700143895432,-136.568709560686,-7.827725870656451e-15,133.67131277118563,0.0,-0.0,0.0,1.2296267747879028,104761.05979741545,417.50352154833985,-292.0471370596696
0.6700000166893005,6378336.825810403,513.630619359718,1.7139632652801934e-16,6378336.843292326,202.00312906562283,1.7139632652801934e-16,291.7969084817119,763.4038596666546,5.257433682922179e-16,1.8396915060780558e-14,298.26470162362085,-291.8583824320766,199.84649106381835,3.167018832040989e-05,2.68716329433605e-23,9.81358136766234,1.5707963267948963,3.1670188316449735e-05,1.9203253363422127e-16,2.79183632379757e-20,-7.292114999999996e-05,2.79183632379757e-20,291.85838243207667,339.52584117066215,1.201673775727621,98947.36105010279,286.85103864533926,-136.42213003833254,-7.821867527354962e-15,133.48351149531445,0.0,0.0,0.0,1.2290805578231812,104631.62178284378,417.30426241601566,-291.8583824320766
0.6800000071525574,6378339.742831711,521.264190660501,1.76689069616565e-16,6378339.760837755,204.98539913543232,1.76689069616565e-16,291.60737630936956,763.3104185082883,5.320942152769333e-16,1.8391715882576314e-14,298.1707139124782,-291.6697562061803,202.7641316379994,3.2137735954964424e-05,2.770142014230248e-23,9.813572375066478,1.5707963267948963,3.213773595133938e-05,1.3908281001098085e-17,2.79183632379757e-20,-7.292114999999996e-05,2.79183632379757e-20,291.6697562061803,339.51461811207884,1.201335717674222,98912.9854357901,286.83207518269154,-136.27578812792166,-7.817875915069544e-15,133.29602376821407,0.0,-0.0,0.0,1.2285348176956177,104502.40586908281,417.10516027954105,-291.6697562061803
0.6899999976158142,6378342.657958339,528.896828049932,1.8206152206182057e-16,6378342.676496202,207.96673113431112,1.8206152206182052e-16,291.41797265272487,763.21707736705,5.409760825005637e-16,1.8389055573825075e-14,298.07682684087223,-291.4812581676781,205.67988659417333,3.260513610015811e-05,2.854370346640854e-23,9.813563388294723,1.5707963267948963,3.260513609597979e-05,2.532899564179835e-16,2.79183632379757e-20,-7.292114999999996e-05,2.79183632379757e-20,291.4812581676781,339.50340194640245,1.2009979511028996,98878.64173090785,286.8131239931749,-136.12968331655082,-4.237077187658003e-16,133.10884890837076,0.0,0.0,0.0,1.2279894351959229,104373.40036661619,416.90624653808595,-291.4812581676781
0.699999988079071,6378345.571191573,536.5285325273716,1.8750149071761325e-16,6378345.590268947,210.94712606568945,1.8750149071761325e-16,291.22869729743263,763.1238360808419,5.483322575170921e-16,1.8384877408987106e-14,297.98304024603965,-291.2928881027331,208.59375720974208,3.30723889139223e-05,2.939657125213314e-23,9.813554407343108,1.5707963267948966,3.307238890979808e-05,4.09286320337113e-17,2.79183632379757e-20,-7.292114999999996e-05,2.79183632379757e-20,291.2928881027331,339.49219266938206,1.2006604757131363,98844.32989951468,286.79418506845303,-135.98381509287316,-4.2964061410228655e-16,132.92198623627905,0.0,0.0,0.0,1.2274446487426758,104244.60527544392,416.7074897924805,-291.2928881027331
0.7099999785423279,6378348.482532694,544.1593050905608,1.9300995293298195e-16,6378348.502157272,213.9265849313741,1.93009952932982e-16,291.03955002961305,763.0306944879147,5.536633744534695e-16,1.837868200912401e-14,297.8893539655669,-291.1046457979724,211.50574476664963,3.353949455392653e-05,3.0260176714888556e-23,9.81354543220767,1.5707963267948963,3.3539494549987325e-05,3.2781530329894953e-16,2.79183632379757e-20,-7.292114999999996e-05,2.79183632379757e-20,291.1046457979724,339.48099027674834,1.200323291204054,98810.04990565339,286.7752584001602,-135.83818294685366,-7.804781826520482e-15,132.73543507420345,0.0,0.0,0.0,1.2269002199172974,104116.03228508234,416.50892144189453,-291.1046457979724
0.7200000286102295,6378351.391982982,551.7891467356255,1.98604026143672e-16,6378351.412162447,216.9051087315534,1.98604026143672e-16,290.8505306358506,762.937652426869,5.635351073972615e-16,1.837703503528642e-14,297.7957678373914,-290.9165310404863,214.41585053548516,3.4006453177592545e-05,3.1137203517844864e-23,9.813536462884459,1.5707963267948963,3.400645317339328e-05,2.741947295801288e-16,2.79183632379757e-20,-7.292114999999996e-05,2.79183632379757e-20,290.9165310404863,339.4697947642748,1.1999863972764755,98775.80171353793,286.7563439800046,-135.69278636997421,-4.4124725977451675e-16,132.5491947463763,0.0,0.0,0.0,1.2263561487197876,103987.6697060151,416.3105100871582,-290.9165310404863
0.7300000190734863,6378354.299543714,559.4180584570784,2.0427962371546163e-16,6378354.320285758,219.8826984647994,2.0427962371546166e-16,290.66163890319217,762.8447097366519,5.728932106592433e-16,1.8374882228776418e-14,297.7022816997992,-290.728543617827,217.32407579478624,3.4473264942083734e-05,3.202701093985731e-23,9.81352749936951,1.5707963267948966,3.447326493776753e-05,3.897977862944699e-16,2.79183632379757e-20,-7.292114999999996e-05,2.79183632379757e-20,290.728543617827,339.4586061277035,1.199649793630553,98741.58528732618,286.7374417996425,-135.54762485497466,-7.793870452793815e-15,132.36326457874299,0.0,0.0,0.0,1.2258126735687256,103859.51753824222,416.1122871274414,-290.728543617827
0.7400000095367432,6378357.2052161675,567.0460412478245,2.1005481214357608e-16,6378357.22652847,222.8593551280716,2.1005481214357613e-16,290.4728746191467,762.7518662565577,5.827466913814303e-16,1.837323258375552e-14,297.6088953914243,-290.5406833180067,220.23042181627753,3.493993000430869e-05,3.293243143261273e-23,9.813518541658889,1.5707963267948966,3.493992999981097e-05,4.143854587086894e-16,2.79183632379757e-20,-7.292114999999996e-05,2.79183632379757e-20,290.5406833180067,339.4474243628013,1.1993134799674188,98707.40059129345,286.7185518507747,-135.40269789604287,-7.78831662632192e-15,132.17764389914652,0.0,-0.0,0.0,1.2252695560455322,103731.58747128003,415.9142211635742,-290.5406833180067
0.75,6378360.109001617,574.6730960991624,2.1592246730771327e-16,6378360.1308918595,225.83507971672077,2.1592246730771335e-16,290.2842375716831,762.659121826226,5.91586808406718e-16,1.837057734611426e-14,297.51560875124795,-290.35294992949747,223.1348898694128,3.540644852092468e-05,3.385234805520142e-23,9.813509589748652,1.5707963267948963,3.540644851673938e-05,2.5995779980707755e-16,2.79183632379757e-20,-7.292114999999996e-05,2.79183632379757e-20,290.3529499294974,339.43624946534334,1.1989774559888229,98673.24758977933,286.69967412511687,-135.25800498875014,-7.783230562413764e-15,131.99233203726268,0.0,-0.0,0.0,1.224726915359497,103603.86781561219,415.7163435947266,-290.35294992949747
0.7599999904632568,6378363.010901328,582.2992240007895,2.2188652490963917e-16,6378363.033377192,228.80987322449258,2.2188652490963921e-16,290.0957275492295,762.5664762856413,6.014236741230306e-16,1.836892661531623e-14,297.4224216185973,-290.16534324122887,226.0374812202394,3.587282064833938e-05,3.478737782809881e-23,9.81350064363487,1.5707963267948963,3.587282064416804e-05,2.464086607784006e-16,2.79183632379757e-20,-7.292114999999996e-05,2.79183632379757e-20,290.16534324122887,339.42508143111684,1.1986417213970308,98639.12624720045,286.68080861440677,-135.1135456300614,-4.609215434026364e-16,131.80732832460853,0.0,0.0,0.0,1.2241846323013306,103476.3585712387,415.5186230217285,-290.16534324122887
0.7699999809265137,6378365.910916572,589.924425940805,2.279258564722882e-16,6378365.933985739,231.78373664353006,2.2792585647228823e-16,289.9073443406718,762.4739294751321,6.06743276972176e-16,1.8362766366906904e-14,297.32933383314526,-289.97786304258756,228.9381971393466,3.6339046542702166e-05,3.573420820955782e-23,9.81349170331361,1.5707963267948963,3.63390465382254e-05,2.3805013965352427e-16,2.79183632379757e-20,-7.292114999999996e-05,2.79183632379757e-20,289.97786304258756,339.4139202558904,1.1983062758942051,98605.0365279572,286.66195531035277,-134.9693193182275,-7.774223127115516e-15,131.6226320944353,0.0,-0.0,0.0,1.2236429452896118,103349.05973815954,415.32109084375,-289.97786304258756
0.7799999713897705,6378368.809048619,597.5487029057122,2.3403239981030853e-16,6378368.832718761,234.75667096437763,2.3403239981030853e-16,289.71908773535256,762.3814812353687,6.13563753025384e-16,1.8358114724089015e-14,297.2363452349082,-289.7905091234155,231.837038883698,3.680512635991633e-05,3.6691575195729276e-23,9.813482768780974,1.5707963267948961,3.680512635556348e-05,2.718501424077106e-16,2.79183632379757e-20,-7.292114999999996e-05,2.79183632379757e-20,289.79050912341546,339.4027659354842,1.1979711191842097,98570.97839664728,286.6431142047518,-134.82532555301734,-7.770071343472605e-15,131.4382426819535,0.0,0.0,0.0,1.2231016159057615,103221.97131637474,415.1237156616211,-289.7905091234155
0.7900000214576721,6378371.705298733,605.1720558804236,2.4020812276448194e-16,6378371.729577524,237.7286771759852,2.40208122764482e-16,289.5309575230697,762.2891314073647,6.218790287695723e-16,1.8354965600508857e-14,297.1434556642464,-289.6032812740089,234.73400772274735,3.727106025563206e-05,3.7659787290815685e-23,9.813473840033021,1.5707963267948963,3.727106025114831e-05,2.435287487683361e-16,2.79183632379757e-20,-7.292114999999996e-05,2.79183632379757e-20,289.6032812740089,339.39161846566947,1.1976362509698766,98536.95181775845,286.6242852893195,-134.68156383537308,-4.791775219362988e-16,131.25415942399545,0.0,0.0,0.0,1.2225606441497805,103095.10499540063,414.9264974753418,-289.6032812740089
0.800000011920929,6378374.599668175,612.794485848263,2.464659670990352e-16,6378374.624563286,240.6997562657104,2.464659670990352e-16,289.342953494075,762.1968798324741,6.291905240957524e-16,1.8350820403244515e-14,297.05066496186254,-289.41617928511715,237.6291049111873,3.7736848385246494e-05,3.8640873487486293e-23,9.813464917065867,1.5707963267948966,3.773684838094251e-05,2.2169901564040898e-16,2.79183632379757e-20,-7.292114999999996e-05,2.79183632379757e-20,289.41617928511715,339.38047784227336,1.1973016709557909,98502.95675598904,286.6054685558679,-134.53803366776157,-7.760883264517529e-15,131.0703816593554,0.0,0.0,0.0,1.2220202684402466,102968.43739620452,414.72946768408207,-289.41617928511715
0.8100000023841858,6378377.492158207,620.4159937909701,2.5280587792252594e-16,6378377.517677313,243.6699092193226,2.5280587792252594e-16,289.1550754390733,762.1047263523909,6.384908253503031e-16,1.834867170585714e-14,296.9579729688002,-289.2292029479415,240.52233171165884,3.820249090391069e-05,3.963482516320372e-23,9.813455999875586,1.5707963267948966,3.820249089914595e-05,2.1248329717147703e-16,2.79183632379757e-20,-7.292114999999996e-05,2.79183632379757e-20,289.2292029479415,339.3693440610914,1.1969673788460218,98468.99317598056,286.5866639961571,-134.39473455387235,-7.755624743298524e-15,130.88690872849511,0.0,0.0,0.0,1.2214802503585815,102841.98020830276,414.5325948886719,-289.2292029479415
0.8199999928474426,6378380.382770086,628.0365806887027,2.592397436970128e-16,6378380.408920855,246.6391370210065,2.5923974369701285e-16,288.96732314922116,762.0126708091481,6.467886736496391e-16,1.8345528236705483e-14,296.86537952644466,-289.0423520541334,243.41368937431278,3.86679879665261e-05,4.064350616978391e-23,9.813447088458316,1.5707963267948966,3.866798796173343e-05,2.382059937367277e-16,2.79183632379757e-20,-7.292114999999996e-05,2.79183632379757e-20,289.04235205413346,339.35821711796626,1.1966333743463915,98435.06104255814,286.5678716020285,-134.2516659988818,-4.953110893685216e-16,130.7037399737976,0.0,0.0,0.0,1.2209407091140747,102715.73343169533,414.3359104882813,-289.0423520541334
0.8299999833106995,6378383.271505071,635.6562475200403,2.657475999375233e-16,6378383.298295165,249.60744065336533,2.6574759993752337e-16,288.77969641612526,761.9207130451174,6.560731736451921e-16,1.834337908771084e-14,296.7728844765199,-288.85562639579416,246.30317915157082,3.9133339727742865e-05,4.1663786465305065e-23,9.81343818281016,1.5707963267948966,3.9133339722929244e-05,2.589515247010772e-16,2.79183632379757e-20,-7.292114999999996e-05,2.79183632379757e-20,288.85562639579416,339.34709700873094,1.1962996571625668,98401.16032055671,286.54909136530887,-134.10882750925407,-7.745587672534704e-15,130.52087473937357,0.0,0.0,0.0,1.2204015254974363,102589.70875589861,414.13938308374026,-288.85562639579416
