time,eiPosition_m_X,eiPosition_m_Y,eiPosition_m_Z,eiVelocity_m_s_X,eiVelocity_m_s_Y,eiVelocity_m_s_Z,feVelocity_m_s_X,feVelocity_m_s_Y,feVelocity_m_s_Z,altitudeMsl_m,longitude_rad,latitude_rad,localGravity_m_s2,eulerAngle_rad_Yaw,eulerAngle_rad_Pitch,eulerAngle_rad_Roll,bodyAngularRateWrtEi_rad_s_Roll,bodyAngularRateWrtEi_rad_s_Pitch,bodyAngularRateWrtEi_rad_s_Yaw,speedOfSound_m_s,airDensity_kg_m3,ambientPressure_Pa,ambientTemperature_K,aero_bodyForce_N_X,aero_bodyForce_N_Y,aero_bodyForce_N_Z,aero_bodyMoment_Nm_L,aero_bodyMoment_Nm_M,aero_bodyMoment_Nm_N,mach,dynamicPressure_Pa
0.0,6378137.000012401,0.0,0.0,304.8,769.9010848988399,1.866300083224728e-14,1.866300083224728e-14,304.8,-304.8,0.0,0.0,0.0,9.814197353257681,1.5707963267948966,0.0,0.0,0.0,-7.292107787879948e-05,0.0,340.29396092964004,1.225000214434414,101326.04347656727,288.15,-146.79487988857724,1.8528118692914062e-30,146.79487988857724,0.0,0.0,0.0,1.26670568186,113806.2440076365
0.1,6378167.38086096,76.9400010103176,1.86323198618796e-15,302.81988728286484,768.900784952784,1.860175214452392e-14,1.860175214452392e-14,303.7938316316448,-302.8291625312688,30.38133924855888,4.770911322789236e-06,0.0,9.8141037052995,1.5707963267948966,4.770918534908584e-06,-7.386229340511389e-22,0.0,-7.292107787879948e-05,0.0,340.177334159592,1.2214312623131676,100961.59772672191,287.9525222388889,-145.17247733523118,6.48201315475993e-20,144.710114800775,0.0,0.0,0.0,1.26095342661,112369.3517220954
0.2,6378197.564442961,153.7805238329016,3.72037289072016e-15,300.8539539318336,767.911490414232,1.854117731949144e-14,1.854117731949144e-14,302.7987350385552,-300.8724684527928,60.566303946144004,9.526111871510123e-06,0.0,9.814010663976564,1.5707963267948966,9.526126295748819e-06,-1.4762838923587169e-21,0.0,-7.292107787879948e-05,0.0,340.061422718568,1.2178932955189123,100600.56294354374,287.756322775,-143.57700828780582,1.2821758928698563e-19,142.6609191613663,0.0,0.0,0.0,1.2552502172,110956.97027622761
0.3,6378227.552130001,230.52265985962563,5.571489540158401e-15,298.9019587153848,766.9330189975441,1.8481265205036003e-14,1.8481265205036003e-14,301.8145271791872,-298.9296771045504,90.55629635770799,1.4265774087973976e-05,0.0,9.81391822495517,1.5707963267948966,1.4265795724332022e-05,-2.2129934335224273e-21,0.0,-7.292107787879948e-05,0.0,339.946221930936,1.2143859840545912,100242.89956644761,287.5613924588889,-142.0078791520332,1.9022823694176726e-19,140.64650446969125,0.0,0.0,0.0,1.24959529213,109568.55880648807
0.4,6378257.34529368,307.167482455272,7.416647658237119e-15,296.9636657335584,765.9651924099601,1.842200489392008e-14,1.842200489392008e-14,300.8410290338328,-297.0005531449752,120.3526949383248,1.8990067570885667e-05,0.0,9.813826383932168,1.5707963267948966,1.8990096419432876e-05,-2.9487619420977305e-21,0.0,-7.292107787879948e-05,0.0,339.831727197264,1.2109090036180827,99888.56873868813,287.3677222938889,-140.46451283387873,2.508868756915242e-19,138.66610409744035,0.0,0.0,0.0,1.24398790746,108203.59147272054
0.5,6378286.9453056,383.71604735224804,9.25591188983592e-15,295.0388442710424,765.00783626016,1.83633857171988e-14,1.83633857171988e-14,299.8780654930632,-295.0848664052616,149.9568548845728,2.3699159138413677e-05,0.0,9.813735136726423,1.5707963267948966,2.3699195199010416e-05,-3.683599632322132e-21,0.0,-7.292107787879948e-05,0.0,339.71793400041605,1.2074620354888186,99537.53228820764,287.1753034366667,-138.94634818974077,3.10227281258411e-19,136.71897255647735,0.0,0.0,0.0,1.2384273363,106861.55695924537
0.6,6378316.353506881,460.169393030976,1.108934582464728e-14,293.1272686548312,764.06077994244,1.83053972375448e-14,1.83053972375448e-14,298.925465250744,-293.1823917467184,179.37010861471683,2.839321288854358e-05,0.0,9.813644479217846,1.5707963267948966,2.8393256161189856e-05,-4.417516551933962e-21,0.0,-7.292107787879948e-05,0.0,339.604837905552,1.204044766393784,99189.75271518732,286.9841271916667,-137.45283949889176,3.6828223944800273e-19,134.80438480002366,0.0,0.0,0.0,1.23291286839,105541.95799126884
0.7,6378345.57120816,536.52854109876,1.2917012019945119e-14,291.228718114932,763.1238565361281,1.8248029242908397e-14,1.8248029242908397e-14,297.9830606979648,-291.29290892299923,208.5937662902208,3.307239025777346e-05,0.0,9.813554407286416,1.5707963267948966,3.307244074264381e-05,-5.1505225856578006e-21,0.0,-7.292107787879948e-05,0.0,339.49243454488806,1.2006568883889817,98845.19317385266,286.79418500944445,-135.98345595371188,4.2508358032942977e-19,132.92163554741822,0.0,0.0,0.0,1.22744380963,104244.31087379628
0.8,6378374.599689601,612.794496651888,1.473897202274376e-14,289.3429766526912,762.196902698904,1.8191271740391118e-14,1.8191271740391118e-14,297.0506878248936,-289.4162024472096,237.62911627538642,3.773685007909377e-05,0.0,9.81346491702557,1.5707963267948966,3.773690777601365e-05,-5.882627458869664e-21,0.0,-7.292107787879948e-05,0.0,339.380719629888,1.1972980987305863,98503.81746098223,286.60546848222225,-134.53768117305358,4.806622110272229e-19,131.07003863601165,0.0,0.0,0.0,1.22201948164,102968.14504682449
0.9,6378403.44020088,688.9682486261521,1.655528639153016e-14,287.4698329112544,761.279758578408,1.813511495039352e-14,1.813511495039352e-14,296.12818611988797,-287.5520614638912,266.4774256259472,4.238674863696519e-05,0.0,9.813376004406898,1.5707963267948966,4.23868135459346e-05,-6.613840740825868e-21,0.0,-7.292107787879948e-05,0.0,339.26968894212,1.1939680997873303,98165.58999771322,286.41796934055554,-133.1150127311752,5.350481472689905e-19,129.24892639930488,0.0,0.0,0.0,1.21663922138,101713.00265633456
1.0,6378432.094052641,765.0507701412721,1.8366014717264637e-14,285.60908005059844,760.3722677116561,1.8079549300732558e-14,1.8079549300732558e-14,295.2153984792744,-285.70027962313924,295.13994053560083,4.702223972177287e-05,0.0,9.813287665645902,1.5707963267948966,4.702231184296636e-05,-7.344171848118782e-21,0.0,-7.292107787879948e-05,0.0,339.159338336304,1.1906665989065057,97830.47581900767,286.23167945277777,-131.71496170535633,5.882705436426666e-19,127.45764906554955,0.0,0.0,0.0,1.21130238071,100478.43814395812
1.1,6378460.5624336,841.0430188361761,2.017121564380248e-14,283.7605156268304,759.474276936648,1.802456542112472e-14,1.802456542112472e-14,294.31217111194564,-283.8606549617304,323.61788678680807,5.164347468323358e-05,0.0,9.813199896927687,1.5707963267948966,5.1643554016476596e-05,-8.073630047888225e-21,0.0,-7.292107787879948e-05,0.0,339.049663737264,1.187393308295427,97498.4405588097,286.0465908188889,-130.33705224219673,6.403577227092323e-19,125.69557418081375,0.0,0.0,0.0,1.20600832602,99264.01784957114
1.2,6378488.846562961,916.945937195136,2.1970946887827838e-14,281.9239414757544,758.585636303976,1.7970154137852e-14,1.7970154137852e-14,293.4183534540168,-282.0329897857752,351.91247017416,5.62506024806611e-05,0.0,9.813112694467907,1.5707963267948966,5.6250689026128185e-05,-8.802224460893257e-21,0.0,-7.292107787879948e-05,0.0,338.940661133832,1.1841479449492776,97169.45043520261,285.86269557,-128.98082113770386,6.913372029691293e-19,123.96208605606796,0.0,0.0,0.0,1.20075643783,98069.31963112469
1.3,6378516.947629441,992.7604528708559,2.37652652583e-14,280.0991635991808,757.706198994528,1.79163064684584e-14,1.79163064684584e-14,292.5337980822624,-280.217090557332,380.024876933232,6.084376973392992e-05,0.0,9.813026054634689,1.5707963267948966,6.084386349144654e-05,-9.52996406467122e-21,0.0,-7.292107787879948e-05,0.0,338.83232658189604,1.1809302305222649,96843.47224035398,285.6799859638889,-127.64581743650817,7.412357258006903e-19,122.25658523028478,0.0,0.0,0.0,1.19554611047,96893.93249836095
1.4,6378544.86679128,1068.4874789770802,2.555422667525952e-14,278.28599205580804,756.8358212341441,1.786301361687312e-14,1.786301361687312e-14,291.65836063060084,-278.4127677858984,407.95627416151206,6.542312077147172e-05,0.0,9.812939973796237,1.5707963267948966,6.542322174103789e-05,-1.0256857696417525e-20,0.0,-7.292107787879948e-05,0.0,338.724656210496,1.177739891234854,96520.4733261516,285.4984543855556,-126.33160204041978,7.900792812998582e-19,120.57848795533485,0.0,0.0,0.0,1.19037675167,95737.45625658413
1.5,6378572.60520672,1144.127914405584,2.733788618823816e-14,276.4842408548472,755.974362208272,1.781026696835088e-14,1.781026696835088e-14,290.791899711456,-276.6198359226456,435.707810183856,6.998879767809747e-05,0.0,9.812854448412253,1.5707963267948966,6.998890585988769e-05,-1.0982914056005083e-20,0.0,-7.292107787879948e-05,0.0,338.61764619744,1.174576657775843,96200.42159271226,285.3180933394445,-125.03774733833619,8.378931331546417e-19,118.92722570312385,0.0,0.0,0.0,1.18524778224,94599.50117054096
1.6,6378600.16400352,1219.68264410964,2.9116297994242076e-14,274.6937278539144,755.1216839949121,1.7758058084778e-14,1.7758058084778e-14,289.9342768362048,-274.8381132580056,463.28061497616005,7.454094034107401e-05,0.0,9.812769474912036,1.5707963267948966,7.454105573491377e-05,-1.1708141708707015e-20,0.0,-7.292107787879948e-05,0.0,338.51129279978403,1.1714402652147506,95883.28547641162,285.1388954516667,-123.76383684371243,8.847018426121329e-19,117.30224468518466,0.0,0.0,0.0,1.18015863576,93479.68763261058
1.7,6378627.544309441,1295.152539390528,3.08895154548816e-14,272.9142746587512,754.277651485368,1.770637870016136e-14,1.770637870016136e-14,289.0853563423296,-273.06742182139203,490.675800534168,7.907968649497916e-05,0.0,9.812685049907836,1.5707963267948966,7.907980910086846e-05,-1.2432549087971715e-20,0.0,-7.292107787879948e-05,0.0,338.405592323352,1.1683304528935863,95569.03393839301,284.960853465,-122.50946484893406,9.305292915025024e-19,115.70300539451047,0.0,0.0,0.0,1.17510875822,92377.64585062524
1.8,6378654.74722176,1370.5384581810001,3.2657591114049604e-14,271.1457065272128,753.442132311096,1.765522071617832e-14,1.765522071617832e-14,288.24500531752324,-271.3075872861024,517.894461233136,8.360517176533482e-05,0.0,9.812601169981475,1.5707963267948966,8.360530158344819e-05,-1.3156144498180484e-20,0.0,-7.292107787879948e-05,0.0,338.300541141024,1.1652469643598498,95257.63645355492,284.7839602377778,-121.27423609214553,9.75398704413385e-19,114.12898216073256,0.0,0.0,0.0,1.17009760774,91293.01554143659
1.9,6378681.773807281,1445.84124530436,3.4420576713496805e-14,269.387852276304,752.6149967736001,1.760457619775712e-14,1.760457619775712e-14,287.4130935320232,-269.5584388760496,544.937674187496,8.81175297117167e-05,0.0,9.812517831806291,1.5707963267948966,8.811766674205412e-05,-1.38789361171608e-20,0.0,-7.292107787879948e-05,0.0,338.19613567749604,1.1621895472531492,94949.06300001736,284.60820874,-120.05776543341952,1.0193326700457903e-18,112.57966272487045,0.0,0.0,0.0,1.16512465425,90225.4456374097
2.0,6378708.625132801,1521.061732751832,3.6178523209687203e-14,267.6405441907392,751.7961177743281,1.755443736902304e-14,1.755443736902304e-14,286.5894933675936,-267.81980927432164,571.80649962576,9.26168918691185e-05,0.0,9.812435032086157,1.5707963267948966,9.261703611150547e-05,-1.4600931998751947e-20,0.0,-7.292107787879948e-05,0.0,338.092372418424,1.159157953253662,94643.28404619418,284.4335920522222,-118.85967754516084,1.0623531617515422e-18,111.05454782609203,0.0,0.0,0.0,1.16018937919,89174.59400536606
2.1,6378735.30226512,1596.200739923352,3.79314807894648e-14,265.90361793516,750.985370753712,1.750479660924456e-14,1.750479660924456e-14,285.7740797535168,-266.09153453722803,598.501981201416,9.710338778792008e-05,0.0,9.81235276758597,1.5707963267948966,9.710353924253113e-05,-1.532214007537066e-20,0.0,-7.292107787879948e-05,0.0,337.989247910424,1.1561519379584457,94340.2705450475,284.2601033633333,-117.67960661274097,1.1044815573501076e-18,109.55315080404253,0.0,0.0,0.0,1.15529127526,88140.12717270831
2.2,6378761.80621008,1671.259073895792,3.9679498884684007e-14,264.17691247062004,750.182633618016,1.745564644887096e-14,1.745564644887096e-14,284.96673009984244,-264.3734540080416,625.0251463373521,0.00010157714507472816,0.0,9.812271035101173,1.5707963267948966,0.00010157730374138872,-1.6042568160280044e-20,0.0,-7.292107787879948e-05,0.0,337.886758745832,1.1531712608402058,94039.99391924473,284.08773596833333,-116.5171960458086,1.1457386581491904e-18,108.07499721674235,0.0,0.0,0.0,1.1504298461,87121.72006551537
2.3,6378788.13797352,1746.2375296515602,4.1422626188364e-14,262.4602699698504,749.387786693616,1.7406979565722318e-14,1.7406979565722318e-14,284.16732423673204,-262.6654102359216,651.37700655504,0.0001060382894292026,0.0,9.81218983154918,1.5707963267948966,0.00010603845530808723,-1.676222395012029e-20,0.0,-7.292107787879948e-05,0.0,337.784901577944,1.1502156851339134,93742.4260539766,283.91648326555554,-115.3720981998309,1.1861447073915068e-18,106.61962447182943,0.0,0.0,0.0,1.14560460607,86119.0557538194
2.4,6378814.29859176,1821.1368903254881,4.31609106677952e-14,260.7535357389264,748.600712644704,1.735878878133192e-14,1.735878878133192e-14,283.3757443531944,-260.9672488942272,677.558557791528,0.00011048694468297746,0.0,9.812109153786503,1.5707963267948966,0.00011048711777391164,-1.7481115027003107e-20,0.0,-7.292107787879948e-05,0.0,337.68367311492,1.1472849777904204,93447.5392878599,283.7463387544444,-114.24397410831061,1.2257194078875363e-18,105.1865814684774,0.0,0.0,0.0,1.14081507994,85131.82520789526
2.5,6378840.289009681,1895.9579274395282,4.4894399579779206e-14,259.0565581386288,747.821296430616,1.731106705738008e-14,1.731106705738008e-14,282.59187493856405,-259.2788187058416,703.570780701192,0.0001149232328352656,0.0,9.81202899879164,1.5707963267948966,0.0001149234131382493,-1.8199248861112216e-20,0.0,-7.292107787879948e-05,0.0,337.58307010454405,1.1443789093888461,93155.30640144617,283.577296035,-113.13249322123053,1.264481939105589e-18,103.77542825443781,0.0,0.0,0.0,1.13606080269,84159.7270612533
2.6,6378866.11023312,1970.7014011100161,4.6623139484344804e-14,257.36918850976804,747.04942524792,1.726380749221944e-14,1.726380749221944e-14,281.8156027255032,-257.5999713645336,729.4146409605361,0.00011934727408898696,0.0,9.811949363543132,1.5707963267948966,0.00011934746160419474,-1.8916632812239278e-20,0.0,-7.292107787879948e-05,0.0,337.483089361656,1.1414972540489625,92865.70061003978,283.40934880555557,-112.03733315773252,1.30245097359464e-18,102.38573569375781,0.0,0.0,0.0,1.13134131922,83202.46738464451
2.7,6378891.76317648,2045.3680602976083,4.8347176257854403e-14,255.691281100032,746.284988466408,1.721700331743072e-14,1.721700331743072e-14,281.0468166345288,-255.930561465768,755.091089554704,0.00012375918688584982,0.0,9.81187024514151,1.5707963267948966,0.00012375938161310711,-1.9633274132576402e-20,0.0,-7.292107787879948e-05,0.0,337.383727737672,1.1386397894002707,92578.69555460055,283.2424908583334,-110.95817946279968,1.3396446928689282e-18,101.01708514606351,0.0,0.0,0.0,1.12665618416,82259.75946389603
2.8,6378917.248784641,2119.958642999304,5.00665551061104e-14,254.0226929923584,745.527877586424,1.71706478946528e-14,1.71706478946528e-14,280.2854077203672,-254.270446432944,780.601063079232,0.0001281590879396864,0.0,9.811791640656859,1.5707963267948966,0.00012815928987899324,-2.034917996854874e-20,0.0,-7.292107787879948e-05,0.0,337.284982138872,1.1358062964686184,92294.26529216772,283.0767160816667,-109.89472537505921,1.3760808027053901e-18,99.66906815785326,0.0,0.0,0.0,1.12200496161,81331.32358875938
2.9,6378942.56800248,2194.4738764618082,5.1781320578071204e-14,252.36328403726884,744.777986177904,1.7124734712382317e-14,1.7124734712382317e-14,279.5312691201384,-252.61948645033922,805.945484005224,0.00013254709226978885,0.0,9.811713547250779,1.5707963267948966,0.00013254730142114524,-2.1064357362908893e-20,0.0,-7.292107787879948e-05,0.0,337.186849520304,1.1329965596298162,92012.38428915682,282.9120184538889,-108.84667160036798,1.4117765478539307e-18,98.34128616357731,0.0,0.0,0.0,1.1173872249,80416.88684894037
3.0,6378967.7217444,2268.914477400984,5.3491516576824004e-14,250.7129167848984,744.035209837704,1.707925738286472e-14,1.707925738286472e-14,278.7842960027592,-250.97754439574882,831.1252609658641,0.00013692331323337219,0.0,9.811635962054426,1.5707963267948966,0.00013692352959695264,-2.1778813256307696e-20,0.0,-7.292107787879948e-05,0.0,337.089326882736,1.1302103665580983,91733.02741130468,282.74839204555553,-107.8137260965185,1.446748726289523e-18,97.03335019650333,0.0,0.0,0.0,1.11280255643,79516.18293348097
3.1,6378992.71089432,2343.281152184736,5.5197186373910403e-14,249.07145642159762,743.299446134736,1.7034209639137678e-14,1.7034209639137678e-14,278.04438551956565,-249.34448577647763,856.141288997208,0.00014128786255716489,0.0,9.811558882320927,1.5707963267948966,0.0001412880861327949,-2.2492554489737683e-20,0.0,-7.292107787879948e-05,0.0,336.992411269608,1.1274475081282014,91456.16991744506,282.58583101444447,-106.79560386150366,1.4810137029438697e-18,95.74488061025771,0.0,0.0,0.0,1.10825054741,78628.9519416322
3.2,6379017.53633616,2417.574597031128,5.689837261908001e-14,247.4387707047048,742.570594564248,1.698958533210504e-14,1.698958533210504e-14,277.3114367564592,-247.7201786662464,880.99444983384,0.00014564085036760307,0.0,9.811482305333946,1.5707963267948966,0.00014564108115545712,-2.320558780627842e-20,0.0,-7.292107787879948e-05,0.0,336.896099776176,1.1247077783895965,91181.78744993266,282.4243296061111,-105.79202672978816,1.5145874229299664e-18,94.4755068097082,0.0,0.0,0.0,1.10373079768,77754.94019707874
3.3,6379042.198923361,2491.7954982126003,5.85951173537016e-14,245.8147299040248,741.8485565051521,1.694537842773264e-14,1.694537842773264e-14,276.58535068910163,-246.1044936433176,905.685612131376,0.00014998238522154816,0.0,9.811406228377196,1.5707963267948966,0.00014998262322145174,-2.3917919852841836e-20,0.0,-7.292107787879948e-05,0.0,336.800389534272,1.1219909744788734,90909.85603033376,282.26388215055556,-104.8027231797005,1.5474854243440815e-18,93.22486699029808,0.0,0.0,0.0,1.09924291552,76893.9000698244
3.4,6379066.699570321,2565.94453222056,6.02874620205168e-14,244.1992067399544,741.13323516516,1.690158300427464e-14,1.690158300427464e-14,275.8660301350608,-244.4973037319736,930.2156317285921,0.00015431257413525955,0.0,9.811330648795385,1.5707963267948966,0.00015431281934738717,-2.4629557182092065e-20,0.0,-7.292107787879948e-05,0.0,336.705277727544,1.1192968965630488,90640.35204745624,282.1044830627778,-103.82742813993532,1.5797228506229178e-18,91.99260788672171,0.0,0.0,0.0,1.09478651742,76045.58980334432
3.5,6379091.039069519,2640.022365966552,6.197544747674641e-14,242.59207632800883,740.4245355564,1.685819324962176e-14,1.685819324962176e-14,275.15337971357764,-242.89848434582402,954.585351894312,0.0001586315226130178,0.0,9.811255563963767,1.5707963267948966,0.00015863177503719496,-2.5340506254016272e-20,0.0,-7.292107787879948e-05,0.0,336.61076157316796,1.116625347803491,90373.25225399795,281.9461268383333,-102.86588280940047,1.6113144624292596e-18,90.77838452960674,0.0,0.0,0.0,1.09036122793,75209.77334748294
3.6,6379115.21824392,2714.029656946848,6.36591140026248e-14,240.9932161206048,739.72236442836,1.681520345880192e-14,1.681520345880192e-14,274.44730580015045,-241.307913229284,978.7956035407681,0.0001629393346748756,0.0,9.811180971349062,1.5707963267948966,0.00016293959431127683,-2.605077343766997e-20,0.0,-7.292107787879948e-05,0.0,336.516838337088,1.1139761342734582,90108.5337584071,281.7888080538889,-101.91783447750885,1.6422746491862113e-18,89.581860010648,0.0,0.0,0.0,1.08596667947,74386.22019709747
3.7,6379139.2379774405,2787.967053416184,6.533850131359201e-14,239.4025058543304,739.0266302496001,1.6772608031297998e-14,1.6772608031297998e-14,273.7477164869112,-239.72547040667283,1002.847205479632,0.00016723611288458278,0.0,9.811106868357093,1.5707963267948966,0.0001672363797330336,-2.676036501292233e-20,0.0,-7.292107787879948e-05,0.0,336.423505324872,1.111349064916869,89846.17401626373,281.63252136555553,-100.98303635559076,1.6726174401755114e-18,88.40270525485866,0.0,0.0,0.0,1.08160251215,73574.70523788349
3.8,6379163.099032081,2861.835194564544,6.70136485709616e-14,237.81982749569042,738.337243152888,1.673040146876184e-14,1.673040146876184e-14,273.0545215420872,-238.1510381255208,1026.740964635376,0.00017152195837541744,0.0,9.81103325251564,1.5707963267948966,0.00017152223243609228,-2.746928717237608e-20,0.0,-7.292107787879948e-05,0.0,336.33075988171197,1.1087439514967636,89586.15082692816,281.4772615066667,-100.06124740875119,1.7023565152888833e-18,87.24059880082794,0.0,0.0,0.0,1.0772683736,72775.0085922005
3.9,6379186.802200321,2935.634710672608,6.86845943895408e-14,236.24506519050962,737.6541149016721,1.6688578372575837e-14,1.6688578372575837e-14,272.36763237068163,-236.58450080902082,1050.477676267776,0.00017579697087636564,0.0,9.810960121352522,1.5707963267948966,0.00017579725215013725,-2.8177546022240127e-20,0.0,-7.292107787879948e-05,0.0,336.238599386328,1.1061606085283056,89328.44232396493,281.3230232861111,-99.15223219751307,1.7315052154101837e-18,86.09522658854101,0.0,0.0,0.0,1.07296391879,71986.91547638875
4.0,6379210.34830512,3009.3662232824404,7.035137685073681e-14,234.67810521394563,736.977158850456,1.6647133441506e-14,1.6647133441506e-14,271.68696197759283,-235.02574500299283,1074.058124179176,0.00018006124873899972,0.0,9.810887472456566,1.5707963267948966,0.00018006153722447177,-2.8885147584598536e-20,0.0,-7.292107787879948e-05,0.0,336.1470212692561,1.1035988532427048,89073.02697131233,281.1698015877778,-98.25576072168477,1.760076552410559e-18,84.96628175164709,0.0,0.0,0.0,1.06868880991,71210.2160576073
4.1,6379233.738078,3083.0303453316,7.201403350987202e-14,233.11883592019683,736.3062899173681,1.660606146947688e-14,1.660606146947688e-14,271.0124249292096,-233.4746593295544,1097.4830809339442,0.00018431488895946923,0.0,9.810815303386164,1.5707963267948966,0.00018431518465664176,-2.9592097798632215e-20,0.0,-7.292107787879948e-05,0.0,336.056022988464,1.1010585055408333,88819.88355466405,281.01759137,-97.37160827089974,1.7880832188633587e-18,83.85346442173757,0.0,0.0,0.0,1.06444271614,70444.70531737516
4.2,6379256.97231144,3156.62768138784,7.367260140624241e-14,231.5671476980016,735.641424529296,1.656535734349896e-14,1.656535734349896e-14,270.343937318664,-231.93113443774322,1120.753308068784,0.00018855798720450646,0.0,9.810743611821659,1.5707963267948966,0.00018855829011337944,-3.029840252166613e-20,0.0,-7.292107787879948e-05,0.0,335.965602041544,1.0985393879107646,88568.99117715981,280.8663876622222,-96.49955528004944,1.8155375974031954e-18,82.75648153173475,0.0,0.0,0.0,1.06022531358,69690.18292037961
4.3,6379280.05176744,3230.1588276247203,7.532711707256641e-14,230.0229329218704,734.9824806066481,1.652501604135216e-14,1.652501604135216e-14,269.6814167313888,-230.39506296054,1143.869556266472,0.00019279063783708277,0.0,9.810672395412967,1.5707963267948966,0.00019279094795765625,-3.100406753178731e-20,0.0,-7.292107787879948e-05,0.0,335.875755962664,1.096041325427774,88320.32925363991,280.71618556333334,-95.63938718694011,1.8424517697825223e-18,81.67504663173537,0.0,0.0,0.0,1.05603628504,68946.45308567806
4.4,6379302.977147041,3303.62437218432,7.697761654382401e-14,228.48608590910882,734.329377517632,1.648503262969608e-14,1.648503262969608e-14,269.024782209456,-228.86633946701522,1166.832565587504,0.0001970129339338618,0.0,9.810601651870991,1.5707963267948966,0.00019701325126788107,-3.170909852801936e-20,0.0,-7.292107787879948e-05,0.0,335.78648232561596,1.0935641456718783,88073.87750202662,280.56698024444444,-94.79089429795661,1.8688375256301846e-18,80.60887970841289,0.0,0.0,0.0,1.05187531993,68213.3244636459
4.5,6379325.749212241,3377.0248951924805,7.86241353664008e-14,226.95650287592642,733.682036050824,1.644540226190592e-14,1.644540226190592e-14,268.3739542201824,-227.3448604211808,1189.643065637736,0.00020122496731487022,0.0,9.81053137893717,1.5707963267948966,0.00020122529186058995,-3.241350113241685e-20,0.0,-7.292107787879948e-05,0.0,335.697778731624,1.0911076787072196,87829.6159428455,280.41876694222225,-93.95387165595014,1.894706370925279e-18,79.5577070088678,0.0,0.0,0.0,1.0477421141,67490.61001483948
4.6,6379348.36869456,3450.36096885024,8.0266708605708e-14,225.43408189385042,733.04037838164,1.640612017624368e-14,1.640612017624368e-14,267.72885462351604,-225.8305241390136,1212.301775760408,0.0002054268285592055,0.0,9.810461574383444,1.5707963267948966,0.0002054271603166257,-3.31172808912871e-20,0.0,-7.292107787879948e-05,0.0,335.609642827632,1.0886717570047597,87587.52488821282,280.2715409622223,-93.128118913464,1.9200695361551914e-18,78.52126087159533,0.0,0.0,0.0,1.04363636971,66778.12689460457
4.7,6379370.836264561,3523.6331577691203,8.19053708550216e-14,223.91872285040643,732.404328038808,1.636718169390744e-14,1.636718169390744e-14,267.08940664094644,-224.32323074700238,1234.809405228168,0.00020961860703296132,0.0,9.810392235981798,1.5707963267948966,0.00020961894600208202,-3.382044327623731e-20,0.0,-7.292107787879948e-05,0.0,335.52207228496803,1.0862562154422784,87347.5849403993,280.1252976738889,-92.3134402068488,1.944937984286814e-18,77.49927956412529,0.0,0.0,0.0,1.03955779509,66075.69634103669
4.8,6379393.15265376,3596.84201887968,8.35401562446264e-14,222.41032740858,731.773809883032,1.63285822171416e-14,1.63285822171416e-14,266.4555348244152,-222.8228821428288,1257.166653401568,0.00021380039090319024,0.0,9.810323361565214,1.5707963267948966,0.0002138007370840114,-3.4522993685745376e-20,0.0,-7.292107787879948e-05,0.0,335.43506481458405,1.0838608912219152,87109.77698512674,279.98003251333336,-91.50964403971922,1.9693224183952408e-18,76.49150712066198,0.0,0.0,0.0,1.03550610463,65383.14356437761
4.9,6379415.3185632005,3669.98810170584,8.517109844791201e-14,220.9087989656688,731.148750061272,1.629031722746904e-14,1.629031722746904e-14,265.82716502736,-221.3293819554384,1279.37420993328,0.00021797226716582877,0.0,9.810254949058152,1.5707963267948966,0.0002179726205583504,-3.5224937446556187e-20,0.0,-7.292107787879948e-05,0.0,335.348618151816,1.0814856238547061,86874.08218534364,279.8357409783333,-90.71654316463116,1.9932332891100942e-18,75.49769319262396,0.0,0.0,0.0,1.03148101862,64700.29764407286
5.0,6379437.33466344,3743.07194842584,8.67982306914312e-14,219.41404261884,730.5290759976,1.625238228401472e-14,1.625238228401472e-14,265.20422437575843,-219.8426355084648,1301.432754917448,0.00022213432165966025,0.0,9.810186996263187,1.5707963267948966,0.00022213468226562765,-3.592627981490331e-20,0.0,-7.292107787879948e-05,0.0,335.262730074672,1.0791302551142001,86640.48197835239,279.69241862944443,-89.93395447232115,2.0166808017771594e-18,74.5175928951804,0.0,0.0,0.0,1.02748226317,64026.99142439267
5.1,6379459.20159456,3816.0940940246405,8.842158576069121e-14,217.92596512520163,729.9147163474801,1.621477302158544e-14,1.621477302158544e-14,264.586641240696,-218.3625497821296,1323.342959057328,0.00022628663909074917,0.0,9.810119501165806,1.5707963267948966,0.00022628700690841705,-3.6627025976858095e-20,0.0,-7.292107787879948e-05,0.0,335.177398388592,1.0767946289900752,86408.95807054247,279.55006109000004,-89.16169888227996,2.0396749234243004e-18,73.55096666579762,0.0,0.0,0.0,1.02350957004,63363.06141531997
5.2,6379480.920057599,3889.0550664768,9.004119600868801e-14,216.44447486705522,729.305600982528,1.617748514923728e-14,1.617748514923728e-14,263.9743452094104,-216.88903337788562,1345.1054838481682,0.00023042930304989482,0.0,9.810052461690574,1.5707963267948966,0.00023042967808100848,-3.7327181050773105e-20,0.0,-7.292107787879948e-05,0.0,335.092620926448,1.074478591646908,86179.49243068713,279.40866404055555,-88.39960123732992,2.0622253894738275e-18,72.59758012189604,0.0,0.0,0.0,1.01956267658,62708.34769774736
5.3,6379502.490692641,3961.95538674648,9.16570933629168e-14,214.96948181684402,728.7016609569841,1.614051444853824e-14,1.614051444853824e-14,263.36726706029765,-215.4219964833648,1366.720981717416,0.00023456239603182952,0.0,9.80998587579257,1.5707963267948966,0.00023456277827289834,-3.8026750087805715e-20,0.0,-7.292107787879948e-05,0.0,335.00839555464006,1.0721819914035586,85952.06728754945,279.2682232238889,-87.64749020087082,2.084341710272483e-18,71.65720392651383,0.0,0.0,0.0,1.01564132557,62062.69382915304
5.4,6379523.91417024,4034.79556893984,9.326930933238241e-14,213.50089750240562,728.102828489424,1.6103856771952803e-14,1.6103856771952803e-14,262.76533873608963,-213.9613508382408,1388.1900961832162,0.00023868599945092698,0.0,9.809919741487864,1.5707963267948966,0.0002386863889054416,-3.8725738072965345e-20,0.0,-7.292107787879948e-05,0.0,334.924720173096,1.0699046786867865,85726.66512317907,279.1287344383333,-86.90519815990879,2.106033177394577e-18,70.72961365619479,0.0,0.0,0.0,1.01174526513,61425.94675550119
5.5,6379545.1911,4107.57612045744,9.4877875015524e-14,212.0386349746632,727.5090369261841,1.606750804140936e-14,1.606750804140936e-14,262.1684933194704,-212.5070097013104,1409.5134620311921,0.00024280019366389126,0.0,9.80985405685352,1.5707963267948966,0.00024280059033010632,-3.94241499265097e-20,0.0,-7.292107787879948e-05,0.0,334.84159270308004,1.0676465059797127,85503.26867147585,278.9901935405556,-86.17256112586095,2.1273088697582858e-18,69.81458967243466,0.0,0.0,0.0,1.0078742486,60797.95672026935
5.6,6379566.322122,4180.29754217712,9.6482821105092e-14,210.58260877440242,726.920220735264,1.603146424671528e-14,1.603146424671528e-14,261.576665007168,-211.05888781818481,1430.6917054302721,0.0002469050579872102,0.0,9.809788819875195,1.5707963267948966,0.00024690546186512574,-4.01219905048174e-20,0.0,-7.292107787879948e-05,0.0,334.759011102432,1.065407327811512,85281.86091100764,278.8525964438889,-85.44941864292203,2.14817765954624e-18,68.91191699935513,0.0,0.0,0.0,1.00402803446,60178.57718209452
5.7,6379587.30781536,4252.9603283016,9.808417789790161e-14,209.1327349011816,726.33631545756,1.5995721444185278e-14,1.5995721444185278e-14,260.989789087704,-209.616901388676,1451.725444106424,0.0002510006707076274,0.0,9.80972402869097,1.5707963267948966,0.00025100108179898874,-4.0819264601609784e-20,0.0,-7.292107787879948e-05,0.0,334.67697335642407,1.0631870007213362,85062.42506118013,278.71593911555556,-84.7356136990999,2.1686482179259345e-18,68.02138520182248,0.0,0.0,0.0,1.0002063862,59567.66473146141
5.8,6379608.14885064,4325.56496684616,9.968197529788081e-14,207.6889307822424,725.757257706864,1.5960275755086958e-14,1.5960275755086958e-14,260.4078019157904,-208.1809680378408,1472.615287476768,0.0002550871091100675,0.0,9.809659681378019,1.5707963267948966,0.0002550875274131293,-4.151597694864898e-20,0.0,-7.292107787879948e-05,0.0,334.595477468616,1.060985383191316,84844.94457936383,278.5802175777778,-84.0309926350271,2.1887290206277993e-18,67.1427882702387,0.0,0.0,0.0,0.996409072234,58965.07901217884
5.9,6379628.84580696,4398.11193936432,1.012762428252144e-13,206.251115242944,725.18298513024,1.5925123364391117e-14,1.5925123364391117e-14,259.83064089190805,-206.75100678550083,1493.3618367836882,0.00025916444948461743,0.0,9.80959577610496,1.5707963267948966,0.0002591648749993797,-4.221213221748327e-20,0.0,-7.292107787879948e-05,0.0,334.51452148524,1.0588023356620215,84629.40315610613,278.44542790555556,-83.33540506300314,2.208428353318651e-18,66.27592450711177,0.0,0.0,0.0,0.992635865801,58370.68264141971
6.0,6379649.39926344,4470.6017213136,1.0286700962213521e-13,204.8192084768928,724.61343639888,1.5890260519339202e-14,1.5890260519339202e-14,259.2582444388368,-205.3269380160672,1513.9656852472322,0.000263232767145725,0.0,9.809532310979495,1.5707963267948966,0.0002632331998721878,-4.2907735019272535e-20,0.0,-7.292107787879948e-05,0.0,334.434103467768,1.0566377204603086,84415.78471082203,278.3115662266667,-82.64870378114387,2.227754316841699e-18,65.42059641629506,0.0,0.0,0.0,0.988886544871,57784.341136943025
6.1,6379669.809860161,4543.034782086,1.0445430445749601e-13,203.3931320185104,724.0485511776241,1.5855683528132638e-14,1.5855683528132638e-14,258.69055198032004,-203.9086834520232,1534.4274181931282,0.0002672921364496524,0.0,9.809469284231275,1.5707963267948966,0.000267292576389561,-4.3602789907057194e-20,0.0,-7.292107787879948e-05,0.0,334.354221508152,1.0544914017838591,84204.07338892139,278.17862872055554,-81.97074469464792,2.2467148322385863e-18,64.57661059845397,0.0,0.0,0.0,0.985160892051,57205.922843358276
6.2,6379690.0780848,4615.41158503848,1.0603815573499922e-13,201.9728087146872,723.4882701066721,1.582138875874416e-14,1.582138875874416e-14,258.127503919728,-202.49616612405362,1554.7476131808,0.0002713426308119293,0.0,9.809406694059499,1.5707963267948966,0.00027134307796353836,-4.429730137610727e-20,0.0,-7.292107787879948e-05,0.0,334.27487372882405,1.0523632456754106,83994.25355558445,278.04661161666667,-81.30138673839767,2.2653176456958123e-18,63.7437776456432,0.0,0.0,0.0,0.981458694496,56635.29885934743
6.3,6379710.20460792,4687.732587645361,1.0761859149746401e-13,200.5581626976552,722.932534786344,1.578737263745472e-14,1.578737263745472e-14,257.56904161963683,-201.0893103466608,1574.9268401374802,0.00027538432271782484,0.0,9.80934453866339,1.5707963267948966,0.0002753847770811344,-4.499127386427145e-20,0.0,-7.292107787879948e-05,0.0,334.196058267456,1.05025311998668,83786.30979624062,277.915511195,-80.64049180089465,2.28357033327764e-18,62.92191204166653,0.0,0.0,0.0,0.977779743819,56072.342973505445
6.4,6379730.1899172,4759.99824158976,1.09195639433532e-13,199.1491193584704,722.381287740504,1.5753631647847678e-14,1.5753631647847678e-14,257.0151073823208,-199.6880416892088,1594.965661486224,0.00027941728373631034,0.0,9.80928281633365,1.5707963267948966,0.0002794177453130656,-4.568471175407148e-20,0.0,-7.292107787879948e-05,0.0,334.117773295248,1.0481608943422882,83580.22690747127,277.7853237838889,-79.98792465130876,2.3014803055522494e-18,62.11083206644007,0.0,0.0,0.0,0.974123836008,55516.93159204101
6.5,6379750.03459176,4832.208992916,1.1076932688284881e-13,197.74560532201923,721.8344724226561,1.572016232952864e-14,1.572016232952864e-14,256.4656444290264,-198.2922869521488,1614.8646322739282,0.0002834415845427485,0.0,9.809221525360998,1.5707963267948966,0.00028344205333120427,-4.637761937287673e-20,0.0,-7.292107787879948e-05,0.0,334.04001700473606,1.0460864401191436,83375.98989940372,277.65604576055557,-79.34355286830656,2.3190548120577476e-18,61.31035969724173,0.0,0.0,0.0,0.970490771342,54968.94367892624
6.6,6379769.73921072,4904.3652819381605,1.123396808415504e-13,196.34754842202483,721.292033179368,1.568696127699768e-14,1.568696127699768e-14,255.92059688290323,-196.90197414172079,1634.6243002749602,0.00028745729492412947,0.0,9.809160664005704,1.5707963267948966,0.00028745777092428575,-4.7070000993427714e-20,0.0,-7.292107787879948e-05,0.0,333.96278761588803,1.044029630420673,83173.58398661402,277.52767354944444,-78.70724677065921,2.3363009456391874e-18,60.52032052108127,0.0,0.0,0.0,0.966880354309,54428.26069030074
6.7,6379789.30429224,4976.467543575361,1.1390672796866402e-13,194.9548776757488,720.753915225888,1.56540251383692e-14,1.56540251383692e-14,255.37990974766802,-195.51703244496,1654.245206134416,0.0002914644837982694,0.0,9.809100230619508,1.5707963267948966,0.00029146496701187147,-4.7761860835930574e-20,0.0,-7.292107787879948e-05,0.0,333.886083370008,1.041990340035593,82972.99458860567,277.40020362,-78.07887935051906,2.3532256466877237e-18,59.740543643956556,0.0,0.0,0.0,0.963292393525,53894.766512706075
6.8,6379808.73035448,5048.516207229841,1.154704945897656e-13,193.567523259912,720.22006465224,1.562135061451848e-14,1.562135061451848e-14,254.8435288917552,-194.13739220592242,1673.7278834778479,0.00029546321922777324,0.0,9.809040223523695,1.5707963267948966,0.00029546370965307576,-4.845320306753344e-20,0.0,-7.292107787879948e-05,0.0,333.809902532784,1.0399684454276013,82774.20732502169,277.27363249,-77.45832620847558,2.369835707179596e-18,58.97086160188914,0.0,0.0,0.0,0.959726701659,53368.34740658704
6.9,6379828.01797656,5120.51169700032,1.170310067036856e-13,192.1854164893584,719.690428377504,1.558893445777104e-14,1.558893445777104e-14,254.311401029724,-192.7629849034344,1693.072859011848,0.0002994535684305063,0.0,9.808980641131008,1.5707963267948966,0.00029945406606576397,-4.914403180407175e-20,0.0,-7.292107787879948e-05,0.0,333.734243388192,1.037963824699299,82577.20801229299,277.14795672111114,-76.84546548950101,2.386137774683977e-18,58.21111028130114,0.0,0.0,0.0,0.956183095356,52848.89194596253
7.0,6379847.16761568,5192.45443165152,1.18588289986776e-13,190.8084897920616,719.16495415896,1.5556773471049198e-14,1.5556773471049198e-14,253.7834737048848,-191.3937431273184,1712.280652645968,0.0003034355977918122,0.0,9.808921481762788,1.5707963267948966,0.0003034361026405156,-4.9834351110417324e-20,0.0,-7.292107787879948e-05,0.0,333.659104250688,1.0359763575612708,82381.98266028668,277.02317291888886,-76.24017782289938,2.402138356175099e-18,57.46112883182998,0.0,0.0,0.0,0.952661395162,52336.290964320884
7.1,6379866.17985096,5264.34482482752,1.201423697983968e-13,189.436676689008,718.643590552464,1.55248645066224e-14,1.55248645066224e-14,253.25969527223043,-190.0296005573616,1731.3517776085441,0.00030740937288371075,0.0,9.808862743862312,1.5707963267948966,0.00030740988494411465,-5.052416500117652e-20,0.0,-7.292107787879948e-05,0.0,333.584483453016,1.034005925311467,82188.51747039093,276.8992777327778,-75.64234626047623,2.4178438217998988e-18,56.72075959159838,0.0,0.0,0.0,0.949161425454,51830.43749907874
7.2,6379885.055139601,5336.18328508224,1.2169327118548802e-13,188.06991177133682,718.126286912448,1.549320446531472e-14,1.549320446531472e-14,252.740014883196,-188.67049194106562,1750.2867405533761,0.00031137495847187994,0.0,9.808804425872884,1.5707963267948966,0.0003113754777457297,-5.121347744226098e-20,0.0,-7.292107787879948e-05,0.0,333.510379352304,1.0320524108197433,81996.7988307269,276.77626785611113,-75.05185622004612,2.4332604084944188e-18,55.989848007146335,0.0,0.0,0.0,0.945683014369,51331.22673843399
7.3,6379903.79399976,5407.970215879441,1.232410188871416e-13,186.70813067900403,717.612993364488,1.546179029543808e-14,1.546179029543808e-14,252.22438246798083,-187.31635307261521,1769.086041657264,0.0003153324185296182,0.0,9.808746526207356,1.5707963267948966,0.00031533294501516837,-5.190229235053863e-20,0.0,-7.292107787879948e-05,0.0,333.43679032396795,1.030115698496939,81806.81331423359,276.65414002333335,-74.4685954289403,2.4483942234801104e-18,55.26824255870095,0.0,0.0,0.0,0.942225993731,50838.55597109146
7.4,6379922.39691912,5479.706015806079,1.2478563734008802e-13,185.3512700818848,717.1036607992081,1.543061899175592e-14,1.543061899175592e-14,251.71274872122243,-185.96712077276163,1787.7501747205922,0.00031928181625006166,0.0,9.80868904333956,1.5707963267948966,0.0003192823499473124,-5.259061359522987e-20,0.0,-7.292107787879948e-05,0.0,333.36371476476,1.028195674248491,81618.54767579494,276.53289101111113,-73.89245386929356,2.4632512477112088e-18,54.55579468767047,0.0,0.0,0.0,0.93879019899,50352.32453598871
7.5,6379940.86441584,5551.39107848088,1.263271506823536e-13,183.99926765843762,716.5982408509441,1.539968759475168e-14,1.539968759475168e-14,251.20506508553763,-184.62273286931523,1806.279627289248,0.00032322321405840184,0.0,9.808631975804312,1.5707963267948966,0.00032322375496735294,-5.3278444998780314e-20,0.0,-7.292107787879948e-05,0.0,333.291151092768,1.026292225500204,81431.98884840948,276.4125176366667,-73.32332372244147,2.4778373391753084e-18,53.85235872458309,0.0,0.0,0.0,0.935375469153,49872.433773458084
7.6,6379959.19694712,5623.02579279816,1.278655827587472e-13,182.6520620752824,716.0966858825041,1.536899318950104e-14,1.536899318950104e-14,250.7012837375016,-183.2831281755048,1824.6748807338722,0.000327156673622357,0.0,9.808575322045016,1.5707963267948966,0.00032715722174300857,-5.396579033686072e-20,0.0,-7.292107787879948e-05,0.0,333.2190977504641,1.0244052411209439,81247.12394127507,276.29301675722223,-72.76109932043475,2.492158236145017e-18,53.15779182236363,0.0,0.0,0.0,0.931981646719,49398.7869773465
7.7,6379977.394970161,5694.6105429278405,1.294009571242128e-13,181.3095929710464,715.598948976024,1.533853290490992e-14,1.533853290490992e-14,250.2013575727128,-181.9482464735184,1842.9364103565363,0.00033108225586439007,0.0,9.808519080627004,1.5707963267948966,0.00033108281119848746,-5.465265333993784e-20,0.0,-7.292107787879948e-05,0.0,333.147553198608,1.022534611438098,81063.94023691615,276.17438527055555,-72.20567709399504,2.5062195602872594e-18,52.47195388649639,0.0,0.0,0.0,0.928608577618,48931.28935096563
7.8,6379995.459003121,5766.145708315441,1.30933297049316e-13,179.97180093411362,715.10498391468,1.530830391283056e-14,1.530830391283056e-14,249.70524019116243,-180.61802849469123,1861.064685485232,0.00033500002097392573,0.0,9.808463250085172,1.5707963267948966,0.00033500058351972355,-5.533903769327437e-20,0.0,-7.292107787879948e-05,0.0,333.076515910152,1.0206802282014993,80882.42518783204,276.0566201122222,-71.6569555231397,2.5200268196925192e-18,51.79470751052605,0.0,0.0,0.0,0.92525611115,48469.84796016919
7.9,6380013.3895032,5837.63166389544,1.324626255235968e-13,178.6386274873848,714.6147451674481,1.527830342720808e-14,1.527830342720808e-14,249.2128858844328,-179.292415900608,1879.0601695653122,0.0003389100284178221,0.0,9.808407828954424,1.5707963267948966,0.0003389105981753204,-5.602494703797623e-20,0.0,-7.292107787879948e-05,0.0,333.005984391576,1.0188419845576573,80702.56641458176,275.93971825722224,-71.11483509003067,2.5335854118551452e-18,51.125917913782494,0.0,0.0,0.0,0.921924099921,48014.371692175955
8.0,6380031.1868971195,5909.0687800608,1.339889652601416e-13,177.3100150681608,714.12818787996,1.5248528703166082e-14,1.5248528703166082e-14,248.72424962015282,-177.9713512669488,1896.923320260072,0.0003428123369473526,0.0,9.808352815861127,1.5707963267948966,0.0003428129139165514,-5.671038497151604e-20,0.0,-7.292107787879948e-05,0.0,332.935957158504,1.0170197750446048,80524.35170291127,275.8236767177778,-70.57921823271288,2.5469006265558007e-18,50.465452878216084,0.0,0.0,0.0,0.91861239979,47564.77121180721
8.1,6380048.851642081,5980.45742272392,1.355123386995456e-13,175.9859070129024,713.6452678592641,1.521897703642752e-14,1.521897703642752e-14,248.23928703102482,-176.6547780645912,1914.65458953,0.00034670700461565874,0.0,9.80829820937071,1.5707963267948966,0.0003467075887983034,-5.73953550480823e-20,0.0,-7.292107787879948e-05,0.0,332.86643274484805,1.015213495545513,80347.76900088057,275.70849254333336,-70.05000929974248,2.5599776486282548e-18,49.8131826879018,0.0,0.0,0.0,0.915320869807,47120.9589205491
8.2,6380066.384225761,6051.79795343856,1.370327680138752e-13,174.6662475383328,713.165941555536,1.518964576218696e-14,1.518964576218696e-14,247.7579544001944,-175.3426406440656,1932.2544237333602,0.0003505940887812411,0.0,9.80824400810959,1.5707963267948966,0.0003505946801755862,-5.807986078015015e-20,0.0,-7.292107787879948e-05,0.0,332.79740971195207,1.0134230432938454,80172.80641694854,275.5941628205556,-69.52711450614942,2.572821560677249e-18,49.16898007165728,0.0,0.0,0.0,0.912049372161,46682.848917434465
8.3,6380083.7850444,6123.090729399841,1.385502751109352e-13,173.3509817265024,712.69016606208,1.516053225465336e-14,1.516053225465336e-14,247.2802086490584,-174.03488421757203,1949.723263693248,0.00035447364612366716,0.0,9.80819021070419,1.5707963267948966,0.0003544742447297127,-5.876390563778319e-20,0.0,-7.292107787879948e-05,0.0,332.72888663030403,1.0116483168424353,79999.45221710012,275.48068467055555,-69.01044189117928,2.5854373457251867e-18,48.532720146995125,0.0,0.0,0.0,0.908797772121,46250.3569594459
8.4,6380101.054555201,6194.33610359664,1.4006488163731682e-13,172.0400555071104,712.2178990939921,1.513163392616616e-14,1.513163392616616e-14,246.8060073250728,-172.73145484495922,1967.061544810368,0.0003583457326505525,0.0,9.808136815841932,1.5707963267948966,0.0003583463384682985,-5.944749305055338e-20,0.0,-7.292107787879948e-05,0.0,332.660862091728,1.0098892160428714,79827.69482245226,275.3680552516667,-68.49990127692492,2.597829889765413e-18,47.90428036096162,0.0,0.0,0.0,0.905565937984,45823.400423929685
8.5,6380118.193184881,6265.534424781121,1.415766089835792e-13,170.7334156431792,711.7490989698721,1.5102948226341838e-14,1.5102948226341838e-14,246.33530858925602,-171.432299415132,1984.2696971270402,0.00036221040370628776,0.0,9.808083822118805,1.5707963267948966,0.00036221101673573425,-6.01306264070175e-20,0.0,-7.292107787879948e-05,0.0,332.593334709384,1.0081456420197268,79657.5228078176,275.2562717566667,-67.99540422651312,2.610003984262117e-18,47.28354044031662,0.0,0.0,0.0,0.902353741025,45401.8982716323
8.6,6380135.20139064,6336.686037590641,1.4308547828638323e-13,169.4310097142904,711.2837246148721,1.507447264155576e-14,1.507447264155576e-14,245.868071205216,-170.1373656332496,2001.348145415592,0.00036606771398425575,0.0,9.808031228252736,1.5707963267948966,0.00036606833422540266,-6.081330905611332e-20,0.0,-7.292107787879948e-05,0.0,332.526303108624,1.0064174971654076,79488.9248973951,275.1453314116667,-67.49686400673951,2.6219643285968502e-18,46.67038233637562,0.0,0.0,0.0,0.89916105544,44985.77101102958
8.7,6380152.07953824,6407.79128254776,1.4459151043306322e-13,168.13278610225922,710.821735542408,1.504620469418016e-14,1.504620469418016e-14,245.404254526044,-168.8466020042664,2018.29730925456,0.00036991771753381274,0.0,9.807979032961684,1.5707963267948966,0.00036991834498840547,-6.149554430733412e-20,0.0,-7.292107787879948e-05,0.0,332.45976593004,1.0047046851246897,79321.88996477023,275.03523147833334,-67.00419554758984,2.633715532377157e-18,46.06469017607928,0.0,0.0,0.0,0.8959877583,44574.94066332626
8.8,6380168.8280848805,6478.850496212641,1.4609472606498e-13,166.83869397680883,710.363091841968,1.50181419417612e-14,1.50181419417612e-14,244.9438184848656,-167.5599578179968,2035.117603126224,0.00037376046777250573,0.0,9.807927234933134,1.5707963267948966,0.00037376110243879894,-6.21773354310779e-20,0.0,-7.292107787879948e-05,0.0,332.39372184165603,1.0030071107534897,79156.40702908437,274.92596925111116,-66.5173154066541,2.6452621177807844e-18,45.46635020861483,0.0,0.0,0.0,0.892833729502,44169.33072841313
8.9,6380185.44739632,6549.86401112208,1.4759514558117842e-13,165.5486832797208,709.907754163872,1.499028197656176e-14,1.499028197656176e-14,244.48672358173442,-166.2773831363136,2051.8094364684243,0.00037759601749305405,0.0,9.807875832885081,1.5707963267948966,0.0003775966593727931,-6.285868566004347e-20,0.0,-7.292107787879948e-05,0.0,332.328169514544,1.0013246801188642,78992.4652540773,274.8175420561111,-66.03614173220637,2.656608521739761e-18,44.87525076093377,0.0,0.0,0.0,0.889698851716,43768.866152069015
9.0,6380201.93796024,6620.832155941921,1.4909278914082563e-13,164.26270471172882,709.4556837192721,1.496262242464704e-14,1.496262242464704e-14,244.0329308747928,-164.99882877729843,2068.3732137660004,0.0003814244188703303,0.0,9.80782482559649,1.5707963267948966,0.00038142506796176974,-6.353959818905606e-20,0.0,-7.292107787879948e-05,0.0,332.263107650256,0.9996573004835487,78830.05394377798,274.7099472533333,-65.56059422761896,2.667759098142267e-18,44.29128218851015,0.0,0.0,0.0,0.886583010345,43373.47329345012
9.1,6380218.30008144,6691.75525549752,1.5058767666839281e-13,162.98070971971683,709.0068422588159,1.493516094554928e-14,1.493516094554928e-14,243.58240196838483,-163.7242463027448,2084.809334620896,0.0003852457234753232,0.0,9.807774211815868,1.5707963267948966,0.00038524637977846313,-6.422007617524171e-20,0.0,-7.292107787879948e-05,0.0,332.198534953392,0.9980048802801884,78669.16254394091,274.6031822338889,-65.09059411622154,2.6787181199366416e-18,43.71433682881211,0.0,0.0,0.0,0.883486093469,42983.07989401573
9.2,6380234.534217121,6762.63363077376,1.52079827855484e-13,161.7026504808696,708.561192072648,1.490789523132288e-14,1.490789523132288e-14,243.1350990036072,-162.4535880038328,2101.118193831408,0.0003890599822768829,0.0,9.80772399032222,1.5707963267948966,0.0003890606457917233,-6.490012273977276e-20,0.0,-7.292107787879948e-05,0.0,332.134450149888,0.9963673290958776,78509.78063725817,274.49724442055555,-64.62606411060837,2.689489781190909e-18,43.144308957798266,0.0,0.0,0.0,0.88040799181,42597.615046693325
9.3,6380250.640733041,6833.467599036961,1.535692621641888e-13,160.42847989139523,708.118695969072,1.4880823006178638e-14,1.4880823006178638e-14,242.69098464703202,-161.18680688893681,2117.3001814592403,0.00039286724565393836,0.0,9.80767415989457,1.5707963267948966,0.0003928679163804792,-6.557974096734411e-20,0.0,-7.292107787879948e-05,0.0,332.070851983968,0.9947445576618509,78351.89794144411,274.3921312666667,-64.16692837527323,2.700078199076688e-18,42.58109474548002,0.0,0.0,0.0,0.877348598679,42217.00916633642
9.4,6380266.62005592,6904.25747386536,1.550559988313496e-13,159.15815155372323,707.6793172745521,1.485394202575224e-14,1.485394202575224e-14,242.2500220824768,-159.9238566705192,2133.355682908752,0.000396667563405969,0.0,9.807624719342435,1.5707963267948966,0.0003966682413459557,-6.625893390687144e-20,0.0,-7.292107787879948e-05,0.0,332.007739212048,0.9931364778225616,78195.50430875667,274.2878402566667,-63.713112499475315,2.7104874158264066e-18,42.024592213529985,0.0,0.0,0.0,0.874307809937,41841.19396075709
9.5,6380282.47249056,6975.00356521008,1.5654005687039042e-13,157.8916197627888,707.2430198184721,1.4827250076494638e-14,1.4827250076494638e-14,241.8121749997272,-158.66469175202403,2149.28507897268,0.0004004609847582411,0.0,9.807575667475353,1.5707963267948966,0.0004004616699099282,-6.693770457253835e-20,0.0,-7.292107787879948e-05,0.0,331.94511060578407,0.9915430025511427,78040.58972360326,274.18436890388887,-63.26454346298786,2.720721400610453e-18,41.474701193958005,0.0,0.0,0.0,0.871285523952,41470.10240242866
9.6,6380298.198494161,7045.706179364641,1.580214550749744e-13,156.6288394944504,706.80976792704,1.480074497524536e-14,1.480074497524536e-14,241.37740758569763,-157.40926721629438,2165.088745935768,0.0004042475583670435,0.0,9.807527003133362,1.5707963267948966,0.0004042482507304311,-6.761605594362191e-20,0.0,-7.292107787879948e-05,0.0,331.882964952072,0.9899640458875609,77887.14429871041,274.08171475222224,-62.821149607184765,2.730784051409877e-18,40.931323288365434,0.0,0.0,0.0,0.868281641553,41103.66870090672
9.7,6380313.798402,7116.3656191173595,1.59500212022052e-13,155.3697663932976,706.3795264080479,1.4774424568440002e-14,1.4774424568440002e-14,240.94568451589683,-156.157538813076,2180.7670556174403,0.0004080273323319051,0.0,9.807478725156503,1.5707963267948966,0.00040802803190699316,-6.829399096501612e-20,0.0,-7.292107787879948e-05,0.0,331.82130105304805,0.9883995229695401,77735.15827656012,273.9798753744445,-62.38286060568228,2.7406791967823337e-18,40.39436182893426,0.0,0.0,0.0,0.865296065994,40741.82827620767
9.8,6380329.27257984,7186.982183812321,1.609763460742992e-13,154.1143567616784,705.952260550872,1.474828673180544e-14,1.474828673180544e-14,240.5169709440648,-154.909462948044,2196.320375448,0.0004118003542008307,0.0,9.807430832445814,1.5707963267948966,0.00041180106098761925,-6.897151254827928e-20,0.0,-7.292107787879948e-05,0.0,331.76011772304,0.9868493499861769,77584.62202508072,273.87884837222225,-61.94960743453597,2.7504105976458202e-18,39.86372183972756,0.0,0.0,0.0,0.86232870291,40384.51773252251
9.9,6380344.62139344,7257.5561692884,1.6244987538408003e-13,152.86256754659283,705.5279361112321,1.4722329369628318e-14,1.4722329369628318e-14,240.091232494248,-153.6649966706112,2211.7490685265443,0.00041556667097902774,0.0,9.807383323810889,1.5707963267948966,0.0004155673849792621,-6.96486235714593e-20,0.0,-7.292107787879948e-05,0.0,331.699413791616,0.9853134441830945,77435.52603716798,273.7786313738889,-61.52132234555135,2.7599819489289658e-18,39.33930999945789,0.0,0.0,0.0,0.85937946028,40031.674832840225
10.0,6380359.84520856,7328.08786797072,1.6392081789497042e-13,151.61435633054882,705.1065193020481,1.469655041432832e-14,1.469655041432832e-14,239.6684352516552,-152.42409766326003,2227.0534936880163,0.0004193263291358876,0.0,9.807336198152795,1.5707963267948966,0.00041932705034782237,-7.03253268796174e-20,0.0,-7.292107787879948e-05,0.0,331.639188106632,0.9837917238212124,77287.86092685472,273.67922203833336,-61.09793883826007,2.7693968812658046e-18,38.82103460492288,0.0,0.0,0.0,0.856448248384,39683.23847414588
10.1,6380374.94436048,7398.5775689620805,1.6538919134572082e-13,150.3696813187608,704.68797679344,1.4670947825879038e-14,1.4670947825879038e-14,239.2485457550376,-151.18672423026482,2242.23400557636,0.0004230793746102213,0.0,9.807289454403078,1.5707963267948966,0.0004230801030356019,-7.100162528570074e-20,0.0,-7.292107787879948e-05,0.0,331.57943951899205,0.9822841082025153,77141.61743170486,273.58061804944447,-60.67939163367547,2.778658962592687e-18,38.30880553528606,0.0,0.0,0.0,0.85353497977,39339.14866328894
10.2,6380389.9192454405,7469.02555804296,1.668550132720848e-13,149.1285013290912,704.272275691392,1.464551959141176e-14,1.464551959141176e-14,238.83153098632562,-149.9528352873288,2257.2909546871924,0.00042682585282247755,0.0,9.807243091462839,1.5707963267948966,0.0004268265884578133,-7.167752157089148e-20,0.0,-7.292107787879948e-05,0.0,331.52016690703203,0.980790517623669,76996.78640611011,273.4828171188889,-60.26561664715841,2.7877716997362948e-18,37.802534217558645,0.0,0.0,0.0,0.850639569211,38999.34649318679
10.3,6380404.77019872,7539.43211773248,1.6831830100956241e-13,147.890775781992,703.859383537752,1.462026372454488e-14,1.462026372454488e-14,238.41735836575202,-148.7223903503064,2272.224687434856,0.00043056580867299656,0.0,9.807197108263654,1.5707963267948966,0.00043056655152177813,-7.235301848408318e-20,0.0,-7.292107787879948e-05,0.0,331.461369149088,0.9793108733657127,76853.35882320526,273.38581698555555,-59.85655096528643,2.7967385399260373e-18,37.302133592659544,0.0,0.0,0.0,0.847761933672,38663.774120177346
10.4,6380419.49752512,7609.7975273188795,1.6977907169705762e-13,146.65646468953202,703.449268304136,1.45951782651096e-14,1.45951782651096e-14,238.0059957402696,-147.4953495257544,2287.0355462286243,0.0004342992865594639,0.0,9.80715150370665,1.5707963267948966,0.00043430003661994594,-7.302811874397526e-20,0.0,-7.292107787879948e-05,0.0,331.40304514788005,0.9778450977043668,76711.32577295291,273.2896154144445,-59.45213281916457,2.805562872301997e-18,36.807518082454145,0.0,0.0,0.0,0.844901992272,38332.3747412281
10.5,6380434.101590401,7680.122062890001,1.7123734227840241e-13,145.4255286465576,703.041898376688,1.4570261278448877e-14,1.4570261278448877e-14,237.5974113783696,-146.2716735014832,2301.723869500128,0.00043802633037341954,0.0,9.807106276784399,1.5707963267948966,0.00043802708764560205,-7.370282503802564e-20,0.0,-7.292107787879948e-05,0.0,331.345193809176,0.9763931138636491,76570.67845783426,273.1942101961111,-59.05230156173932,2.8142480293383608e-18,36.318603557415656,0.0,0.0,0.0,0.842059666249,38005.092572437825
10.6,6380448.58272984,7750.4059974552,1.726931295047952e-13,144.1979288185008,702.637242559128,1.4545510855143118e-14,1.4545510855143118e-14,237.19157396185201,-145.0513235343648,2316.2899917978484,0.00044174698351422066,0.0,9.80706142642853,1.5707963267948966,0.00044174774799810365,-7.437714002332361e-20,0.0,-7.292107787879948e-05,0.0,331.28781406008,0.9749548460364891,76431.40819476437,273.09959914611113,-58.65699764288862,2.822797288293542e-18,35.83530730530966,0.0,0.0,0.0,0.839234878924,37681.87282739475
10.7,6380462.94127872,7820.64960085392,1.741464499387632e-13,142.9736269346736,702.235270057512,1.4520925110461518e-14,1.4520925110461518e-14,236.78845257759602,-143.8342614442368,2330.7342438054,0.00044546128889253237,0.0,9.80701695163165,1.5707963267948966,0.0004454620605881158,-7.505106632746236e-20,0.0,-7.292107787879948e-05,0.0,331.23090483074407,0.9735302193383445,76293.50641078288,273.0057801055556,-58.2661625880704,2.83121387258023e-18,35.357548000545876,0.0,0.0,0.0,0.836427555667,37362.66169668379
10.8,6380477.17757232,7890.853139908081,1.7559731995416242e-13,141.7525852766856,701.835950464992,1.449650218393536e-14,1.449650218393536e-14,236.3880167111592,-142.620449600796,2345.0569524268803,0.0004491692889338179,0.0,9.806972851386378,1.5707963267948966,0.00044917006784284716,-7.57246065480154e-20,0.0,-7.292107787879948e-05,0.0,331.174465072656,0.9721191598226625,76156.96464401159,272.91275094055555,-57.8797389743022,2.8395009530954107e-18,34.88524567419711,0.0,0.0,0.0,0.833637623863,37047.40632729803
10.9,6380491.29191544,7961.016878361121,1.770457557413592e-13,140.5347666699096,701.439253777056,1.4472240238931277e-14,1.4472240238931277e-14,235.99023623885282,-141.4098509178072,2359.258440829536,0.000452871025592302,0.0,9.806929124654864,1.5707963267948966,0.0004528718117130318,-7.639776325375834e-20,0.0,-7.292107787879948e-05,0.0,331.11849374644805,0.9707215944551109,76021.77453982411,272.8205095416667,-57.49767041103378,2.8476616495414873e-18,34.41832168486345,0.0,0.0,0.0,0.830865012879,36736.054803199324
11.0,6380505.2846433595,8031.14107709136,1.784917733075352e-13,139.3201344749472,701.045150364096,1.444813746219408e-14,1.444813746219408e-14,235.5950814213408,-140.202428841216,2373.339028498632,0.000456566540349225,0.0,9.806885770460232,1.5707963267948966,0.0004565673336816552,-7.707053898466882e-20,0.0,-7.292107787879948e-05,0.0,331.062989821896,0.9693374511032702,75887.92785084584,272.72905382333335,-57.119901515237075,2.8556990316940232e-18,33.956698690114656,0.0,0.0,0.0,0.828109654029,36428.55612568745
11.1,6380519.15606088,8101.225993929121,1.7993538847973523e-13,138.10865257878962,700.6536109775041,1.442419206351144e-14,1.442419206351144e-14,235.20252289662963,-138.99814734244322,2387.299031286216,0.00046025587422156956,0.0,9.806842787856107,1.5707963267948966,0.00046025667476744557,-7.774293625210112e-20,0.0,-7.292107787879948e-05,0.0,331.00795228401597,0.9679666585314802,75755.41643503876,272.6383817227778,-56.74637789316856,2.8636161206605886e-18,33.500300618733256,0.0,0.0,0.0,0.825371480546,36124.86019477461
11.2,6380532.9064728,8171.27188377864,1.8137661690730562e-13,136.9002853844544,700.2646067313841,1.44004022751348e-14,1.44004022751348e-14,234.81253167336243,-137.7969709092408,2401.138761469032,0.0004639390677707876,0.0,9.806800175835152,1.5707963267948966,0.00046393987552836396,-7.841495753965876e-20,0.0,-7.292107787879948e-05,0.0,330.95338012392,0.9666091463699172,75624.23225426496,272.54849120222224,-56.37704612035214,2.871415890090679e-18,33.04905264358039,0.0,0.0,0.0,0.822650427544,35824.91779075157
11.3,6380546.5362144,8241.27899880096,1.8281547406372322e-13,135.6949978054992,699.8781091086481,1.4376766351566e-14,1.4376766351566e-14,234.42507912350402,-136.598864536548,2414.8585278033843,0.00046761616110279985,0.0,9.806757933451022,1.5707963267948966,0.00046761697607207675,-7.908660530284546e-20,0.0,-7.292107787879948e-05,0.0,330.899272351008,0.9652648451352089,75494.36737332915,272.45938024611115,-56.011853718893335,2.8791012673366976e-18,32.60288115499547,0.0,0.0,0.0,0.819946431992,35528.68055632834
11.4,6380560.04556,8311.247588231041,1.8425197524903362e-13,134.49275525535361,699.4940899396801,1.435328256910008e-14,1.435328256910008e-14,234.0401369771592,-135.40379371856642,2428.458635561712,0.00047128719388021367,0.0,9.806716059787854,1.5707963267948966,0.00047128801606293635,-7.975788197028687e-20,0.0,-7.292107787879948e-05,0.0,330.845627983824,0.9639336861892043,75365.81395806331,272.3710468611111,-55.65074914191041,2.886675134637185e-18,32.161713735040955,0.0,0.0,0.0,0.81725943268,35236.100978918446
11.5,6380573.43484488,8381.17789849968,1.856861355919848e-13,133.29352364030882,699.112521414528,1.432994922536808e-14,1.432994922536808e-14,233.65767731556244,-134.2117244414448,2441.9393865966,0.0004749522053223226,0.0,9.806674553838354,1.5707963267948966,0.0004749530347150005,-8.042878994320699e-20,0.0,-7.292107787879948e-05,0.0,330.792446050056,0.9626156017389736,75238.56427484806,272.2834890766667,-55.293681752627776,2.8941403302244245e-18,31.725479132103015,0.0,0.0,0.0,0.81458937019,34947.13237373722
