time,feVelocity_m_s_X,feVelocity_m_s_Y,feVelocity_m_s_Z,altitudeMsl_m,longitude_rad,latitude_rad,localGravity_m_s2,eulerAngle_rad_Yaw,eulerAngle_rad_Pitch,eulerAngle_rad_Roll,bodyAngularRateWrtEi_rad_s_Roll,bodyAngularRateWrtEi_rad_s_Pitch,bodyAngularRateWrtEi_rad_s_Yaw,altitudeRateWrtMsl_m_s,speedOfSound_m_s,airDensity_kg_m3,ambientPressure_Pa,ambientTemperature_K,aero_bodyForce_N_X,aero_bodyForce_N_Y,aero_bodyForce_N_Z,aero_bodyMoment_Nm_L,aero_bodyMoment_Nm_M,aero_bodyMoment_Nm_N,mach,trueAirspeed_m_s
0.0,1.865376e-14,304.8,-304.8,0.0,0.0,0.0,9.814197669,1.5707963267948966,0.0,0.0,0.0,-7.289999999989351e-05,0.0,304.8,340.29372012240003,1.2250039125042,101325.14585817013,288.15,-146.79532301952491,0.0,146.79532301952491,0.0,0.0,0.0,1.266706578,431.05192044527763
0.1,1.8592800000000003e-14,303.79394209848,-302.82903740904004,30.381331802112,4.7709098702040595e-06,2.9146998508305305e-22,9.814113358272,1.5707963267948966,4.772410853360775e-06,-4.4680428851054835e-22,0.0,-7.289999999989351e-05,0.0,302.8290374192,340.1771106528,1.221560666621142,100971.09571406485,287.9525512777778,-145.34748622303397,5.2044192898547845e-20,144.93081494337562,0.0,0.0,0.0,1.260954226,428.94739352366724
0.2,1.853184e-14,302.79869210016005,-300.87219309312,60.56627841,9.526111777140171e-06,5.829399701661061e-22,9.814020257112,1.5707963267948966,9.52918355662368e-06,-8.936085770210967e-22,0.0,-7.289999999989351e-05,0.0,300.87219307280003,340.0612156344,1.218139582027258,100619.72188491553,287.75637950000004,-143.76299663339157,1.1565376199677298e-19,142.89161830965153,0.0,0.0,0.0,1.255250321,426.8615804800004
0.3,1.8470880000000002e-14,301.81424278128003,-298.92916456872,90.55623325344001,1.426578025373353e-05,8.744099552491591e-22,9.813927756408,1.5707963267948966,1.4270387922958796e-05,-1.3386675362796507e-21,0.0,-7.289999999989351e-05,0.0,298.9291645484,339.94603019040005,1.2147406587225482,100271.0015318386,287.56147516666664,-142.20359848327212,1.7792886461041996e-19,140.88589752389075,0.0,0.0,0.0,1.249594341,424.7942678200172
0.4,1.8409920000000002e-14,300.8404238196,-296.99972570472005,120.35256654864001,1.8990072379616822e-05,1.1623892818282235e-21,9.81383585616,1.5707963267948966,1.8996215938583843e-05,-1.7802358370342163e-21,0.0,-7.289999999989351e-05,0.0,296.9997256844,339.8315497488,1.2113633813281939,99924.9058309182,287.3678287777778,-140.66876399118095,2.388695007394888e-19,138.91294620850078,0.0,0.0,0.0,1.243985579,422.74518103639923
0.5,1.834896e-14,299.87706845904,-295.08365503344004,149.95662621264,2.3699145234422722e-05,1.4503686084072879e-21,9.813744550272,1.5707963267948966,2.370680722983898e-05,-2.2340214425527418e-21,0.0,-7.289999999989351e-05,0.0,295.0836550436,339.71776943279997,1.208008265223014,99581.41845498598,287.1754316111111,-139.15799575697702,2.984756703839795e-19,136.9720927709822,0.0,0.0,0.0,1.238423343,420.7140513836008
0.6,1.8318480000000003e-14,298.92401332680004,-293.18073575064,179.36973812544002,2.8393190804368952e-05,1.738347934986352e-21,9.813653835696,1.5707963267948966,2.8402336329649403e-05,-2.6703537555513243e-21,0.0,-7.289999999989351e-05,0.0,293.1807357608,339.6046858896,1.20467479502819,99240.51148985096,286.98427622222226,-137.67080069529428,3.5674737354389208e-19,135.062674381832,0.0,0.0,0.0,1.232906954,418.70061603218244
0.7,1.825752e-14,297.98109846384,-291.2907554412,208.59320680056,3.307234871579567e-05,2.0245819323134223e-21,9.813563706336,1.5707963267948966,3.308297777094032e-05,-3.1241393610698497e-21,0.0,-7.289999999989351e-05,0.0,291.2907554412,339.4922936328,1.201362455364904,98902.16851258434,286.7943528888889,-136.20668985761284,4.1368461021922647e-19,133.18403688557956,0.0,0.0,0.0,1.227435751,416.704617760144
0.8,1.8196560000000002e-14,297.04816705056,-289.41350604864004,237.62831572032,3.773677604833556e-05,2.303834612632515e-21,9.813474156096001,1.5707963267948966,3.774887118005188e-05,-3.577924966588375e-21,0.0,-7.289999999989351e-05,0.0,289.4135060588,339.3805890048,1.198071761611974,98566.36156111484,286.6056531666667,-134.765194935161,4.71511491217613e-19,131.33555076990183,0.0,0.0,0.0,1.222009088,414.72580469570323
0.9,1.81356e-14,296.12506552872003,-287.54878378368,266.47632767112003,4.238662988162129e-05,2.600540585471551e-21,9.813385188024,1.5707963267948966,4.240017363661677e-05,-4.014257279586957e-21,0.0,-7.289999999989351e-05,0.0,287.5487837532,339.2695680432,1.1948021983905819,98233.06932872722,286.4181703333333,-133.34587559848106,5.24890150600739e-19,129.5166181938137,0.0,0.0,0.0,1.216626326,412.7639305230728
1.0,1.807464e-14,295.21164341856,-285.69638900232,295.138485414,4.7022067295285546e-05,2.8797932657906434e-21,9.813296792976,1.5707963267948966,4.703704222026766e-05,-4.4680428851054835e-21,0.0,-7.289999999989351e-05,0.0,285.69638898200003,339.15922587119996,1.1915537657007282,97902.27577553474,286.2318948888889,-131.94827007768714,5.78268809983865e-19,127.72662459101689,0.0,0.0,0.0,1.211286848,410.81875412235
1.1,1.801368e-14,294.30775322736,-283.85612605344,323.6160117456,5.164322791566849e-05,3.1590459461097362e-21,9.813208967904,1.5707963267948966,5.165963401063724e-05,-4.904375198104066e-21,0.0,-7.289999999989351e-05,0.0,283.8561260636,339.04955974560005,1.188325948163594,97573.95389707133,286.04682005555554,-130.5719522331485,6.31647469366991e-19,125.96499418370543,0.0,0.0,0.0,1.205990044,408.8900393637388
1.2,1.79832e-14,293.41325038848004,-282.02780321784,351.910110504,5.625028627569533e-05,3.438298626428829e-21,9.813121712808,1.5707963267948966,5.626810608735819e-05,-5.358160803622591e-21,0.0,-7.289999999989351e-05,0.0,282.027803228,338.94056417999997,1.1851192611579981,97248.08770133049,285.8629363888889,-129.21649045392184,6.805779071348565e-19,124.23114990408922,0.0,0.0,0.0,1.200735323,406.97755515899445
1.3,1.792224e-14,292.52799323088,-280.21123267776,380.02196629440004,6.084338200170621e-05,3.717551306747922e-21,9.813035018544,1.5707963267948966,6.0862580623478145e-05,-5.811946409141117e-21,0.0,-7.289999999989351e-05,0.0,280.21123266760003,338.8322358216,1.1819331893051221,96924.65640827981,285.6802372222222,-127.88148746933467,7.29508344902722e-19,122.52455187151081,0.0,0.0,0.0,1.1955221,405.0810752042012
1.4,1.786128e-14,291.6518428572,-278.40623021208,407.95274467200005,6.542263726674877e-05,4.014257279586957e-21,9.812948882064,1.5707963267948966,6.544321469862978e-05,-6.2482787221396995e-21,0.0,-7.289999999989351e-05,0.0,278.4062302324,338.7245710128,1.1787677326049661,96603.63895060535,285.49871483333334,-126.5665321302631,7.828870042858479e-19,120.84465055267184,0.0,0.0,0.0,1.190349806,403.2003780312172
1.5,1.780032e-14,290.78466305232,-276.6126153792,435.7035938184,6.99882091504557e-05,4.2935099599060505e-21,9.812863303368001,1.5707963267948966,7.001014793915327e-05,-6.702064327658225e-21,0.0,-7.289999999989351e-05,0.0,276.6126153792,338.61756640080006,1.175622375678712,96285.02072482812,285.31836261111107,-125.27123882037532,8.273692204384529e-19,119.19092474944564,0.0,0.0,0.0,1.18521788,401.3352466990076
1.6,1.776984e-14,289.92632031384,-274.83021121224,463.2756433224,7.454021982587461e-05,4.572762640225143e-21,9.81277827636,1.5707963267948966,7.456351997138874e-05,-7.138396640656809e-21,0.0,-7.289999999989351e-05,0.0,274.8302112224,338.5112174136,1.172497633905178,95968.77453496102,285.13917200000003,-123.99521587375808,8.762996582063184e-19,117.56285112855919,0.0,0.0,0.0,1.180125781,399.4854687936448
1.7,1.770888e-14,289.07668369968,-273.05884421904,490.670005704,7.907884382593075e-05,4.834562028024293e-21,9.81269380104,1.5707963267948966,7.91034704216764e-05,-7.592182246175334e-21,0.0,-7.289999999989351e-05,0.0,273.0588442292,338.40552069840004,1.169392476526728,95654.87998401372,284.96113622222225,-122.73809631212812,9.207818743589235e-19,115.95993362433796,0.0,0.0,0.0,1.175072971,397.6508362225308
1.8,1.764792e-14,288.23562476712004,-271.29834432120003,517.8877761096,8.360418587037921e-05,5.113814708343386e-21,9.812609868264001,1.5707963267948966,8.363013891635637e-05,-8.028514559173915e-21,0.0,-7.289999999989351e-05,0.0,271.29834432120003,338.30047259760005,1.166307934300998,95343.32830989883,284.78424777777775,-121.49952200916323,9.652640905115283e-19,114.38168791441248,0.0,0.0,0.0,1.170058928,395.83114531728603
1.9,1.7617440000000002e-14,287.4030175728,-269.54854467120003,544.9300329216001,8.811640303885268e-05,5.393067388662478e-21,9.81252648108,1.5707963267948966,8.81436476284763e-05,-8.48230016469244e-21,0.0,-7.289999999989351e-05,0.0,269.5485446712,338.1960694536,1.163242976470352,95034.09327423443,284.6084998888889,-120.27912812172649,1.0097463066641333e-18,112.82762691851588,0.0,0.0,0.0,1.165083138,394.0261964736384
2.0,1.7556480000000002e-14,286.57873858128,-267.80928174384,571.7978380632001,9.261560005110625e-05,5.6723200689815715e-21,9.812443630344001,1.5707963267948966,9.264413618437636e-05,-8.936085770210967e-21,0.0,-7.289999999989351e-05,0.0,267.809281754,338.09230791360005,1.16019760303479,94727.16070446387,284.43388594444446,-119.07657351570224,1.0542285228167385e-18,111.29728931158442,0.0,0.0,0.0,1.160145099,392.2357942543124
2.1,1.749552e-14,285.76266654312,-266.08039503144,598.4922369984,9.710191653348012e-05,5.951572749300664e-21,9.812361316056,1.5707963267948966,9.713174421039669e-05,-9.372418083209549e-21,0.0,-7.289999999989351e-05,0.0,266.0803950416,337.9891846248,1.1571723293731302,94422.51647591073,284.26039922222225,-117.89151776869028,1.0987107389693434e-18,109.79021768298942,0.0,0.0,0.0,1.155244319,390.4597471318068
2.2,1.7465040000000003e-14,284.95468255584,-264.36172722672,625.0142593416,0.00010157549211231443,6.213372137099814e-21,9.81227953212,1.5707963267948966,0.00010160659387958497,-9.826203688728076e-21,0.0,-7.289999999989351e-05,0.0,264.3617272064,337.8866959296,1.1541666401065542,94120.12831728045,284.08803216666666,-116.72363562672605,1.1387447335066879e-18,108.30597210361314,0.0,0.0,0.0,1.150380317,388.69786748839476
2.3,1.740408e-14,284.15466991152,-262.65312388752,651.3649194672,0.00010603644896065682,6.492624817418906e-21,9.812198281584,1.5707963267948966,0.00010606880736498879,-1.0262536001726657e-20,0.0,-7.289999999989351e-05,0.0,262.653123918,337.7848384752,1.151180019856244,93819.99460064426,283.91677894444445,-115.57260228066727,1.1787787280440323e-18,106.8441161584329,0.0,0.0,0.0,1.14555262,386.94997166756843
2.4,1.7343120000000002e-14,283.36251412728,-260.95443361968,677.5452162048,0.00011048490925155493,6.7718774977379986e-21,9.812117552256002,1.5707963267948966,0.00011051850683965582,-1.0716321607245182e-20,0.0,-7.289999999989351e-05,0.0,260.9544335892,337.6836098232,1.1482124686222002,93522.08975794385,283.7466338888889,-114.43810755602067,1.218812722581377e-18,105.40423029118593,0.0,0.0,0.0,1.140760765,385.21587945959436
2.5,1.7312640000000002e-14,282.57810282336,-259.26550777224,703.5561334488001,0.00011492097770476387,7.033676885537148e-21,9.812037350232002,1.5707963267948966,0.00011495581447663367,-1.1170107212763709e-20,0.0,-7.289999999989351e-05,0.0,259.2655077824,337.58300601120004,1.14526450178324,93226.39976026333,283.5775893888889,-113.31984141173967,1.2588467171187214e-18,103.98589792591798,0.0,0.0,0.0,1.136004301,383.4954145130696
2.6,1.725168e-14,281.80132566216,-257.58620052888,729.3986401584,0.00011934481139991635,7.312929565856241e-21,9.811957666368,1.5707963267948966,0.00011938085244897003,-1.1606439525762291e-20,0.0,-7.289999999989351e-05,0.0,257.58620054920004,337.483022772,1.1423356039605461,92932.91048292632,283.40963783333336,-112.2175079076402,1.2944324900408053e-18,102.58871867820146,0.0,0.0,0.0,1.131282787,381.7884038719212
2.7,1.72212e-14,281.03207434824003,-255.91636884696,755.0736909672,0.00012375649760347493,7.57472895365539e-21,9.811878500664,1.5707963267948966,0.00012379374292971249,-1.2060225131280818e-20,0.0,-7.289999999989351e-05,0.0,255.91636883680002,337.3836588864,1.139425775154118,92641.59779428228,283.2427762777778,-111.13080376397255,1.33446648457815e-18,101.21228824917375,0.0,0.0,0.0,1.126595783,380.0946781811844
2.8,1.716024e-14,280.2702426588,-254.25587224416,780.5822264880001,0.00012815615848848726,7.853981633974484e-21,9.811799850072,1.5707963267948966,0.0001281946080919087,-1.2496557444279399e-20,0.0,-7.289999999989351e-05,0.0,254.255872234,337.28491039200003,1.1365344999851381,92352.45331528588,283.07699622222225,-110.05945390271204,1.370052257500234e-18,99.85623107548388,0.0,0.0,0.0,1.121942866,378.414071378336
2.9,1.712976e-14,279.51572619984,-252.60457292040002,805.9251736176,0.00013254393368129354,8.115781021773632e-21,9.811721711544,1.5707963267948966,0.00013258357010860632,-1.2950343049797924e-20,0.0,-7.289999999989351e-05,0.0,252.60457292040005,337.18677454560003,1.1336622938324241,92065.45827687562,282.91229288888894,-109.00318226722518,1.4056380304223178e-18,98.52017350651617,0.0,0.0,0.0,1.117323619,376.7464207961832
3.0,1.70688e-14,278.76842246712005,-250.96233554448003,831.1034446224,0.00013691991044835632,8.377580409572782e-21,9.811644078984,1.5707963267948966,0.00013696071624626793,-1.3386675362796508e-20,0.0,-7.289999999989351e-05,0.0,250.96233556480001,337.08924768960003,1.130808641317158,91780.59932045924,282.74865950000003,-107.96170519441962,1.441223803344402e-18,97.20373762136218,0.0,0.0,0.0,1.112737633,375.09156685419725
3.1,1.7038320000000002e-14,278.02823090712,-249.329027376,856.1179398816,0.00014128421096272327,8.656833089891874e-21,9.811566955440002,1.5707963267948966,0.00014132618613123374,-1.3840460968315033e-20,0.0,-7.289999999989351e-05,0.0,249.32902737600003,336.9923270808,1.12797354243934,91497.85710241209,282.5860895,-106.93475926061127,1.4723613546512254e-18,95.90656676161281,0.0,0.0,0.0,1.10818451,373.4493533157352
3.2,1.697736e-14,277.2950526732,-247.70451796056,880.9695448392,0.00014563693994414946,8.918632477691024e-21,9.811490331768,1.5707963267948966,0.00014568006702996624,-1.429424657383356e-20,0.0,-7.289999999989351e-05,0.0,247.7045179504,336.8960102808,1.12515699719897,91217.21338035552,282.42457905555557,-105.92209376402991,1.5079471275733093e-18,94.62831814731037,0.0,0.0,0.0,1.103663854,371.8196269279296
3.3,1.694688e-14,276.56879068656,-246.08867931264,905.6591339664001,0.0001499782195656826,9.180431865490174e-21,9.811414211016,1.5707963267948966,0.0001500224811155132,-1.473057888683214e-20,0.0,-7.289999999989351e-05,0.0,246.0886793228,336.80029393679996,1.122359005596048,90938.66092437043,282.26412144444447,-104.92344310136288,1.5390846788801327e-18,93.36863832276532,0.0,0.0,0.0,1.099175282,370.2022375245768
3.4,1.688592e-14,275.8493496972,-244.48138573272,930.1875671040001,0.0001543081545470778,9.442231253289322e-21,9.811338584040001,1.5707963267948966,0.00015435355056092216,-1.5184364492350668e-20,0.0,-7.289999999989351e-05,0.0,244.48138571240003,336.7051759152,1.119579052251756,90662.18714194869,282.1047118888889,-103.93856115250821,1.5746704518022168e-18,92.12719380480318,0.0,0.0,0.0,1.094718416,368.5970379232484
3.5,1.685544e-14,275.1366360096,-242.8825137768,954.5556931200001,0.00015862683215479758,9.721483933608415e-21,9.811263456936,1.5707963267948966,0.00015867334517936325,-1.5620696805349252e-20,0.0,-7.289999999989351e-05,0.0,242.8825137768,336.61065225360005,1.116817137166094,90387.76684807408,281.94634283333335,-102.96720717971209,1.6058080031090404e-18,90.9036584498151,0.0,0.0,0.0,1.090292892,367.00388371951357
3.6,1.682496e-14,274.43055760464,-241.29194225640003,978.764347776,0.00016293439201518222,9.983283321407565e-21,9.81118882056,1.5707963267948966,0.00016298200459717658,-1.6074482410867776e-20,0.0,-7.289999999989351e-05,0.0,241.2919422564,336.5167217328,1.114073260339062,90115.38831208316,281.78901138888887,-102.00914573860443,1.6369455544158637e-18,89.69771318686462,0.0,0.0,0.0,1.085898342,365.42263344127235
3.7,1.6764000000000002e-14,273.73102392624,-239.7095518728,1002.814355556,0.00016723090394140167,1.0245082709206715e-20,9.811114671864,1.5707963267948966,0.00016727963353411736,-1.6510814723866356e-20,0.0,-7.289999999989351e-05,0.0,239.7095518728,336.4233816096,1.1113649446504719,89846.46179912392,281.63271272222227,-101.06437887536717,1.6636348841074268e-18,88.50924930141547,0.0,0.0,0.0,1.081534409,363.853148085756
3.8,1.673352e-14,273.03788970672,-238.13517641856,1026.7065266184002,0.0001715164901065037,1.0506882097005864e-20,9.811041013896,1.5707963267948966,0.00017156630180335559,-1.696460032938488e-20,0.0,-7.289999999989351e-05,0.0,238.1351764084,336.3306413328,1.1088060888191023,89590.15848552244,281.47746122222225,-100.14560399411883,1.6947724354142503e-18,87.34923041424719,0.0,0.0,0.0,1.077200487,362.2952167823688
3.9,1.6672560000000003e-14,272.35103391,-236.56867205856,1050.4416546624,0.00017579123777695078,1.0768681484805013e-20,9.810967837512,1.5707963267948966,0.00017584213157793892,-1.741838593490341e-20,0.0,-7.289999999989351e-05,0.0,236.5686720484,336.2384850528,1.106263725109908,89335.75759825099,281.3232301666667,-99.23910620452861,1.7259099867210737e-18,86.20549495401706,0.0,0.0,0.0,1.072896144,360.7486615849312
4.0,1.664208e-14,271.67037308184,-235.00992851616002,1074.0205208904001,0.00018005526912579065,1.1030480872604162e-20,9.810895145760002,1.5707963267948966,0.0001801072275776225,-1.780235837034216e-20,0.0,-7.289999999989351e-05,0.0,235.00992850600002,336.1469109408,1.1037378535228901,89083.25899366883,281.1700147777778,-98.34467136920796,1.7525993164126367e-18,85.07775489837543,0.0,0.0,0.0,1.068621055,359.2133552199976
4.1,1.66116e-14,270.99582510912,-233.45883746544,1097.4438967512,0.00018430863651290082,1.1292280260403312e-20,9.810822935592002,1.5707963267948966,0.00018436165961557643,-1.832595714594046e-20,0.0,-7.289999999989351e-05,0.0,233.45883747560003,336.055915644,1.101228989436866,88832.64490819986,281.01780977777776,-97.4620960709824,1.7837368677194605e-18,83.96573383483118,0.0,0.0,0.0,1.064374903,357.6891728834536
4.2,1.655064e-14,270.3273092808,-231.91529250072003,1120.7125411968,0.00018855147956462148,1.1554079648202462e-20,9.810751200912,1.5707963267948966,0.0001886055498648483,-1.867502299633933e-20,0.0,-7.289999999989351e-05,0.0,231.9152925312,335.96549733359996,1.098736617473018,88583.90337177932,280.86660994444446,-96.59118125193464,1.8104261974110233e-18,82.869161089099,0.0,0.0,0.0,1.060157377,356.1759920347384
4.3,1.652016e-14,269.66474625744,-230.37918901464,1143.82720434,0.00019278386809412268,1.1815879036001612e-20,9.810679941720002,1.5707963267948966,0.00019283898559190068,-1.9198621771937622e-20,0.0,-7.289999999989351e-05,0.0,230.3791890248,335.8756532664,1.096260737631346,88337.01695599298,280.716411,-95.73173203547574,1.837115527102586e-18,81.78777163613505,0.0,0.0,0.0,1.055968173,354.67369255117796
4.4,1.6489680000000002e-14,269.00805804072,-228.85042410672,1166.7886250160002,0.00019700590682115957,1.2060225131280818e-20,9.810609154968,1.5707963267948966,0.00019706205406319624,-1.9722220547535922e-20,0.0,-7.289999999989351e-05,0.0,228.85042413720004,335.786381004,1.0938008345330321,88091.98566084082,280.56720772222224,-94.8835575928984,1.8638048567941494e-18,80.7213059666903,0.0,0.0,0.0,1.05180699,353.1821567279852
4.5,1.6428720000000002e-14,268.35716791248,-227.32889679672002,1189.5975316968002,0.00020121768301219472,1.2322024519079967e-20,9.810538840656,1.5707963267948966,0.00020127484254519755,-2.007128639793479e-20,0.0,-7.289999999989351e-05,0.0,227.3288967764,335.6976778032,1.091357938935712,87848.7860728762,280.4189952777778,-94.04647105441255,1.890494186485712e-18,79.66950995386385,0.0,0.0,0.0,1.047673537,351.7012690210376
4.6,1.6398240000000003e-14,267.71200040424003,-225.81450768936003,1212.2546434056,0.00020541928393369077,1.2583823906879115e-20,9.810468992688001,1.5707963267948966,0.00020547745575765975,-2.059488517353309e-20,0.0,-7.289999999989351e-05,0.0,225.81450767920003,335.60954214000003,1.0889310200817501,87607.41278162984,280.2717694444445,-93.22028950914536,1.912735294562015e-18,78.6321347641386,0.0,0.0,0.0,1.043567525,350.2309160468776
4.7,1.636776e-14,267.07248132768,-224.30715912672002,1234.7606691072,0.00020961079685211028,1.2845623294678265e-20,9.810399614112,1.5707963267948966,0.00020966998096704542,-2.0943951023931954e-20,0.0,-7.289999999989351e-05,0.0,224.3071591064,335.5219712712,1.0865200779711461,87367.85420007909,280.1255253888889,-92.40483382721241,1.939424624253578e-18,77.60893659048774,0.0,0.0,0.0,1.039488674,348.77098673704563
4.8,1.633728e-14,266.4385376832,-222.8067550968,1257.1163080128001,0.00021379230903391586,1.308996938995747e-20,9.810330698832,1.5707963267948966,0.00021385248798652461,-2.1467549799530254e-20,0.0,-7.289999999989351e-05,0.0,222.8067550968,335.4349627584,1.084125627982718,87130.09309133072,279.9802583888889,-91.5999222987607,1.9616657323298804e-18,76.59967144795574,0.0,0.0,0.0,1.035436706,347.32137208085805
4.9,1.627632e-14,265.8100976904,-221.31320120304002,1279.32224958,0.00021796392519886262,1.335176877775662e-20,9.8102622438,1.5707963267948966,0.000218025098989145,-2.1816615649929122e-20,0.0,-7.289999999989351e-05,0.0,221.31320121320002,335.3485144680001,1.081747154737648,86894.1240927957,279.83596411111114,-90.80538936098174,1.9883550620214432e-18,75.60411078691597,0.0,0.0,0.0,1.031411352,345.8819651768516
5.0,1.624584e-14,265.18709072712,-219.82640460336003,1301.3791744272,0.00022212571516012065,1.3613568165555772e-20,9.810194252064,1.5707963267948966,0.00022218784888149165,-2.2340214425527418e-20,0.0,-7.289999999989351e-05,0.0,219.8264045932,335.2626242664,1.0793846582359359,86659.93590473292,279.6926378333333,-90.02106664868734,2.010596170097746e-18,74.6220253905086,0.0,0.0,0.0,1.027412346,344.45266107845043
5.1,1.6215360000000002e-14,264.56944729896003,-218.34627404064003,1323.287753724,0.00022627776618415257,1.3857914260834977e-20,9.81012671448,1.5707963267948966,0.00022634087728990468,-2.2689280275926286e-20,0.0,-7.289999999989351e-05,0.0,218.34627405080002,335.1772903248,1.077037623098764,86427.51176905175,279.55027616666666,-89.24678317223865,2.0328372781740482e-18,73.6531857304983,0.0,0.0,0.0,1.023439428,343.0333569997432
5.2,1.6184880000000002e-14,263.95709903928,-216.87271978176,1345.048649496,0.00023042016553742094,1.4119713648634125e-20,9.810059634096001,1.5707963267948966,0.00023048423657426166,-2.3212879051524583e-20,0.0,-7.289999999989351e-05,0.0,216.8727197716,335.09250959520006,1.0747070800837681,86196.84617952238,279.40887394444445,-88.4823834662902,2.055078386250351e-18,72.69737682433438,0.0,0.0,0.0,1.019492343,341.62395195537283
5.3,1.612392e-14,263.34997864824,-215.40565349568,1366.6625152344002,0.00023455298303309588,1.436405974391333e-20,9.809993007864,1.5707963267948966,0.00023461801400102516,-2.3736477827122883e-20,0.0,-7.289999999989351e-05,0.0,215.40565351600003,335.0082805536,1.072391483054494,85967.92228229369,279.2684267777778,-87.72770921863471,2.077319494326653e-18,71.75438311119737,0.0,0.0,0.0,1.015570842,340.22434701775796
5.4,1.609344e-14,262.74801998424,-213.94498840584004,1388.1299946768002,0.00023867632339093247,1.4625859131712482e-20,9.809926835784,1.5707963267948966,0.00023874229683665786,-2.4085543677521747e-20,0.0,-7.289999999989351e-05,0.0,213.94498841600003,334.9246013712,1.0700923781473959,85740.73528933975,279.12893144444445,-86.98260531978445,2.099560602402956e-18,70.82399321159615,0.0,0.0,0.0,1.011674679,338.834445111316
5.5,1.606296e-14,262.15115788104,-212.49063913776,1409.4517242456,0.0002427902389708083,1.4870205226991687e-20,9.809861108712,1.5707963267948966,0.00024285715489432978,-2.4609142453120047e-20,0.0,-7.289999999989351e-05,0.0,212.49063912760002,334.84146930480006,1.0678082192260199,85515.27390091943,278.9903825555556,-86.24691972952462,2.1218017104792585e-18,69.90600006081448,0.0,0.0,0.0,1.007803615,337.4541510124624
5.6,1.603248e-14,261.55932820872005,-211.04252165808,1430.6283312192,0.0002468948344924785,1.5132004614790838e-20,9.809795832744,1.5707963267948966,0.00024696267544050353,-2.4958208303518914e-20,0.0,-7.289999999989351e-05,0.0,211.04252167840002,334.75888252560003,1.0655400370480022,85291.52753549554,278.8527768888889,-85.52049760526077,2.144042818555561e-18,69.00019583793852,0.0,0.0,0.0,1.003957415,336.0833712981668
5.7,1.6002e-14,260.97246784320004,-209.600553366,1451.6604346464,0.0002509901797691131,1.5376350710070044e-20,9.809731001784,1.5707963267948966,0.0002510589457416417,-2.548180707911721e-20,0.0,-7.289999999989351e-05,0.0,209.600553366,334.67683950960003,1.063287316234524,85069.48551577028,278.7161106111111,-84.80320469966459,2.1618357050166026e-18,68.10639109320965,0.0,0.0,0.0,1.000135847,334.72201429450837
5.8,1.597152e-14,260.39051469672,-208.16465297136,1472.5486453464,0.0002550763446138822,1.5620696805349252e-20,9.809666615832,1.5707963267948966,0.0002551460181576218,-2.583087292951608e-20,0.0,-7.289999999989351e-05,0.0,208.1646529612,334.5953375136,1.061049541406768,84849.13692504466,278.5803788888889,-84.09489195282973,2.1840768130929053e-18,67.22438592354852,0.0,0.0,0.0,0.996338686,333.36999023100924
5.9,1.5910560000000002e-14,259.81340759592,-206.73474049464002,1493.2935659088,0.00025915341629324844,1.5882496193148397e-20,9.80960267184,1.5707963267948966,0.0002592239974081991,-2.6354471705114376e-20,0.0,-7.289999999989351e-05,0.0,206.73474050480002,334.5143750136,1.05882774332237,84630.47118178138,278.445578,-83.39541906784643,2.201869699553947e-18,66.35398896646122,0.0,0.0,0.0,0.992565711,332.0272108290788
6.0,1.5880080000000002e-14,259.24107643680003,-205.31072943360002,1513.8957913032002,0.0002632214646203819,1.6126842288427605e-20,9.80953916676,1.5707963267948966,0.0002632929533065436,-2.670353755551324e-20,0.0,-7.289999999989351e-05,0.0,205.31072943360002,334.43396694480003,1.0566765521360382,84417.95465229865,278.31173266666667,-82.70836948756575,2.22411080763025e-18,65.49795932036905,0.0,0.0,0.0,0.988816616,330.6935770582472
6.1,1.58496e-14,258.67343011464004,-203.892517284,1534.355906136,0.0002672805594084526,1.637118838370681e-20,9.809476100591999,1.5707963267948966,0.0002673529382125328,-2.7227136331111543e-20,0.0,-7.289999999989351e-05,0.0,203.892517284,334.3541023344,1.054567622012782,84209.1985425957,278.17882383333335,-82.03251892795251,2.241903694091292e-18,64.65521250884221,0.0,0.0,0.0,0.985091095,329.3689634970672
6.2,1.581912e-14,258.11040913248,-202.48002732768,1554.6744864792001,0.0002713307879239232,1.661553447898602e-20,9.809413473336,1.5707963267948966,0.00027140405684592184,-2.775073510670984e-20,0.0,-7.289999999989351e-05,0.0,202.48002729720002,334.27477112400004,1.052472607117612,84002.05250236145,278.0468343888889,-81.36495860792806,2.259696580552334e-18,63.823360504106546,0.0,0.0,0.0,0.98138896,328.05328582816725
6.3,1.578864e-14,257.55195707184004,-201.07318568112,1574.8521007848,0.0002753722199799636,1.6877333866785167e-20,9.809351278896001,1.5707963267948966,0.0002754463615665884,-2.8099800957108704e-20,0.0,-7.289999999989351e-05,0.0,201.0731857116,334.19597178960004,1.050392538208164,83796.50044382892,277.91576044444446,-80.70556202006966,2.2774894670133758e-18,63.00223009241237,0.0,0.0,0.0,0.97771001,326.746463901172
6.4,1.575816e-14,256.99801827624003,-199.67191971048,1594.8893101895999,0.0002794049079364517,1.7121679962064372e-20,9.809289520320002,1.5707963267948966,0.00027947992218770235,-2.8623399732707e-20,0.0,-7.289999999989351e-05,0.0,199.67191973080003,334.1177021976,1.048326384526802,83592.53216850292,277.78559866666666,-80.05420483658318,2.295282353474418e-18,62.19165144065839,0.0,0.0,0.0,0.97405405,325.4484190061496
6.5,1.572768e-14,256.4485380036,-198.27615784872003,1614.7866691248,0.0002834289565131423,1.7366026057343577e-20,9.809228188464001,1.5707963267948966,0.00028350480852243397,-2.897246558310587e-20,0.0,-7.289999999989351e-05,0.0,198.27615782840002,334.0399611288,1.046275176831162,83390.14351080093,277.6563457222222,-79.41077086992003,2.31307523993546e-18,61.391462233237874,0.0,0.0,0.0,0.970420886,324.1590741822776
6.6,1.56972e-14,255.90346227384003,-196.88582968704003,1634.544723792,0.00028744440061662064,1.762782544514273e-20,9.809167289424,1.5707963267948966,0.0002875211078372458,-2.949606435870417e-20,0.0,-7.289999999989351e-05,0.0,196.88582969720002,333.9627461448,1.0442383997424258,83189.31833507569,277.5279973888889,-78.77514050740095,2.330868126396502e-18,60.60149882007761,0.0,0.0,0.0,0.966810332,322.87835380628803
6.7,1.5636240000000002e-14,255.36273796032,-195.50086591392002,1654.1640146016002,0.0002914513100600567,1.780235837034216e-20,9.809106820152001,1.5707963267948966,0.0002915288899453078,-2.9845130209103033e-20,0.0,-7.289999999989351e-05,0.0,195.50086589360004,333.88605572160003,1.0422155378817761,82990.05237998412,277.40055027777777,-78.14719097810938,2.348661012857544e-18,59.821596483531174,0.0,0.0,0.0,0.963222203,321.6061835924672
6.8,1.560576e-14,254.82631266792,-194.12119828464,1673.645074344,0.0002954497721099131,1.815142422074103e-20,9.809046774552002,1.5707963267948966,0.0002955281897532052,-3.0368728984701336e-20,0.0,-7.289999999989351e-05,0.0,194.1211982948,333.8098883352,1.04020710662803,82792.33592583366,277.2740015,-77.52681814917729,2.366453899318586e-18,59.05160607472779,0.0,0.0,0.0,0.959656318,320.3424909013224
6.9,1.557528e-14,254.29413485496002,-192.74675962128,1692.9884294088001,0.00029943985657935994,1.832595714594046e-20,9.808987155672,1.5707963267948966,0.00029951911198069305,-3.07177948351002e-20,0.0,-7.289999999989351e-05,0.0,192.74675964160002,333.7342421568,1.038213105981188,82596.16456764049,277.14834683333333,-76.91390908025788,2.3797985641643673e-18,58.29137297348415,0.0,0.0,0.0,0.956112501,319.0872043794708
7.0,1.55448e-14,253.76615365032,-191.37748381272002,1712.19459948,0.0003034216158282748,1.8500490071139893e-20,9.808927957416001,1.5707963267948966,0.0003035016915343563,-3.1241393610698503e-20,0.0,-7.289999999989351e-05,0.0,191.37748379240003,333.6591156624,1.036233020562432,82401.5287293528,277.0235837777778,-76.30834745035591,2.397591450625409e-18,57.54074122515039,0.0,0.0,0.0,0.952590576,317.840254011084
7.1,1.5514320000000003e-14,253.24231900584002,-190.0133057232,1731.2640969264003,0.0003073951196698276,1.884955592153876e-20,9.808869182832,1.5707963267948966,0.0003074760331339501,-3.1764992386296794e-20,0.0,-7.289999999989351e-05,0.0,190.01330572320003,333.5845067184,1.034266850371762,82208.41246684435,276.8997081666667,-75.71003001624769,2.4153843370864513e-18,56.799565906666295,0.0,0.0,0.0,0.949090377,316.601571117888
7.2,1.548384e-14,252.72258151344002,-188.6541612228,1750.19742924,0.00031136043791718873,1.9024088846738193e-20,9.808810828872002,1.5707963267948966,0.00031144215423276706,-3.211405823669566e-20,0.0,-7.289999999989351e-05,0.0,188.6541612228,333.5104141056,1.0323151107879962,82016.81779108605,276.77671733333335,-75.11884993165,2.428729001932233e-18,56.067700804987375,0.0,0.0,0.0,0.945611736,315.37108851349643
7.3,1.545336e-14,252.20689258800002,-187.29998715696001,1768.9950956832001,0.0003153176229302354,1.9373154697137058e-20,9.808752892488,1.5707963267948966,0.00031540015955056224,-3.263765701229396e-20,0.0,-7.289999999989351e-05,0.0,187.29998714680002,333.4368363,1.0303767710534981,81826.72909311345,276.65460766666666,-74.53471302771129,2.4465218883932746e-18,55.34501016038993,0.0,0.0,0.0,0.942154489,314.1487400918552
7.4,1.542288e-14,251.69520422352,-185.95072140744,1787.6575909464,0.00031926674452213797,1.954768762233649e-20,9.80869537368,1.5707963267948966,0.0003193500839939207,-3.2986722862692826e-20,0.0,-7.289999999989351e-05,0.0,185.9507214176,333.363771168,1.028452861925904,81638.1425425058,276.5333761111111,-73.95750587478035,2.4598665532390562e-18,54.631344957449855,0.0,0.0,0.0,0.938718479,312.93446113590926
7.5,1.53924e-14,251.18746920648,-184.60630270944,1806.1854024048002,0.00032320787250606636,1.9722220547535922e-20,9.8086382694,1.5707963267948966,0.0003232919973760125,-3.351032163829113e-20,0.0,-7.289999999989351e-05,0.0,184.6063027196,333.29121779520005,1.026542868026396,81451.04846745083,276.41301955555554,-73.38713270264577,2.473211218084838e-18,53.926570681945485,0.0,0.0,0.0,0.935303547,311.7281882661576
7.6,1.5361920000000002e-14,250.68364096344,-183.26667077352002,1824.5790119472001,0.0003271410592418982,2.007128639793479e-20,9.808581579648001,1.5707963267948966,0.0003272259695100077,-3.3859387488689994e-20,0.0,-7.289999999989351e-05,0.0,183.2666707532,333.219174048,1.0246462739761562,81265.4429417673,276.29353444444445,-72.82349965383152,2.486555882930619e-18,53.23055513273044,0.0,0.0,0.0,0.931909542,310.5298591319876
7.7,1.533144e-14,250.18367353056001,-181.93176619416002,1842.8388950616,0.000331066357089511,2.0245819323134222e-20,9.808525301376001,1.5707963267948966,0.00033115207020907643,-3.438298626428829e-20,0.0,-7.289999999989351e-05,0.0,181.93176618400003,333.14763901200007,1.0227641105328202,81081.31667668495,276.1749183333333,-72.26650415234712,2.5043487693916612e-18,52.54316090423901,0.0,0.0,0.0,0.928536314,309.3394127717852
7.8,1.530096e-14,249.687521706,-180.6015305412,1860.9655214448,0.0003349838533153674,2.059488517353309e-20,9.808469434584,1.5707963267948966,0.0003350703343798037,-3.4732052114687155e-20,0.0,-7.289999999989351e-05,0.0,180.6015305412,333.07661055360006,1.020895346938752,80898.65420688014,276.05716766666666,-71.71606092578423,2.517693434237443e-18,51.86426429142807,0.0,0.0,0.0,0.925183716,308.1567893557132
7.9,1.5270480000000003e-14,249.19514083656,-179.27590611600002,1878.959355612,0.0003388935828260524,2.0769418098732522e-20,9.808413976224001,1.5707963267948966,0.00033898084928865216,-3.525565089028546e-20,0.0,-7.289999999989351e-05,0.0,179.27590611600002,333.0060874536,1.019039983193952,80717.46348047584,275.9402796111111,-71.17207611666676,2.5310380990832244e-18,51.193736295870785,0.0,0.0,0.0,0.921851605,306.9819302371556
8.0,1.524e-14,248.70648690912003,-177.95483625624001,1896.8208553728002,0.0003427956154347361,2.0943951023931954e-20,9.808358929344,1.5707963267948966,0.0003428836323889142,-3.5779249665883755e-20,0.0,-7.289999999989351e-05,0.0,177.9548362664,332.9360684928001,1.017198534677238,80537.72362167916,275.8242515555556,-70.6344523089413,2.544382763929006e-18,50.53144662915605,0.0,0.0,0.0,0.918539839,305.8147779012732
8.1,1.520952e-14,248.22151655064002,-176.63826500064002,1914.5504733552002,0.0003466900035012961,2.1293016874330822e-20,9.808304287848001,1.5707963267948966,0.00034677878840034507,-3.6128315516282625e-20,0.0,-7.289999999989351e-05,0.0,176.6382650108,332.86655184240004,1.015370486009792,80359.43089582991,275.7090798888889,-70.10310921220774,2.5577274287747873e-18,49.877278080644295,0.0,0.0,0.0,0.915248283,304.6552759650036
8.2,1.517904e-14,247.7401869672,-175.32613733280002,1932.1486573104,0.00035057681683890247,2.1467549799530254e-20,9.808250051736001,1.5707963267948966,0.00035066635222952974,-3.665191429188092e-20,0.0,-7.289999999989351e-05,0.0,175.32613733280002,332.7975359784,1.013556352570432,80182.58180766914,275.594762,-69.57795781755154,2.571072093620569e-18,49.2311083242411,0.0,0.0,0.0,0.9119768,303.5033691770612
8.3,1.514856e-14,247.26245597448,-174.01839896784,1949.6158479792002,0.00035445609035414014,2.1642082724729686e-20,9.808196217959999,1.5707963267948966,0.0003545463762363458,-3.7000980142279787e-20,0.0,-7.289999999989351e-05,0.0,174.018398978,332.72901998640003,1.01175561898034,80007.16711630691,275.4812952777778,-69.05890573540974,2.57996853685109e-18,48.59281369938556,0.0,0.0,0.0,0.90872526,302.3590034179372
8.4,1.511808e-14,246.7882819368,-172.71499647432,1966.9524821400003,0.00035832789386017937,2.1991148575128554e-20,9.808142786520001,1.5707963267948966,0.00035841893023396337,-3.752457891787809e-20,0.0,-7.289999999989351e-05,0.0,172.71499645400002,332.6610020376,1.009968285239516,79833.17762873347,275.36867655555557,-68.54587716808604,2.593313201696871e-18,47.96228322294837,0.0,0.0,0.0,0.905493534,301.2221255970108
8.5,1.50876e-14,246.31762388904002,-171.41587721328003,1984.15899078,0.0003621922971701901,2.2165681500327986e-20,9.808089760464002,1.5707963267948966,0.0003622840665822599,-3.7873644768276954e-20,0.0,-7.289999999989351e-05,0.0,171.41587723359999,332.59348060800005,1.0081943513479599,79660.60970604914,275.25690283333336,-68.03878283977261,2.6066578665426528e-18,47.33939732673253,0.0,0.0,0.0,0.902281497,300.0926836525492
8.6,1.5057120000000002e-14,245.85044126232,-170.12098930776,2001.2357994000001,0.0003660493351907574,2.2340214425527418e-20,9.808037130648,1.5707963267948966,0.00036614183764111305,-3.8397243543875245e-20,0.0,-7.289999999989351e-05,0.0,170.1209892976,332.52645508800003,1.006438455715034,79489.83513846493,275.14597205555555,-67.53754975515275,2.6200025313884344e-18,46.72404885307931,0.0,0.0,0.0,0.899089023,298.9706267060408
8.7,1.5026640000000002e-14,245.38667690664002,-168.83026969464,2018.1833283192002,0.0003698990602817588,2.2689280275926286e-20,9.807984900120001,1.5707963267948966,0.0003699922957704004,-3.892084231947355e-20,0.0,-7.289999999989351e-05,0.0,168.8302697048,332.459923344,1.004757290010718,79325.30018259019,275.03588094444444,-67.046370807921,2.628898974618955e-18,46.11906575888062,0.0,0.0,0.0,0.895915931,297.8558837642136
8.8,1.5026640000000002e-14,244.92627888408003,-167.54365960848,2035.0019911512002,0.0003737415422563645,2.2863813201125715e-20,9.80793306888,1.5707963267948966,0.0003738354933299994,-3.926990816987241e-20,0.0,-7.289999999989351e-05,0.0,167.54365962880001,332.3938841568,1.003089008776852,79162.12086048796,274.92662683333333,-66.56091965773433,2.6422436394647367e-18,45.52138290806803,0.0,0.0,0.0,0.892762057,296.7483907787896
8.9,1.4996160000000003e-14,244.46920909464004,-166.26111012888,2051.692196328,0.00037757681602115946,2.3212879051524583e-20,9.807881630832,1.5707963267948966,0.00037767148267978763,-3.979350694547071e-20,0.0,-7.289999999989351e-05,0.0,166.2611101492,332.328336612,1.001433096634618,79000.28836219058,274.8182072777778,-66.08099226466729,2.651140082695258e-18,44.93080618025026,0.0,0.0,0.0,0.889627288,295.648100832476
9.0,1.496568e-14,244.01542980408001,-164.982573006,2068.2543474048002,0.00038140493393602125,2.3387411976724015e-20,9.807830589024,1.5707963267948966,0.00038150033363293525,-4.014257279586958e-20,0.0,-7.289999999989351e-05,0.0,164.98257300600002,332.2632791856,0.999790068962834,78839.7994797207,274.7106196111111,-65.60651812440727,2.664484747541039e-18,44.34723464972706,0.0,0.0,0.0,0.886511515,294.5549678825348
9.1,1.49352e-14,243.56490385728,-163.708000752,2084.6888436696004,0.00038522596581411987,2.3561944901923447e-20,9.807779940408,1.5707963267948966,0.0003853220636427347,-4.0666171571467876e-20,0.0,-7.289999999989351e-05,0.0,163.708000752,332.1987103536,0.9981599257615001,78680.65114874174,274.603861,-65.13742308509994,2.6733811907715604e-18,43.77056578943843,0.0,0.0,0.0,0.88341463,293.4689467607828
9.2,1.490472e-14,243.11759455632,-162.43734648864,2100.996078924,0.00038903996401533304,2.3911010752322315e-20,9.807729684984,1.5707963267948966,0.0003891367599756486,-4.101523742186674e-20,0.0,-7.289999999989351e-05,0.0,162.4373464988,332.1346295064,0.996542151651798,78522.8345114058,274.49792922222224,-64.67363904447235,2.686725855617342e-18,43.200701992057475,0.0,0.0,0.0,0.880336528,292.38999337936923
9.3,1.487424e-14,242.67346569096,-161.17056400824,2117.1764427024,0.00039284694599295316,2.4085543677521747e-20,9.807679819704001,1.5707963267948966,0.0003929444400849695,-4.1538836197465044e-20,0.0,-7.289999999989351e-05,0.0,161.1705640184,332.0710348152,0.9949372620125461,78366.340901386,274.3928216666667,-64.21509910127143,2.6956222988478627e-18,42.63754719823841,0.0,0.0,0.0,0.877277107,291.3180644221092
9.4,1.484376e-14,242.23248150816,-159.90760786512,2133.2303199672,0.0003966469815601503,2.426007660272118e-20,9.807630347616,1.5707963267948966,0.0003967451737838675,-4.188790204786391e-20,0.0,-7.289999999989351e-05,0.0,159.90760784480003,332.0079250608,0.993344741464926,78211.16720646547,274.2885357222222,-63.76173275118457,2.7089669636936443e-18,42.081003809550765,0.0,0.0,0.0,0.874236266,290.2531174988172
9.5,1.481328e-14,241.79460671208,-158.64843316224002,2149.158090804,0.0004004401405300946,2.4609142453120047e-20,9.807581259576002,1.5707963267948966,0.00040053901343222007,-4.241150082346221e-20,0.0,-7.289999999989351e-05,0.0,158.6484331724,331.94529932880005,0.991764590008938,78057.30466455685,274.1850687777778,-63.313470735401225,2.717863406924165e-18,41.53097586450965,0.0,0.0,0.0,0.871213908,289.1951111453068
9.6,1.4782800000000002e-14,241.35980649456,-157.3929957036,2164.9601316408002,0.0004042264403560786,2.478367537831948e-20,9.80753256168,1.5707963267948966,0.00040432599393661235,-4.293509959906051e-20,0.0,-7.289999999989351e-05,0.0,157.3929957036,331.88315639999996,0.9901968076445821,77904.75059436566,274.08241883333335,-62.8702497557278,2.7267598501546865e-18,40.98737203222885,0.0,0.0,0.0,0.868209937,288.14400472050204
9.7,1.4782800000000002e-14,240.92804647416003,-156.14125184184002,2180.636813724,0.00040800593339797975,2.4958208303518914e-20,9.807484250880002,1.5707963267948966,0.0004081061676569218,-4.328416544945937e-20,0.0,-7.289999999989351e-05,0.0,156.141251852,331.8214947504,0.9886419097506761,77753.49618592422,273.9805831111111,-62.43200277746456,2.735656293385207e-18,40.450099433841025,0.0,0.0,0.0,0.86522426,287.099758509326
9.8,1.4752320000000002e-14,240.49929272664002,-154.89315866112,2196.1885043376,0.0004117786894689683,2.530727415391778e-20,9.807436324128002,1.5707963267948966,0.0004118795869530261,-4.3807764225057675e-20,0.0,-7.289999999989351e-05,0.0,154.8931586408,331.7603134656,0.987099380948402,77603.53856641699,273.8795592777778,-61.99867317475035,2.7490009582309888e-18,39.91907264125008,0.0,0.0,0.0,0.862256785,286.0623335169236
9.9,1.472184e-14,240.07351175448002,-153.64867376376,2211.6155664984003,0.0004155447260223366,2.548180707911721e-20,9.807388784472002,1.5707963267948966,0.0004156463041848027,-4.415683007545654e-20,0.0,-7.289999999989351e-05,0.0,153.6486737536,331.69961132640003,0.9855687058589421,77454.8750066692,273.77934505555555,-61.57018706262413,2.7578974014615095e-18,39.39419580417664,0.0,0.0,0.0,0.859307424,285.03169167443883
10.0,1.469136e-14,239.65067042592003,-152.40775539216,2226.9183586512004,0.00041930409541796233,2.5656340004316647e-20,9.807341622768002,1.5707963267948966,0.00041940633680554416,-4.4680428851054837e-20,0.0,-7.289999999989351e-05,0.0,152.407755382,331.6393874184,0.984050915239932,77307.49119048344,273.67993822222223,-61.14649444307494,2.766793844692031e-18,38.87538924607512,0.0,0.0,0.0,0.85637609,284.0077956846816
10.1,1.466088e-14,239.23073612736002,-151.17036236784,2242.0972355832,0.0004230568674690155,2.600540585471551e-20,9.807294848160002,1.5707963267948966,0.00042315977208171306,-4.502949470145371e-20,0.0,-7.289999999989351e-05,0.0,151.17036237800002,331.5796402176,0.9825449783337361,77161.39008643577,273.5813361666667,-60.727528192438626,2.775690287922552e-18,38.362562934940044,0.0,0.0,0.0,0.853462698,282.9906091250168
10.2,1.46304e-14,238.81367661096002,-149.93645412192,2257.1525478144004,0.00042680307708208113,2.617993877991494e-20,9.807248451504,1.5707963267948966,0.00042690662746660196,-4.5553093477052e-20,0.0,-7.289999999989351e-05,0.0,149.9364541016,331.5203685048,0.981051410519172,77016.55747408923,273.48353672222225,-60.31322670284579,2.7845867311530727e-18,37.85563123360887,0.0,0.0,0.0,0.850567166,281.98009624158635
10.3,1.46304e-14,238.39945999464,-148.7059905732,2272.0846419024,0.00043054274171045186,2.6354471705114376e-20,9.807202435848,1.5707963267948966,0.0004306469553200884,-4.590215932745086e-20,0.0,-7.289999999989351e-05,0.0,148.7059905732,331.4615716704,0.97957021179624,76872.99651354094,273.38653794444446,-59.90354291211176,2.793483174383594e-18,37.35451825097262,0.0,0.0,0.0,0.847689414,280.97622210364284
10.4,1.459992e-14,237.98805485352003,-147.47893231104,2286.8938598328,0.00043427594862059015,2.6529004630313808e-20,9.807156798144002,1.5707963267948966,0.0004343807905487574,-4.6425758103049165e-20,0.0,-7.289999999989351e-05,0.0,147.4789323212,331.40324849520005,0.9781008667861221,76730.69872998507,273.29033733333335,-59.498408184177016,2.802379617614115e-18,36.8591353161816,0.0,0.0,0.0,0.844829363,279.9789526549932
10.5,1.456944e-14,237.57943006752,-146.255240382,2301.580540848,0.00043800271526578855,2.6878070480712676e-20,9.807111538392,1.5707963267948966,0.0004381082029657791,-4.694935687864746e-20,0.0,-7.289999999989351e-05,0.0,146.255240382,331.3453974552,0.976644406246454,76589.66139424685,273.19493261111114,-59.09777287688832,2.8112760608446355e-18,36.36940624454423,0.0,0.0,0.0,0.841986936,278.98825440533324
10.6,1.453896e-14,237.17355503472,-145.03487641176,2316.1450196184,0.0004417230765526323,2.7052603405912108e-20,9.807066656592001,1.5707963267948966,0.000441829210024446,-4.7298422729046327e-20,0.0,-7.289999999989351e-05,0.0,145.0348764016,331.2880179408,0.975199284040782,76449.87057317092,273.1003216666667,-58.70157489307192,2.8201725040751566e-18,35.885247858764515,0.0,0.0,0.0,0.83916206,278.0040947903576
10.7,1.4508480000000002e-14,236.77039939704,-143.8178026356,2330.5876265472,0.0004454371022942911,2.7227136331111543e-20,9.807022149696001,1.5707963267948966,0.0004455438640846356,-4.782202150464463e-20,0.0,-7.289999999989351e-05,0.0,143.8178026356,331.2311087328,0.973766530926742,76311.3293789741,273.0065025555556,-58.30977068463822,2.829068947305678e-18,35.406589022882386,0.0,0.0,0.0,0.836354661,277.0264418116496
10.8,1.4478000000000002e-14,236.3699332536,-142.60398165456002,2344.9086889896003,0.00044914482739735035,2.757620218151041e-20,9.806978014656,1.5707963267948966,0.0004492522175062255,-4.8171087355043494e-20,0.0,-7.289999999989351e-05,0.0,142.6039816444,331.17466891680004,0.9723461469043341,76174.02957625187,272.9134730555556,-57.92229561892713,2.8379653905361987e-18,34.93334636832832,0.0,0.0,0.0,0.833564669,276.0552642424584
10.9,1.4478000000000002e-14,235.97212700832,-141.39337677072,2359.1085306432,0.0004528462693151023,2.775073510670984e-20,9.806934257568,1.5707963267948966,0.00045295428774250825,-4.86946861306418e-20,0.0,-7.289999999989351e-05,0.0,141.3933767504,331.11869727360005,0.970937101215922,76037.96857947021,272.82123077777777,-57.5391079271377,2.8468618337667194e-18,34.46545099659773,0.0,0.0,0.0,0.830792016,275.0905316791436
11.0,1.444752e-14,235.57695143088003,-140.18595162144,2373.1874709384,0.00045654149786071726,2.792526803190927e-20,9.806890869287999,1.5707963267948966,0.00045665014460665387,-4.904375198104066e-20,0.0,-7.289999999989351e-05,0.0,140.1859516316,331.06319258400003,0.9695409399979601,75903.13820110487,272.7297738888889,-57.160144800380706,2.8513100553819804e-18,34.00282204346987,0.0,0.0,0.0,0.828036634,274.1322142839532
11.1,1.441704e-14,235.18437765672,-138.98167048416,2387.1458262576,0.0004602305479407801,2.8274333882308137e-20,9.806847855912,1.5707963267948966,0.00046033980555195493,-4.956735075663896e-20,0.0,-7.289999999989351e-05,0.0,138.981670474,331.0081545432,0.968156117113994,75769.53609502313,272.6391007222222,-56.785365982250546,2.860206498612501e-18,33.54539274558651,0.0,0.0,0.0,0.825298458,273.18028288791237
11.2,1.438656e-14,234.79437721752004,-137.78049806304,2400.9839090208,0.00046391347191516844,2.844886680750757e-20,9.806805211344,1.5707963267948966,0.0004640233403915815,-4.991641660703783e-20,0.0,-7.289999999989351e-05,0.0,137.78049807320002,330.9535813224,0.966783147942842,75637.15388217969,272.54920833333335,-56.41471489136827,2.8691029418430225e-18,33.09308715846002,0.0,0.0,0.0,0.822577425,272.2347090937124
11.3,1.438656e-14,234.40692188880004,-136.5823995804,2414.7020289048,0.00046759026978388234,2.8623399732707e-20,9.806762938632001,1.5707963267948966,0.00046770074912553356,-5.0440015382636126e-20,0.0,-7.289999999989351e-05,0.0,136.5823995804,330.89947261680004,0.965422547863322,75505.98940796289,272.4600955555556,-56.0481442431381,2.877999385073543e-18,32.64583554732014,0.0,0.0,0.0,0.819873474,271.29546512137716
11.4,1.435608e-14,234.02198381184002,-135.38734068528,2428.3004910144004,0.00047126102881338424,2.879793265790644e-20,9.80672103168,1.5707963267948966,0.0004713721015669812,-5.096361415823442e-20,0.0,-7.289999999989351e-05,0.0,135.3873407056,330.8458269024,0.9640732861177981,75376.04008683872,272.3717597777778,-55.68560759812638,2.882447606688804e-18,32.203569187142904,0.0,0.0,0.0,0.817186545,270.362523859708
11.5,1.43256e-14,233.63953552416,-134.19528757536,2441.7795977112,0.0004749257490036743,2.9146998508305304e-20,9.806679493536,1.5707963267948966,0.00047503743262250947,-5.1312680008633293e-20,0.0,-7.289999999989351e-05,0.0,134.1952875652,330.79264356960005,0.962736393463906,75247.29806644475,272.28419961111115,-55.32705082147605,2.8913440499193248e-18,31.766215531882,0.0,0.0,0.0,0.814516578,269.4358588148388
11.6,1.429512e-14,233.25954980712,-133.00620687504002,2455.1396480040003,0.00047858450016792254,2.9321531433504736e-20,9.806638324200001,1.5707963267948966,0.0004786967771987033,-5.183627878423159e-20,0.0,-7.289999999989351e-05,0.0,133.00620688520002,330.73992170400004,0.96141083914401,75119.76090488776,272.1974128888889,-54.97243739328764,2.9002404931498455e-18,31.33371276460163,0.0,0.0,0.0,0.811863519,268.5154441616808
11.7,1.426464e-14,232.88199974688,-131.82006566592003,2468.3809375488004,0.0004822372997594215,2.949606435870417e-20,9.806597517576002,1.5707963267948966,0.00048235017020214794,-5.218534463463045e-20,0.0,-7.289999999989351e-05,0.0,131.8200656456,330.6876600864,0.9600976539157461,74993.42060616448,272.11139738888886,-54.6217147800639,2.9046887147651064e-18,30.905990376540974,0.0,0.0,0.0,0.809227313,267.6012545895892
11.8,1.426464e-14,232.50685882584,-130.63683145632,2481.5037583440003,0.0004858842001380487,2.9845130209103033e-20,9.806557079760001,1.5707963267948966,0.00048599764653942833,-5.270894341022875e-20,0.0,-7.289999999989351e-05,0.0,130.63683143600002,330.6358578024,0.958795807021478,74868.2748720225,272.02615155555554,-54.27483961164405,2.913585157995627e-18,30.482983686109527,0.0,0.0,0.0,0.806607905,266.69326561102963
11.9,1.4234160000000002e-14,232.13410073976002,-129.45647224224,2494.5083999496,0.0004895252187570966,3.001966313430247e-20,9.806517004656001,1.5707963267948966,0.000489639258570422,-5.3058009260627616e-20,0.0,-7.289999999989351e-05,0.0,129.4564722524,330.5845139376,0.957505298461206,74744.3214999699,271.9416731666667,-53.93176905165395,2.918033379610888e-18,30.064628910257547,0.0,0.0,0.0,0.804005246,265.7914531500228
12.0,1.420368e-14,231.76369656312,-128.27895477,2507.395148268,0.0004931604254297355,3.0194196059501904e-20,9.806477292264,1.5707963267948966,0.000493275041201714,-5.358160803622591e-20,0.0,-7.289999999989351e-05,0.0,128.27895477,330.53363672160003,0.956254989448738,74623.74469166083,271.85797572222225,-53.59375313933192,2.9269298228414087e-18,29.651578007034296,0.0,0.0,0.0,0.801419251,264.895790352592
12.1,1.420368e-14,231.39560664144003,-127.10424023856001,2520.1642849344003,0.0004967898201559651,3.0368728984701336e-20,9.806437942584001,1.5707963267948966,0.0004969050293398893,-5.3930673886624783e-20,0.0,-7.289999999989351e-05,0.0,127.1042402284,330.4832228016,0.9550371493018041,74505.94670994217,271.77505294444444,-53.260851036025436,2.9313780444566692e-18,29.24380793020358,0.0,0.0,0.0,0.798849832,264.0062384296596
12.2,1.41732e-14,231.02980442664003,-125.93229737544,2532.8160891456,0.0005004134727489558,3.07177948351002e-20,9.806398955616002,1.5707963267948966,0.0005005292404382406,-5.445427266222309e-20,0.0,-7.289999999989351e-05,0.0,125.93229738560001,330.4332645576,0.9538301321100481,74389.28660257817,271.6928921111111,-52.93155821973758,2.9402744876871903e-18,28.840442313383882,0.0,0.0,0.0,0.796296953,263.12277387113477
12.3,1.4142720000000001e-14,230.66626519944,-124.76309627976,2545.350836136,0.0005040313832087073,3.089232776029963e-20,9.806360325263999,1.5707963267948966,0.0005041477268566453,-5.497787143782139e-20,0.0,-7.289999999989351e-05,0.0,124.76309626960001,330.3837610752,0.9526339378734701,74273.76226283745,271.6114914444444,-52.60584377532812,2.949170930917711e-18,28.441426701446172,0.0,0.0,0.0,0.79376057,262.24537548192484
12.4,1.4112240000000002e-14,230.30496457584002,-123.59660738592001,2557.7687993112004,0.00050764362134839,3.106686068549907e-20,9.806322060672,1.5707963267948966,0.000507760540954981,-5.532693728822025e-20,0.0,-7.289999999989351e-05,0.0,123.5966073656,330.33471144000004,0.951449597349706,74159.37172762936,271.53084922222223,-52.28366130784561,2.9536191525329715e-18,28.046698614669655,0.0,0.0,0.0,0.791240642,261.3740226842696
12.5,1.4112240000000002e-14,229.94587841568003,-122.43280155504,2570.0702475048,0.000511250204621296,3.1241393610698503e-20,9.806284149648,1.5707963267948966,0.0005113676827332477,-5.585053606381854e-20,0.0,-7.289999999989351e-05,0.0,122.4328015652,330.2861150424,0.95027607978112,74046.10724035198,271.45096366666667,-51.96497709977021,2.9625155957634926e-18,27.656202948484953,0.0,0.0,0.0,0.788737126,260.5086953634088
12.6,1.4081760000000002e-14,229.58898291408002,-121.27165010544,2582.2554483312,0.0005148511679340108,3.159045946109736e-20,9.806246601336,1.5707963267948966,0.0005149692045513231,-5.619960191421741e-20,0.0,-7.289999999989351e-05,0.0,121.27165011560001,330.23797066320003,0.949113385167712,73933.96104440332,271.37183300000004,-51.649750049534184,2.966963817378753e-18,27.269881084227627,0.0,0.0,0.0,0.786249983,259.64937397047044
12.7,1.405128e-14,229.23425438808002,-120.11312469072,2594.3246657472,0.000518446546193119,3.1764992386296794e-20,9.806209406592,1.5707963267948966,0.0005185651413157921,-5.672320068981571e-20,0.0,-7.289999999989351e-05,0.0,120.1131246704,330.190277388,0.9479620288883001,73822.94262007468,271.2934553888889,-51.33793972280306,2.971412038994014e-18,26.88767524839533,0.0,0.0,0.0,0.783779176,258.7960395739152
12.8,1.4020800000000001e-14,228.88166952048,-118.95719729976,2606.2781603568,0.0005220363917584986,3.1939525311496227e-20,9.806172571511999,1.5707963267948966,0.0005221555279332397,-5.707226654021458e-20,0.0,-7.289999999989351e-05,0.0,118.95719728960002,330.143034912,0.946821495564066,73713.03295890325,271.2158293888889,-51.02951017794617,2.9803084822245348e-18,26.509530581070884,0.0,0.0,0.0,0.781324667,257.9486735508704
12.9,1.4020800000000001e-14,228.53120526840002,-117.80384037864002,2618.11619124,0.0005256207046301492,3.22885911618951e-20,9.80613609,1.5707963267948966,0.000525740399310251,-5.759586531581288e-20,0.0,-7.289999999989351e-05,0.0,117.80384038880001,330.09624201599996,0.945692300573828,73604.23569978868,271.13895311111116,-50.72442609608392,2.9847567038397953e-18,26.135392947397236,0.0,0.0,0.0,0.778886421,257.1072579472404
13.0,1.399032e-14,228.18283874136,-116.6530267392,2629.8390135144,0.0005291995371679487,3.246312408709453e-20,9.806099965104,1.5707963267948966,0.0005293197903534111,-5.794493116621174e-20,0.0,-7.289999999989351e-05,0.0,116.65302673920002,330.04989809040006,0.944573928538768,73496.5491190417,271.0628251111111,-50.42265269212324,2.9936531470703164e-18,25.765208928681,0.0,0.0,0.0,0.776464404,256.2717752204848
13.1,1.395984e-14,227.8365473232,-115.5047294676,2641.4468807736,0.0005327729242784818,3.263765701229396e-20,9.806064193776,1.5707963267948966,0.0005328937185160124,-5.846852994181003e-20,0.0,-7.289999999989351e-05,0.0,115.50472946760001,330.00400222080003,0.9434663794588861,73389.96555582082,270.9874438333333,-50.12415184480493,2.998101368685577e-18,25.398923838485644,0.0,0.0,0.0,0.774058581,255.4422083425072
13.2,1.395984e-14,227.49230873304003,-114.35892213768001,2652.9400429536,0.0005363408834150414,3.2812189937493394e-20,9.806028776016001,1.5707963267948966,0.00053646221870464,-5.899212871740834e-20,0.0,-7.289999999989351e-05,0.0,114.358922158,329.95855318800005,0.942369653334182,73284.4830949157,270.91280711111114,-49.82888992557354,3.002549590300837e-18,25.036485730479146,0.0,0.0,0.0,0.771668922,254.6185407482108
13.3,1.392936e-14,227.15010081192003,-113.2155785976,2664.3187478567997,0.0005399034669375047,3.316125578789226e-20,9.805993708776,1.5707963267948966,0.0005400253432791714,-5.93411945678072e-20,0.0,-7.289999999989351e-05,0.0,113.21557859760001,329.913550992,0.941284265543474,73180.09991687651,270.8389138333334,-49.53683375069584,3.0114460335313585e-18,24.67784333001094,0.0,0.0,0.0,0.769295397,253.8007563869428
13.4,1.389888e-14,226.80990164472001,-112.07467309176002,2675.5832402376,0.000543460709752457,3.333578871309169e-20,9.805958995104,1.5707963267948966,0.0005435831096928993,-5.98647933434055e-20,0.0,-7.289999999989351e-05,0.0,112.07467308160001,329.8689944136,0.9402097007079441,73076.80295039254,270.76576222222224,-49.24794684475458,3.0158942551466187e-18,24.32294413472131,0.0,0.0,0.0,0.766937975,252.98883961960559
13.5,1.389888e-14,226.4716896516,-110.93618013888,2686.7337633264005,0.0005470126118598981,3.351032163829113e-20,9.805924635000002,1.5707963267948966,0.000547135535399116,-6.021385919380437e-20,0.0,-7.289999999989351e-05,0.0,110.9361801592,329.8248825384,0.939145958827592,72974.60162787481,270.69335072222225,-48.96219339956576,3.0203424767618792e-18,23.971736393999976,0.0,0.0,0.0,0.76459663,252.1827752186568
13.6,1.3868400000000001e-14,226.13544337464,-109.80007471488,2697.7705563912,0.0005505592256197056,3.368485456349056e-20,9.805890622368,1.5707963267948966,0.0005506826727576993,-6.073745796940267e-20,0.0,-7.289999999989351e-05,0.0,109.8000747352,329.7812150616,0.9380930399024181,72873.48287801263,270.6216777777778,-48.67954943921487,3.0292389199924003e-18,23.62417461588448,0.0,0.0,0.0,0.762271333,251.38254852244242
13.7,1.3837920000000001e-14,225.80114163024,-108.66633203952,2708.693857176,0.0005541005859384648,3.4033920413889426e-20,9.805856960256,1.5707963267948966,0.000554224556675234,-6.108652381980154e-20,0.0,-7.289999999989351e-05,0.0,108.6663320192,329.737990764,0.937050943932422,72773.45057910694,270.55074183333335,-48.39997243870327,3.033687141607661e-18,23.28020465662133,0.0,0.0,0.0,0.759962059,250.5881451779748
13.8,1.3837920000000001e-14,225.46876341768004,-107.53492769832,2719.5039009864,0.0005576367102694679,3.420845333908886e-20,9.805823645616,1.5707963267948966,0.0005577612046050127,-6.161012259539983e-20,0.0,-7.289999999989351e-05,0.0,107.53492767800002,329.695209036,0.936019155538786,72674.4917556076,270.4805413888889,-48.12343940072521,3.0381353632229213e-18,22.93978223861256,0.0,0.0,0.0,0.757668783,249.7995513467104
13.9,1.380744e-14,225.13828794960003,-106.40583761208,2730.2009203848,0.0005611676335193001,3.438298626428829e-20,9.805790681496,1.5707963267948966,0.0005612926514536203,-6.19591884457987e-20,0.0,-7.289999999989351e-05,0.0,106.4058376324,329.652869268,0.9349987054791461,72576.61598356637,270.41107500000004,-47.8499164743142,3.0470318064534424e-18,22.60285818676821,0.0,0.0,0.0,0.755391482,249.0167536016608
14.0,1.377696e-14,224.80969471296004,-105.2790380064,2740.7851454952,0.0005646933731412538,3.455751918948772e-20,9.8057580618,1.5707963267948966,0.0005648189146743497,-6.248278722139701e-20,0.0,-7.289999999989351e-05,0.0,105.2790380064,329.6109702408,0.933989078374684,72479.80444604151,270.34234083333337,-47.57936651681974,3.051480028068703e-18,22.269382276218025,0.0,0.0,0.0,0.753130133,248.239738824504
14.1,1.377696e-14,224.48296337760002,-104.15450547264,2751.2568040032,0.0005682139989484993,3.4906585039886593e-20,9.805725789576,1.5707963267948966,0.0005683400466270783,-6.30063859969953e-20,0.0,-7.289999999989351e-05,0.0,104.1545054828,329.5695119544,0.9329902742254,72384.0670542466,270.27433816666667,-47.31176786540258,3.055928249683963e-18,21.939311915240047,0.0,0.0,0.0,0.750884714,247.4684945142508
