time,gePosition_m_X,gePosition_m_Y,gePosition_m_Z,feVelocity_m_s_X,feVelocity_m_s_Y,feVelocity_m_s_Z,altitudeMsl_m,longitude_rad,latitude_rad,localGravity_m_s2,eulerAngle_rad_Yaw,eulerAngle_rad_Pitch,eulerAngle_rad_Roll,bodyAngularRateWrtEi_rad_s_Roll,bodyAngularRateWrtEi_rad_s_Pitch,bodyAngularRateWrtEi_rad_s_Yaw,altitudeRateWrtMsl_m_s,speedOfSound_m_s,airDensity_kg_m3,ambientPressure_Pa,ambientTemperature_K,aero_bodyForce_N_X,aero_bodyForce_N_Y,aero_bodyForce_N_Z,aero_bodyMoment_Nm_L,aero_bodyMoment_Nm_M,aero_bodyMoment_Nm_N,mach,dynamicPressure_Pa,trueAirspeed_m_s
0.0,6378136.999951441,0.0,0.0,0.0,304.7999994885456,-304.7999994885456,0.0,0.0,0.0,9.81419749258176,1.570796326787743,-0.0,0.0,0.0,-7.292114769189451e-05,0.0,304.7999994885456,340.29396,1.2250039125042,101324.9999991008,288.15,-146.79529200518934,0.0,146.79529200518934,0.0,0.0,0.0,1.26670568319,113806.58718747753,431.0519199483247
0.1,6378167.38153152,30.42965320329984,0.0,0.0,303.79346988708,-302.82871236300485,30.38164437448152,4.77090853576022e-06,0.0,9.8141069571672,1.570796326787743,4.770908913263145e-06,-2.0752307207970185e-20,0.0,-7.292114769189451e-05,0.0,302.8287123630048,340.17668823962407,1.2215605370755225,100977.13852593988,287.9525530688889,-145.1874448358724,0.0,144.7249918192507,0.0,0.0,0.0,1.2609541335,112380.94398239009,428.9468298360586
0.2,6378197.566210801,60.759345945530406,0.0,0.0,302.797908351156,-300.871463403444,60.5665332133512,9.52609970340619e-06,0.0,9.81401389590552,1.570796326787743,9.526100458396311e-06,-4.065758147004158e-20,0.0,-7.292114769189451e-05,0.0,300.871463403444,340.060175943312,1.2181394614028458,100631.52984960734,287.75638483,-143.6051711460654,0.0,142.68881524465164,0.0,0.0,0.0,1.25525101173,110978.7241025989,426.8605103922382
0.3,6378227.55569616,90.99016535636402,0.0,0.0,301.8131546135808,-298.9280393428272,90.5563903693056,1.4265744606273678e-05,0.0,9.813921437263922,1.570796326787743,1.4265745738779503e-05,-6.268043810310995e-20,0.0,-7.292114769189451e-05,0.0,298.9280393428272,339.944416463376,1.214740490111214,100288.154232424,287.5614840805556,-142.04794733916046,0.0,140.68605756031744,0.0,0.0,0.0,1.24959566985,109599.44636203487,424.7927030825168
0.4,6378257.35138968,121.12318137133921,0.0,0.0,300.83903819300883,-296.99821379308804,120.35258697389762,1.8990011641635253e-05,0.0,9.8138295769752,1.570796326787743,1.8990013151671432e-05,-8.47032947405783e-20,0.0,-7.292114769189451e-05,0.0,296.998213793088,339.82940450239204,1.2113634677881446,99946.9959754106,287.36784191000004,-140.51525400121272,0.0,138.7160209803956,0.0,0.0,0.0,1.24398740468,108242.63402222616,422.7431329941941
0.5,6378286.954632481,151.1594470875624,0.0,0.0,299.8753921349352,-295.08176508172085,149.95647175188722,2.3699066557248968e-05,0.0,9.8137383108636,1.570796326787743,2.3699068444764963e-05,-9.994988780395641e-20,0.0,-7.292114769189451e-05,0.0,295.0817650817208,339.715134857424,1.2080082415825877,99608.03963574713,287.17544955166665,-139.00658530314598,0.0,136.77802588823965,0.0,0.0,0.0,1.23842552828,106907.82278542864,420.7115311646292
0.6,6378316.366765681,181.0999991112408,0.0,0.0,298.9220529178176,-293.17847612803206,179.3693714955408,2.839307250525412e-05,0.0,9.81364763481432,1.570796326787743,2.8393074770159164e-05,-1.2197274445382476e-19,0.0,-7.292114769189451e-05,0.0,293.17847612803206,339.60160240783205,1.2046746611173118,99271.2700219851,286.98429838444446,-137.52144857550292,0.0,134.8714102657024,0.0,0.0,0.0,1.23290936764,105594.56040583813,418.69763442742163
0.7,6378345.589069441,210.9458578960104,0.0,0.0,297.9788603649888,-291.2881343245728,208.5925915117728,3.3072190095909924e-05,0.0,9.813557544804,1.570796326787743,3.307219273845186e-05,-1.4230153521679554e-19,0.0,-7.292114769189451e-05,0.0,291.2881343245728,339.488802112224,1.201362578452827,98936.6721892592,286.79437992444446,-136.059363898319,0.0,132.99552914466997,0.0,0.0,0.0,1.22743826421,104302.40631516687,416.7011852637372
0.8,6378374.622823921,240.6980280727296,0.0,0.0,297.04565755748405,-289.41053142405843,237.6274160653248,3.7736577449763434e-05,0.0,9.8134680367788,1.570796326787743,3.773658046974504e-05,-1.6263032598876633e-19,0.0,-7.292114769189451e-05,0.0,289.41053142405843,339.37672901150404,1.1980718480306942,98604.23143258435,286.60568582611114,-134.61986370523073,0.0,131.1497540808374,0.0,0.0,0.0,1.2220115736,103030.93125923224,414.7219316592926
0.9,6378403.469339761,270.3574987686048,0.0,0.0,296.1222907520496,-287.545463425068,266.475108812496,4.238639024739139e-05,0.0,9.81337910686776,1.570796326787743,4.2386393644938325e-05,-1.79570984978742e-19,0.0,-7.292114769189451e-05,0.0,287.545463425068,339.265378234968,1.1948023266374472,98273.93328398267,286.41820787611107,-133.2024924044873,0.0,129.33347263993895,0.0,0.0,0.0,1.21662866521,101779.71695034616,412.75962696751304
1.0,6378432.12980568,299.9252439226584,0.0,0.0,295.208609297628,-285.6927304668888,295.13691321384243,4.7021781779142144e-05,0.0,9.813290751199922,1.570796326787743,4.702178555413224e-05,-2.0328790756570791e-19,0.0,-7.292114769189451e-05,0.0,285.69273046688886,339.15474497592004,1.191553873337594,97945.76350530155,286.2319379938889,-131.80680601019273,0.0,127.54608791111265,0.0,0.0,0.0,1.21128892188,100548.35573119564,410.8140297711471
1.1,6378460.60550184,329.402222587176,0.0,0.0,294.3044655591576,-283.852136722836,323.6140529484,5.164290299313217e-05,0.0,9.81320296599576,1.570796326787743,5.164290714552528e-05,-2.2700483016667386e-19,0.0,-7.292114769189451e-05,0.0,283.852136722836,339.044824516056,1.1883263494426957,97619.70808677722,286.0468682272222,-130.43237179000715,0.0,125.78701803005103,0.0,0.0,0.0,1.20599173956,99336.45025069347,408.88490375622786
1.2,6378488.897586481,358.789379231592,0.0,0.0,293.409714839544,-282.0234903002784,351.907732308096,5.6249902541497325e-05,0.0,9.81311574750624,1.570796326787743,5.62499070715186e-05,-2.371692256056592e-19,0.0,-7.292114769189451e-05,0.0,282.0234903002784,338.935612204128,1.185119618459825,97295.75323889508,285.86299074833335,-129.07876792174363,0.0,124.05569572305824,0.0,0.0,0.0,1.20073652701,98143.61315036242,406.97201758191846
1.3,6378517.007278801,388.08764401924805,0.0,0.0,292.52421530650804,-280.206603140664,380.01913659216,6.0842926826993135e-05,0.0,9.813029092043282,1.570796326787743,6.084293173441219e-05,-2.5410988464663493e-19,0.0,-7.292114769189451e-05,0.0,280.206603140664,338.82710346508804,1.1819335460606473,96973.88539047453,285.6802978555556,-127.74558316597941,0.0,122.35156786667629,0.0,0.0,0.0,1.19552270544,96969.4667650838,405.07514476064694
1.4,6378544.93573704,417.297933099696,0.0,0.0,291.6478279215672,-278.4012909259464,407.949432474408,6.542212004610439e-05,0.0,9.812942996010241,1.570796326787743,6.5422125331005e-05,-2.7105054370061057e-19,0.0,-7.292114769189451e-05,0.0,278.4012909259464,338.71929379704,1.178768000004112,96654.09118340212,285.49878196611115,-126.43241654711824,0.0,120.67409506243499,0.0,0.0,0.0,1.19034970828,95813.64282959123,403.19406353669694
1.5,6378572.68408896,446.421148891248,0.0,0.0,290.78041636840805,-276.6073729840968,435.69976839247204,6.998762423355107e-05,0.0,9.81285745581048,1.570796326787743,6.998762989589835e-05,-2.9137933456858136e-19,0.0,-7.292114769189451e-05,0.0,276.60737298409686,338.612178768192,1.1756228501364518,96336.35746832233,285.3184356161111,-125.13887704690796,0.0,119.02275122494652,0.0,0.0,0.0,1.18521698081,94675.78219885017,401.3285567730306
1.6,6378600.25352328,475.458180324816,0.0,0.0,289.92184698796325,-274.8246722010168,463.271274880032,7.453957930365271e-05,0.0,9.81277246796928,1.570796326787743,7.453958534359148e-05,-3.184843890515424e-19,0.0,-7.292114769189451e-05,0.0,274.8246722010168,338.50575401076003,1.1724979683241854,96020.67130128594,285.1392514588889,-123.86458330952341,0.0,117.3970231891277,0.0,0.0,0.0,1.18012397992,93555.53457705547,399.4784118391393
1.7,6378627.64507632,504.409903127376,0.0,0.0,289.071988711356,-273.0530149324512,490.66506494476806,7.907812309239068e-05,0.0,9.812688029011921,1.570796326787743,7.907812950978483e-05,-3.2526065276253266e-19,0.0,-7.292114769189451e-05,0.0,273.0530149324512,338.400015230112,1.1693932284231934,95707.01993848324,284.9612222611111,-122.60916335376649,0.0,115.79641032364928,0.0,0.0,0.0,1.17507017383,92452.55825668407,397.643420500953
1.8,6378654.85990632,533.277180078,0.0,0.0,288.2307129965016,-271.2922309195584,517.882234397544,8.360339139667824e-05,0.0,9.81260413552464,1.570796326787743,8.360339819157838e-05,-3.59141970890484e-19,0.0,-7.292114769189451e-05,0.0,271.29223091955845,338.294958195624,1.1663085062374876,95395.39083289233,284.78434090111114,-121.37225429994533,0.0,114.22042416573714,0.0,0.0,0.0,1.17005504182,91366.51986425082,395.8233788174369
1.9,6378681.899049601,562.060861236456,0.0,0.0,287.3978937668424,-269.5421532066144,544.923862187688,8.811551801432851e-05,0.0,9.812520784215602,1.570796326787743,8.811552518667181e-05,-3.7947076184245484e-19,0.0,-7.292114769189451e-05,0.0,269.54215320661444,338.190578746776,1.1632436794831365,95085.7716314064,284.6086003666667,-120.15350210164652,0.0,112.66858806131106,0.0,0.0,0.0,1.16507807396,90297.09411803428,394.0180870366733
2.0,6378708.76360344,590.7617842114321,0.0,0.0,286.5734073513024,-267.8026180620696,571.7910107291281,9.26146347817536e-05,0.0,9.81243797176248,1.570796326787743,9.261464233166573e-05,-3.8624702560344503e-19,0.0,-7.292114769189451e-05,0.0,267.80261806206966,338.086872777912,1.1601986277418788,94778.15016908807,284.4339937538889,-118.95256128773836,0.0,111.1404368233613,0.0,0.0,0.0,1.16013877086,89243.9635920271,392.2273494986325
2.1,6378735.45460416,619.380774370848,0.0,0.0,285.7571324263752,-266.07346490052004,598.484726220432,9.710087161201279e-05,0.0,9.81235569487344,1.570796326787743,9.710087953945884e-05,-3.8624702576844503e-19,0.0,-7.292114769189451e-05,0.0,266.07346490052004,337.98383625348004,1.157173232445664,94472.51446725415,284.2605142627778,-117.76909471638405,0.0,109.63551639655273,0.0,0.0,0.0,1.15523664344,88206.8184865896,390.4509745369135
2.2,6378761.97308808,647.9186451039841,0.0,0.0,284.9489499594312,-264.35453620772637,625.006038964848,0.00010157435653024272,0.0,9.81227395040904,1.570796326787743,0.00010157436483485265,-4.065758167784158e-19,0.0,-7.292114769189451e-05,0.0,264.3545362077264,337.88146519584,1.154167376825113,94168.85272964521,284.0881551977778,-116.60277333261372,0.0,108.15338353917696,0.0,0.0,0.0,1.15037121266,87185.35641155223,388.68877438614396
2.3,6378788.320061041,676.376198022648,0.0,0.0,284.148743153244,-262.645677468072,651.355963653768,0.00010603521571013469,0.0,9.81219273519936,1.570796326787743,0.00010603522439284752,-4.1335208058340607e-19,0.0,-7.292114769189451e-05,0.0,262.645677468072,337.77975568831204,1.151180945868289,93867.15333811642,283.916909965,-115.45327593746168,0.0,106.69360550821827,0.0,0.0,0.0,1.14554200934,86179.28217171185,386.9405650909239
2.4,6378814.49652888,704.754223186728,0.0,0.0,283.3563973944792,-260.9467370929344,677.5354996806719,0.00011048357350796873,0.0,9.81211204616592,1.570796326787743,0.00011048358256784023,-4.540096624983477e-19,0.0,-7.292114769189451e-05,0.0,260.9467370929344,337.67870387517604,1.148213826320697,93567.4048502435,283.7467720694445,-114.32028896288644,0.0,105.25575976354685,0.0,0.0,0.0,1.14074857387,85188.30756190442,385.2061664188847
2.5,6378840.50346696,733.05349933584,0.0,0.0,282.5718001997448,-259.25756635241044,703.545631418496,0.00011491955249699648,0.0,9.81203188019976,1.570796326787743,0.00011491956193483475,-4.675621899713283e-19,0.0,-7.292114769189451e-05,0.0,259.25756635241044,337.578305952528,1.1452659066028221,93269.59599453467,283.57773511333335,-113.20350625558709,0.0,103.8394336734465,0.0,0.0,0.0,1.13599045606,84212.15116830177,383.4854017722044
2.6,6378866.34185064,761.2747940722081,0.0,0.0,281.7948411677376,-257.57801930826,729.387328509192,0.00011934327350025342,0.0,9.81195223434432,1.570796326787743,0.00011934328331482798,-4.946672447182892e-19,0.0,-7.292114769189451e-05,0.0,257.57801930826,337.478558180472,1.1423370768255936,92973.7156694731,283.40979279500004,-112.10262886749211,0.0,102.44422423749056,0.0,0.0,0.0,1.13126721488,83250.53817641188,381.77809810786914
2.7,6378892.01265528,789.418864089264,0.0,0.0,281.0254119280368,-255.9079527486792,755.061546141096,0.0001237548556228474,0.0,9.81187310561256,1.570796326787743,0.00012375486581482148,-5.149960358732599e-19,0.0,-7.292114769189451e-05,0.0,255.9079527486792,337.37945687092804,1.1394272287285365,92679.7529377712,283.24293890722225,-111.01736485069637,0.0,101.0697378134209,0.0,0.0,0.0,1.12657841825,82303.20018578219,380.0840858533043
2.8,6378917.51679528,817.4864553606241,0.0,0.0,280.26340609507923,-254.2472261261208,780.569225311056,0.00012815441628354917,0.0,9.81179449110888,1.570796326787743,0.00012815442685381464,-5.285485634262406e-19,0.0,-7.292114769189451e-05,0.0,254.2472261261208,337.28099839372805,1.1365362556591583,92387.69702589193,283.0771673344444,-109.94742906574267,0.0,99.71558985381337,0.0,0.0,0.0,1.12192364289,81369.87503092743,378.4031988312658
2.9,6378942.855215521,845.478303341256,0.0,0.0,279.5087192215248,-252.59570149450562,805.9112930957041,0.00013254207124585926,0.0,9.81171638793768,1.570796326787743,0.00013254208219280866,-5.556536182792017e-19,0.0,-7.292114769189451e-05,0.0,252.59570149450562,337.183179167472,1.133664052552333,92097.53731878188,282.91247205166667,-108.89254298723458,0.0,98.38140465475318,0.0,0.0,0.0,1.11730247408,80450.3066051304,376.73527418061536
3.0,6378968.028830401,873.395133147312,0.0,0.0,278.76124875375604,-250.9532434497864,831.088662901392,0.0001369179346475039,0.0,9.811638793233842,1.570796326787743,0.00013691794597280233,-5.827586731721627e-19,0.0,-7.292114769189451e-05,0.0,250.9532434497864,337.085995668672,1.13081051587361,91809.26335843484,282.7488471227778,-107.85243452412826,0.0,97.06681510717934,0.0,0.0,0.0,1.11271450547,79544.24469621251,375.08015228326974
3.1,6378993.038523841,901.2376597572961,0.0,0.0,278.02089398768163,-249.31971907356004,856.102234720224,0.00014128211903028046,0.0,9.81156170425416,1.570796326787743,0.00014128213073279686,-6.098637281091237e-19,0.0,-7.292114769189451e-05,0.0,249.31971907356,336.989444422608,1.1279755436295216,91522.86483958269,282.5862866988889,-106.8268378400242,0.0,95.77146246112895,0.0,0.0,0.0,1.10815933893,78651.44482086814,373.4376766916641
3.2,6379017.88521024,929.0065881918961,0.0,0.0,277.28755602667445,-247.69499787363122,880.9528953708481,0.00014563473536885485,0.0,9.81148511825544,1.570796326787743,0.00014563474744879,-6.098637284901236e-19,0.0,-7.292114769189451e-05,0.0,247.6949978736312,336.89352200637603,1.12515903531089,91238.33160921652,282.42478501666665,-105.81549318057638,0.0,94.49499609487447,0.0,0.0,0.0,1.10363658435,77771.66806809629,371.807694060331
3.3,6379042.569743041,956.7026136846721,0.0,0.0,276.5611377398136,-246.07895173280642,905.6415187483921,0.00014997589309868743,0.0,9.811409032464,1.570796326787743,0.00014997590555578297,-6.505213108060654e-19,0.0,-7.292114769189451e-05,0.0,246.07895173280642,336.79822504584,1.1223608918670605,90955.65366084101,282.2643363966667,-104.81814671024244,0.0,93.23707329206778,0.0,0.0,0.0,1.09914585945,76904.68094742,370.19005407439244
3.4,6379067.09297568,984.326421855792,0.0,0.0,275.8415437231752,-244.4714548515912,930.168966046968,0.00015430570014325965,0.0,9.81133344425856,1.570796326787743,0.0001543057129777774,-6.505213112350654e-19,0.0,-7.292114769189451e-05,0.0,244.47145485159123,336.70355021868005,1.119581015690439,90674.82113447442,282.1049352416667,-103.83455034858913,0.0,91.99735902778075,0.0,0.0,0.0,1.09468678965,76050.25524189406,368.5846093857691
3.5,6379091.455792081,1011.878688894912,0.0,0.0,275.12868025868397,-242.87238369972724,954.536085994368,0.00015862426294112686,0.0,9.81125835098736,1.570796326787743,0.00015862427615377195,-6.911788936540068e-19,0.0,-7.292114769189451e-05,0.0,242.87238369972724,336.609494245248,1.1168193105958764,90395.82431186059,281.94657603666667,-102.86446161504941,0.0,90.77552575588031,0.0,0.0,0.0,1.09025900786,75208.16786302782,366.99121554784585
3.6,6379115.65898472,1039.360081716624,0.0,0.0,274.4224552775376,-241.28161696346163,978.743715083712,0.00016293168647174918,0.0,9.811183750059602,1.570796326787743,0.00016293170006176588,-6.911788941330068e-19,0.0,-7.292114769189451e-05,0.0,241.2816169634616,336.51605390076,1.1140756817794393,90118.6536159901,281.789253345,-101.90764347768291,0.0,89.57125321197212,0.0,0.0,0.0,1.08586215437,74378.20071528401,365.4097309521948
3.7,6379139.70343752,1066.771258125048,0.0,0.0,273.7227777109824,-239.6990349609408,1002.792677780712,0.00016722807428184598,0.0,9.81110963891496,1.570796326787743,0.00016722808824875954,-7.318364766599486e-19,0.0,-7.292114769189451e-05,0.0,239.69903496094082,336.423113864136,1.1113730251821912,89846.30189773224,281.6329664627778,-100.96595229591304,0.0,88.38605613428368,0.0,0.0,0.0,1.08149623471,73561.66189739284,363.8400159555646
3.8,6379163.589912481,1094.1128643601921,0.0,0.0,273.02948831839205,-238.1244592079904,1026.68378446932,0.00017151352809967798,0.0,9.8110360150236,1.570796326787743,0.00017151354244475205,-7.453890045459291e-19,0.0,-7.292114769189451e-05,0.0,238.12445920799038,336.32993594025606,1.1088619423955097,89598.43962768439,281.4777406338889,-100.05266441835322,0.0,87.23137853951884,0.0,0.0,0.0,1.07716297575,72768.15551658803,362.28184102281676
3.9,6379187.319232561,1121.385529925496,0.0,0.0,272.3424510458856,-236.55773281185841,1050.417827001648,0.0001757881470257383,0.0,9.8109628759776,1.570796326787743,0.00017578816174774586,-7.589415324649094e-19,0.0,-7.292114769189451e-05,0.0,236.55773281185841,336.237370588176,1.1063673678881298,89352.20684590189,281.323535285,-99.15152483953253,0.0,86.09283240220404,0.0,0.0,0.0,1.07285909375,71985.77713280755,360.73500842174104
4.0,6379210.892129281,1148.589874424496,0.0,0.0,271.661583059796,-234.99874629813843,1073.9955848183522,0.00018005202860263907,0.0,9.81089021930808,1.570796326787743,0.00018005204370274082,-7.860465877918707e-19,0.0,-7.292114769189451e-05,0.0,234.9987462981384,336.145414759896,1.1038892197354353,89107.5954658878,281.17034535333335,-98.26232771577158,0.0,84.97013812759035,0.0,0.0,0.0,1.06858427038,71214.33678639073,359.1993918321566
4.1,6379234.3094256,1175.726509255512,0.0,0.0,270.9868029273168,-233.4473920858416,1097.4178265214,0.00018430526908336866,0.0,9.810818042637601,1.570796326787743,0.00018430528455973375,-8.131516431738316e-19,0.0,-7.292114769189451e-05,0.0,233.4473920858416,336.05406546228,1.1014274171621032,88864.59751366382,281.01816584388894,-97.38487166184356,0.0,83.86302209755942,0.0,0.0,0.0,1.0643381936,70453.64861335425,357.6748673656593
4.2,6379257.571883521,1202.796037757952,0.0,0.0,270.31803058510803,-231.90356444746803,1120.6853100325682,0.00018854796345049035,0.0,9.8107463436192,1.570796326787743,0.000188547979305728,-8.402566986107928e-19,0.0,-7.292114769189451e-05,0.0,231.903564447468,335.963319738768,1.098981880495723,88623.20512585498,280.8669918327778,-96.5189596353204,0.0,82.77121651582536,0.0,0.0,0.0,1.06012055752,69703.53073718275,356.16131351674966
4.3,6379280.68020408,1229.7990553464242,0.0,0.0,269.6551873106448,-230.367159468468,1143.798782797656,0.0001927802054438929,0.0,9.81067511996688,1.570796326787743,0.00019278022167572198,-8.673617541047536e-19,0.0,-7.292114769189451e-05,0.0,230.367159468468,335.873174672424,1.0965525311822546,88383.41054873215,280.7168184638889,-95.66439882581209,0.0,81.69445925625033,0.0,0.0,0.0,1.05593106228,68963.8051687591,354.6586111144751
4.4,6379303.635149281,1256.7361496509443,0.0,0.0,268.99819569387125,-228.838075009752,1166.7589819632722,0.0001970020875747533,0.0,9.81060436933368,1.570796326787743,0.00019700210418371663,-8.80914282237734e-19,0.0,-7.292114769189451e-05,0.0,228.838075009752,335.783627392032,1.0941392917396464,88145.20613390276,280.5676409477778,-94.82100054554036,0.0,80.63249371961193,0.0,0.0,0.0,1.05176941394,68234.29770629467,353.1666432740722
4.5,6379326.43745064,1283.607900626664,0.0,0.0,268.3469796079392,-227.31621067050483,1189.5666345444722,0.00020121370114648075,0.0,9.81053408949456,1.570796326787743,0.00020121371813470936,-8.809142829757342e-19,0.0,-7.292114769189451e-05,0.0,227.31621067050483,335.694675059904,1.0917420857578355,87908.58433878962,280.41945456055555,-93.9885801248056,0.0,79.5850686890358,0.0,0.0,0.0,1.04763532435,67514.83783813239,351.68529535221
4.6,6379349.0878092,1310.414880706272,0.0,0.0,267.7014641836056,-225.8014677513048,1212.2224576045921,0.0002054151362843871,0.0,9.81046427822448,1.570796326787743,0.0002054151536487045,-8.944668111707147e-19,0.0,-7.292114769189451e-05,0.0,225.80146775130478,335.606314877976,1.0893608378729767,87673.53772471569,280.2722546433333,-93.16695681012243,0.0,78.55193819654917,0.0,0.0,0.0,1.04352851104,66805.25864938018,350.2144548991467
4.7,6379371.586986961,1337.1576549036242,0.0,0.0,267.0615757805808,-224.29374921815761,1234.727158422888,0.0002096064819374324,0.0,9.81039493332888,1.570796326787743,0.00020960649967969737,-9.21571866855676e-19,0.0,-7.292114769189451e-05,0.0,224.29374921815761,335.518544090856,1.0869954737365222,87440.05895355249,280.12603660111114,-92.35595366546936,0.0,77.5328613869652,0.0,0.0,0.0,1.03944869713,66105.39673189622,348.75401161860316
4.8,6379393.93559352,1363.8367809387119,0.0,0.0,266.4272419637544,-222.7929596698824,1257.0814346499842,0.000213787825916622,0.0,9.81032605264368,1.570796326787743,0.00021378784403669137,-9.080193402056954e-19,0.0,-7.292114769189451e-05,0.0,222.7929596698824,335.43135997668,1.084645920030681,87208.14078724127,279.9807959011111,-91.55539747576219,0.0,76.52760239021895,0.0,0.0,0.0,1.03539561116,65415.092095231535,347.30385732043396
4.9,6379416.13439088,1390.452809371776,0.0,0.0,265.7983914763728,-221.29900530184082,1279.28597447856,0.00021795925490024245,0.0,9.81025763403528,1.570796326787743,0.0002179592733976852,-9.080193410236954e-19,0.0,-7.292114769189451e-05,0.0,221.29900530184082,335.344759847112,1.0823121044168824,86977.77608587778,279.8365280711111,-90.76511865433113,0.0,75.5359301954828,0.0,0.0,0.0,1.03136898706,64734.188082360786,345.86388588255863
5.0,6379438.184049601,1417.006283694744,0.0,0.0,265.17495421596,-219.8117938757616,1301.3414568079443,0.00022212085445655108,0.0,9.81018967540056,1.570796326787743,0.00022212087333167956,-9.21571869345676e-19,0.0,-7.292114769189451e-05,0.0,219.81179387576162,335.258741062584,1.0799939555409288,86748.95780675476,279.69322870166667,-89.98495115173223,0.0,74.5576185288404,0.0,0.0,0.0,1.02736856399,64062.53128445537,344.4339932092915
5.1,6379460.0851792805,1443.4977404714402,0.0,0.0,264.5568612105432,-218.3312346846888,1323.2485513782242,0.00022627270906297432,0.0,9.810122174636401,1.570796326787743,0.00022627272831567336,-9.215718702036758e-19,0.0,-7.292114769189451e-05,0.0,218.3312346846888,335.17330100181607,1.0776914030123816,86521.6790010102,279.55089344,-89.21473236900702,0.0,73.59244573718786,0.0,0.0,0.0,1.02339408626,63399.971462359885,343.01407718967187
5.2,6379481.838541921,1469.927709429024,0.0,0.0,263.9440445942688,-216.85723852463522,1345.0079189439841,0.00023041490212181577,0.0,9.810055129700642,1.570796326787743,0.00023041492175266833,-9.351243985906566e-19,0.0,-7.292114769189451e-05,0.0,216.85723852463522,335.08843709534403,1.0754043773839448,86295.93281410626,279.40951799333334,-88.45430307138706,0.0,72.64019467169067,0.0,0.0,0.0,1.01944530325,62746.361468068404,341.6040376609385
5.3,6379503.44468616,1496.296713576864,0.0,0.0,263.3364375860664,-215.38971766257842,1366.620211408416,0.0002345475159794549,0.0,9.809988538581601,1.570796326787743,0.0002345475359876616,-9.486769270176369e-19,0.0,-7.292114769189451e-05,0.0,215.38971766257845,335.004146798088,1.0731328101256972,86071.71248199871,279.2690981266667,-87.70350730555697,0.0,71.70065257613302,0.0,0.0,0.0,1.01552196926,62101.557166679726,340.20377637097516
5.4,6379524.90431304,1522.6052693071201,0.0,0.0,262.73397446556964,-213.92858580689523,1388.086071969624,0.00023867063194030956,0.0,9.8099223992676,1.570796326787743,0.00023867065232565575,-9.757819830275979e-19,0.0,-7.292114769189451e-05,0.0,213.92858580689523,334.920427601544,1.0708766336457067,85849.01133209468,279.12962966000003,-86.96219232092095,0.0,70.77361097971591,0.0,0.0,0.0,1.01162384349,61465.41736553455,338.81319693972745
5.5,6379546.21806264,1548.853886513616,0.0,0.0,262.136590553304,-212.4737580787104,1409.4061352791202,0.00024278433028603473,0.0,9.80985670980792,1.570796326787743,0.00024278435104764946,-9.75781983993598e-19,0.0,-7.292114769189451e-05,0.0,212.4737580787104,334.837277027688,1.0686357812384928,85627.82278037978,278.9911084711111,-86.23020848908996,0.0,69.8588655911893,0.0,0.0,0.0,1.00775068988,60837.803740001094,337.4322048242202
5.6,6379567.38654456,1575.043068674136,0.0,0.0,261.5442221875224,-211.0251509832456,1430.5810275606962,0.0002468886902877397,0.0,9.80979146828232,1.570796326787743,0.00024688871142864414,-9.75781984974598e-19,0.0,-7.292114769189451e-05,0.0,211.02515098324562,334.75469263812,1.0664101870747191,85408.14032950281,278.85353049055556,-85.50740922915159,0.0,68.9562161978776,0.0,0.0,0.0,1.00390227705,60218.580765485094,336.0607072835759
5.7,6379588.410398881,1601.173312969296,0.0,0.0,260.9568067050024,-209.5826823829968,1451.611366756728,0.00025098379023042263,0.0,9.809726672709601,1.570796326787743,0.0002509838117476393,-9.75781985969598e-19,0.0,-7.292114769189451e-05,0.0,209.58268238299684,334.672672021872,1.064199786211501,85189.95756877595,278.7168917033333,-84.79365093471918,0.0,68.06546656470493,0.0,0.0,0.0,1.00007837824,59607.615649439926,334.6986133445463
5.8,6379609.29017424,1627.245110370936,0.0,0.0,260.3742824197104,-208.14627146969283,1472.4977626653363,0.00025506970741646153,0.0,9.809662321230482,1.570796326787743,0.00025506972931163275,-1.002887042168559e-18,0.0,-7.292114769189451e-05,0.0,208.14627146969283,334.59121279845607,1.062004514561482,84973.26817130177,278.5811881477778,-84.08879290053628,0.0,67.18642433855848,0.0,0.0,0.0,0.996278771164,59004.77826433411,333.3458337696176
5.9,6379630.0265412005,1653.258945742704,0.0,0.0,259.7965886045136,-206.7158387389968,1493.240817071448,0.0002591465181917939,0.0,9.80959841198568,1.570796326787743,0.0002591465404646264,-1.02999209844852e-18,0.0,-7.292114769189451e-05,0.0,206.71583873899684,334.51031262396003,1.0598243088619126,84758.06589445205,278.44641591333334,-83.39269725486353,0.0,66.31890095487576,0.0,0.0,0.0,0.992503237981,58409.94108540709,332.00228102048425
6.0,6379650.62007888,1679.2152979314963,0.0,0.0,259.223665469844,-205.29130596459842,1513.841123871768,0.000263214297952898,0.0,9.809534943146401,1.570796326787743,0.0002632143206026204,-1.0570971547884811e-18,0.0,-7.292114769189451e-05,0.0,205.29130596459842,334.429969181904,1.0576591067004177,84544.34457651633,278.3125711422222,-82.70522888964172,0.0,65.46271154601123,0.0,0.0,0.0,0.988751565188,57822.979127946026,330.66786923129814
6.1,6379671.0713664,1705.114639858896,0.0,0.0,258.6554541472392,-203.87259617291522,1534.299269199744,0.00026727312116599174,0.0,9.80947191282288,1.570796326787743,0.00026727314419361457,-1.0299921006485201e-18,0.0,-7.292114769189451e-05,0.0,203.87259617291522,334.35018018324007,1.0555088464686138,84332.09813670171,278.1796500261111,-82.02625539777179,0.0,64.61767485227195,0.0,0.0,0.0,0.985023543547,57243.7698864779,329.34251417420097
6.2,6379691.380952401,1730.9574386278562,0.0,0.0,258.0918966692256,-202.45963361931842,1554.6158315566322,0.00027132306138099514,0.0,9.80940931930824,1.570796326787743,0.0002713230847866092,-1.02999210176852e-18,0.0,-7.292114769189451e-05,0.0,202.45963361931845,334.270943372448,1.0533734673621074,84121.32057273888,278.0476488055556,-81.35564700505704,0.0,63.78361313740132,0.0,0.0,0.0,0.981318968005,56672.19327587681,328.0261332300007
6.3,6379711.549476961,1756.744155580608,0.0,0.0,257.5329359522496,-201.05234376344401,1574.7913819273201,0.0002753641912420024,0.0,9.809347160773681,1.570796326787743,0.000275364215024604,-1.0570971582484811e-18,0.0,-7.292114769189451e-05,0.0,201.05234376344404,334.192256527536,1.0512529093701892,83912.00596088223,277.9165637711111,-80.69327651237626,0.0,62.960352102728365,0.0,0.0,0.0,0.977637637624,56108.131576780375,326.7186453593631
6.4,6379731.57742776,1782.475246420584,0.0,0.0,256.9785157789992,-199.6506532466376,1594.8264839083442,0.0002793965825064801,0.0,9.80928543548184,1.570796326787743,0.00027939660666559813,-1.0570971594284812e-18,0.0,-7.292114769189451e-05,0.0,199.6506532466376,334.1141174448,1.049147113250064,83704.14845447334,277.78639126166667,-80.03901923162937,0.0,62.14772080709983,0.0,0.0,0.0,0.973979355501,55551.46937573956,325.4199710719445
6.5,6379751.4654144,1808.151161276424,0.0,0.0,256.4285807810304,-198.2544898690944,1614.7216938115203,0.0002834203060522495,0.0,9.80922414172584,1.570796326787743,0.0002834203305885926,-1.1113072714284032e-18,0.0,-7.292114769189451e-05,0.0,198.25448986909439,334.036523954064,1.0470560205320052,83497.74228202578,277.65712766166666,-79.39275292924493,0.0,61.34555158770176,0.0,0.0,0.0,0.970343928699,55002.09351542312,324.13003240015547
6.6,6379771.21395504,1833.7723447873202,0.0,0.0,255.88307642261282,-196.8637825676088,1634.4775607858642,0.00028743543189668405,0.0,9.809163277768322,1.570796326787743,0.00028743545681058545,-1.111307272708403e-18,0.0,-7.292114769189451e-05,0.0,196.8637825676088,333.95947391868,1.0449795735038923,83292.78174578874,277.52876940388893,-78.75435776879822,0.0,60.55367998177084,0.0,0.0,0.0,0.966731168178,54459.893040034076,322.8487528718956
6.7,6379790.823628801,1859.339236197504,0.0,0.0,255.3419489845752,-195.47846139393363,1654.0946269334163,0.0002914420292071821,0.0,9.80910284196336,1.570796326787743,0.00029144205449858066,-1.1655173849183251e-18,0.0,-7.292114769189451e-05,0.0,195.47846139393366,333.882965220288,1.0429177151802895,83089.26122174699,277.4013129655556,-78.12371625362894,0.0,59.771944652753916,0.0,0.0,0.0,0.963140888722,53924.75914455672,321.57605748020075
6.8,6379810.294953841,1884.852269417208,0.0,0.0,254.8051455472368,-194.09845749313922,1673.5734274159202,0.0002954401663116383,0.0,9.80904283260408,1.570796326787743,0.0002954401919815744,-1.1384123307883643e-18,0.0,-7.292114769189451e-05,0.0,194.09845749313922,333.806995774056,1.0408703893179068,82887.1751581845,277.27475487,-77.50071317524215,0.0,59.00018731824677,0.0,0.0,0.0,0.959572908878,53396.585124482306,320.31187266112227
6.9,6379829.628448321,1910.3118731293441,0.0,0.0,254.27261397608163,-192.72370308441123,1692.9144905615042,0.00029942991071764305,0.0,9.808983248105521,1.570796326787743,0.0002994299367645685,-1.1926224431982861e-18,0.0,-7.292114769189451e-05,0.0,192.72370308441123,333.731563519536,1.0388375403846764,82686.51807329044,277.149091685,-76.88523555903971,0.0,58.23825267570887,0.0,0.0,0.0,0.956027050882,52875.26632936519,319.05612626594683
7.0,6379848.8246304,1935.718470832176,0.0,0.0,253.7443029059088,-191.3541314388,1712.1183379744082,0.00030341132911422693,0.0,9.808924086791281,1.570796326787743,0.0003034113555395625,-1.1926224446282864e-18,0.0,-7.292114769189451e-05,0.0,191.3541314388,333.656666417616,1.0368191135545992,82487.28455611672,277.0243200205556,-76.27717261272103,0.0,57.48598833707449,0.0,0.0,0.0,0.952503140603,52360.700114463776,317.808747535989
7.1,6379867.88404872,1961.072480952096,0.0,0.0,253.22016172681202,-189.98967686123763,1731.185484635568,0.0003073844873962959,0.0,9.808865347106881,1.570796326787743,0.00030738451419855793,-1.2197275016682475e-18,0.0,-7.292114769189451e-05,0.0,189.98967686123763,333.58230246576,1.0348150547025918,82289.46926370526,276.9004365316667,-75.67641567868706,0.0,56.74324475980523,0.0,0.0,0.0,0.949001007474,51852.78579429665,316.569667078412
7.2,6379886.80716048,1986.3743168923922,0.0,0.0,252.7001405680248,-188.6302746707256,1750.116439012344,0.00031134945066288563,0.0,9.80880702746736,1.570796326787743,0.00031134947784355264,-1.2197275031682476e-18,0.0,-7.292114769189451e-05,0.0,188.6302746707256,333.50846967972006,1.032825310389025,82093.06692060911,276.7774379144445,-75.08285818377541,0.0,56.009875181946065,0.0,0.0,0.0,0.945520484434,51351.42459955039,315.33881684204914
7.3,6379905.594514321,2011.6243871064,0.0,0.0,252.184190285424,-187.27586118082803,1768.9117031469123,0.0003153062832415965,0.0,9.80874912631824,1.570796326787743,0.00031530631079954605,-1.2468325603382087e-18,0.0,-7.292114769189451e-05,0.0,187.275861180828,333.435166099632,1.0308498278442617,81898.07231889252,276.65532090666665,-74.49639559077474,0.0,55.28573555762607,0.0,0.0,0.0,0.942061407868,50856.51963398729,314.116130094768
7.4,6379924.246597921,2036.8230951950402,0.0,0.0,251.672262447204,-185.9263736829072,1787.57177276904,0.0003192550486920839,0.0,9.80869164210504,1.570796326787743,0.0003192550766265411,-1.2468325618982087e-18,0.0,-7.292114769189451e-05,0.0,185.92637368290724,333.362389793064,1.0288885549583493,81704.48031525803,276.53408228722225,-73.9169253566114,0.0,54.57068449567298,0.0,0.0,0.0,0.938623617545,50367.975830874355,312.9015413982629
7.5,6379942.76386848,2061.970839943392,0.0,0.0,251.16430931985602,-184.581750426312,1806.097137381432,0.00032319580981478486,0.0,9.80863457330376,1.570796326787743,0.0003231958381275352,-1.3010426749281307e-18,0.0,-7.292114769189451e-05,0.0,184.58175042631203,333.29013884892,1.0269414402964816,81512.28583104661,276.4137188766667,-73.34434688341912,0.0,53.8645831995622,0.0,0.0,0.0,0.935206956563,49885.69991180623,311.694986588506
7.6,6379961.146874641,2087.068015412136,0.0,0.0,250.6602838547568,-183.24193060191843,1824.488280357264,0.0003271286286736076,0.0,9.808577918420882,1.570796326787743,0.00032712865736352883,-1.2739376208281695e-18,0.0,-7.292114769189451e-05,0.0,183.2419306019184,333.218411386584,1.0250084330371534,81321.48385127992,276.2942275338889,-72.77856147717047,0.0,53.167295408255455,0.0,0.0,0.0,0.931811271294,49409.60034887985,310.49640275208276
7.7,6379979.396012641,2112.11501100156,0.0,0.0,250.16013967689122,-181.906854324756,1842.745679040768,0.00033105356659244076,0.0,9.80852167599336,1.570796326787743,0.00033105359565952414,-1.3823578456680138e-18,0.0,-7.292114769189451e-05,0.0,181.906854324756,333.14720554068003,1.0230894830185446,81132.06942418158,276.1756051577778,-72.2194723049739,0.0,52.47868733926356,0.0,0.0,0.0,0.928436411324,48939.58732303861,309.3057282045853
7.8,6379997.511831121,2137.11221151252,0.0,0.0,249.66383106961203,-180.576462617244,1860.86980482648,0.0003349706841760972,0.0,9.808465844527682,1.570796326787743,0.0003349707136215173,-1.409462903307975e-18,0.0,-7.292114769189451e-05,0.0,180.57646261724403,333.076519473264,1.0211845406972897,80944.03765926193,276.057848685,-71.66698435237093,0.0,51.798627631709174,0.0,0.0,0.0,0.925082229405,48475.572688640925,308.1229024700347
7.9,6380015.49472632,2162.059997210448,0.0,0.0,249.1713129648864,-179.2506973924272,1878.861123262872,0.0003388800413155504,0.0,9.80841042262176,1.570796326787743,0.00033888007113751304,-1.436567961027936e-18,0.0,-7.292114769189451e-05,0.0,179.25069739242724,333.00635136772803,1.0192935571330153,80757.38372588165,275.9409550905556,-71.12100438597093,0.0,51.126987293392965,0.0,0.0,0.0,0.921748581398,48017.46993467727,306.9478662613323
8.0,6380033.345216401,2186.958743901552,0.0,0.0,248.6825409289704,-177.92950143873603,1896.7200941316,0.0003427816971966604,0.0,9.80835540881256,1.570796326787743,0.00034278172739650605,-1.4636730188478972e-18,0.0,-7.292114769189451e-05,0.0,177.92950143873603,332.936699434896,1.017416484003804,80572.10285468814,275.82492138833334,-70.58144091119316,0.0,50.463639647859765,0.0,0.0,0.0,0.918435326223,47565.19415015273,305.7805614581383
8.1,6380051.06372808,2211.808822984632,0.0,0.0,248.19747115235043,-176.6128184035272,1914.4471715267523,0.0003466757103158825,0.0,9.80830080166752,1.570796326787743,0.00034667574089350113,-1.5178831326878193e-18,0.0,-7.292114769189451e-05,0.0,176.6128184035272,332.867561897784,1.0155532735804236,80388.19033426391,275.7097446272222,-70.04820413623607,0.0,49.80846028101993,0.0,0.0,0.0,0.915142325809,47118.66198774588,304.62093108783745
8.2,6380068.65071856,2236.610601508992,0.0,0.0,247.7160604366368,-175.3005927781488,1932.0428039676242,0.0003505621384872481,0.0,9.808246599876,1.570796326787743,0.00035056216944149497,-1.5178831347478188e-18,0.0,-7.292114769189451e-05,0.0,175.30059277814883,332.79893701293605,1.0137038787263268,80205.6415116054,275.59542189333337,-69.52120593382269,0.0,49.16132699399818,0.0,0.0,0.0,0.911869445041,46677.79163077142,303.46891930701906
8.3,6380086.106614561,2261.364442253688,0.0,0.0,247.23826618420082,-173.9927698827,1949.507434447488,0.00035444103884585583,0.0,9.80819280197496,1.570796326787743,0.0003544410701774899,-1.54498819283778e-18,0.0,-7.292114769189451e-05,0.0,173.9927698827,332.730823049088,1.0118682528770382,80024.45179020775,275.48195030777777,-69.00035980561476,0.0,48.52211975153424,0.0,0.0,0.0,0.908616551717,46242.50275952036,302.32447138192833
8.4,6380103.431903761,2286.070703764104,0.0,0.0,246.76404638781122,-172.6892958523152,1966.8415005402721,0.00035831246786706937,0.0,9.80813940665376,1.570796326787743,0.00035831249957748356,-1.54498819496778e-18,0.0,-7.292114769189451e-05,0.0,172.6892958523152,332.66321829936004,1.010046350045305,79844.6166310224,275.3693270283333,-68.48558084573739,0.0,47.89072063438683,0.0,0.0,0.0,0.905383516494,45812.71651884505,301.18753367097474
8.5,6380120.626951921,2310.729740425104,0.0,0.0,246.29335961722322,-171.3901176210096,1984.0454344767602,0.0003621764813717543,0.0,9.80808641257128,1.570796326787743,0.00036217651345847894,-1.5449881971177802e-18,0.0,-7.292114769189451e-05,0.0,171.3901176210096,332.596121081256,1.0082381247901773,79666.1315495843,275.2575492466667,-67.97678570741735,0.0,47.26701379485149,0.0,0.0,0.0,0.902170212847,45388.35548655824,300.05805360364053
8.6,6380137.69221624,2335.341902515896,0.0,0.0,245.82616501125364,-170.09518290979202,2001.1196632086,0.00036603313453151357,0.0,9.8080338183864,1.570796326787743,0.0003660331669954737,-1.5449881992877801e-18,0.0,-7.292114769189451e-05,0.0,170.09518290979202,332.529473717472,1.006452269289802,79490.10619435665,275.14661667611114,-67.47447831767123,0.0,46.65129039082923,0.0,0.0,0.0,0.898976668438,44969.73402643742,298.9359796671046
8.7,6380154.628123441,2359.907535137136,0.0,0.0,245.3623896772872,-168.8044177418736,2018.0646077407923,0.00036988248170637204,0.0,9.80798162281896,1.570796326787743,0.0003698825145474682,-1.5449882014777803e-18,0.0,-7.292114769189451e-05,0.0,168.80441774187364,332.462538945576,1.0048034912685486,79331.16845655715,275.0365592616667,-66.98620075412558,0.0,46.04867152375012,0.0,0.0,0.0,0.895804623747,44561.846046812905,297.8212218017714
8.8,6380171.435069759,2384.426975397624,0.0,0.0,244.90196694642003,-167.5177531401,2034.8806812114483,0.00037372457600146297,0.0,9.80792982455832,1.570796326787743,0.000373724609220463,-1.572093259887741e-18,0.0,-7.292114769189451e-05,0.0,167.5177531401,332.396113232352,1.003167252661319,79173.43948462378,274.9273388644445,-66.50346874309581,0.0,45.45320475648444,0.0,0.0,0.0,0.892651698042,44159.00669853702,296.71369804848064
8.9,6380188.11348192,2408.900555697,0.0,0.0,244.4448588384384,-166.23514041663358,2051.568291229608,0.00037755946978015447,0.0,9.80787842232432,1.570796326787743,0.00037755950337845645,-1.5720932621577414e-18,0.0,-7.292114769189451e-05,0.0,166.2351404166336,332.330194965408,1.0015435138200206,79016.91545579664,274.81895283722224,-66.02620872033768,0.0,44.86478680132627,0.0,0.0,0.0,0.889517781107,43761.147332235094,295.61336172195377
9.0,6380204.66378664,2433.328604667576,0.0,0.0,243.99102797571842,-164.95653165539042,2068.1278405823764,0.0003813872148176389,0.0,9.80782741492824,1.570796326787743,0.00038138724879245193,-1.5991983207177022e-18,0.0,-7.292114769189451e-05,0.0,164.95653165539042,332.26478255368806,0.9999322355397869,78861.59259184448,274.71139856444444,-65.55434848721094,0.0,44.28331615306109,0.0,0.0,0.0,0.886402765575,43368.20054523863,294.5201672074702
9.1,6380221.086319201,2457.711447241392,0.0,0.0,243.5404374722784,-163.6818796285248,2084.559727298928,0.0003852078623026777,0.0,9.80777680105944,1.570796326787743,0.00038520789665444534,-1.5991983230577023e-18,0.0,-7.292114769189451e-05,0.0,163.6818796285248,332.199874427472,0.9983333791002073,78707.46715906473,274.60467346,-65.08781713016667,0.0,43.70869301499178,0.0,0.0,0.0,0.883306546513,42980.100119053684,293.43406982145297
9.2,6380237.38150632,2482.0494046898402,0.0,0.0,243.09305092646403,-162.41113778515202,2100.8643447206164,0.0003890214628480741,0.0,9.80772657955968,1.570796326787743,0.00038902149757844023,-1.6534084381476244e-18,0.0,-7.292114769189451e-05,0.0,162.41113778515202,332.13546903228,0.9967469062292504,78554.53546876222,274.49877497,-64.62654499272324,0.0,43.140819261885,0.0,0.0,0.0,0.880229021389,42596.780995277135,292.35502579706434
9.3,6380253.549744241,2506.3427946754805,0.0,0.0,242.6488324108896,-161.1442602412896,2117.042081564976,0.0003928280665028896,0.0,9.80767674917928,1.570796326787743,0.0003928281016104353,-1.6263033842076631e-18,0.0,-7.292114769189451e-05,0.0,161.1442602412896,332.07156483192006,0.9951727790929578,78402.79387437642,274.3937005688889,-64.17046364877721,0.0,42.5795984046078,0.0,0.0,0.0,0.877170090029,42218.179251560745,291.28299226980135
9.4,6380269.5914292,2530.591931294712,0.0,0.0,242.20774646512322,-159.8812017667512,2133.093321995832,0.0003966277227524444,0.0,9.80762730876,1.570796326787743,0.0003966277582374298,-1.6805134995375858e-18,0.0,-7.292114769189451e-05,0.0,159.88120176675122,332.0081603084881,0.9936109603212109,78252.23877291787,274.2894477627778,-63.71950587947249,0.0,42.0249355559208,0.0,0.0,0.0,0.874129654588,41844.232078341396,290.2179272630914
9.5,6380285.50689648,2554.79712513264,0.0,0.0,241.76975808654242,-158.62191777630719,2149.018445681208,0.00040042048053053487,0.0,9.807578257113121,1.570796326787743,0.0004004205163924242,-1.6805135020775856e-18,0.0,-7.292114769189451e-05,0.0,158.6219177763072,331.945253962368,0.9920614129665024,78102.86660305287,274.1860140844444,-63.27360564740059,0.0,41.47673739644928,0.0,0.0,0.0,0.871107619505,41474.877756097914,289.15978967440213
9.6,6380301.2965728,2578.9586832996483,0.0,0.0,241.334832723324,-157.36636431688322,2164.8178278725763,0.0004042063882211785,0.0,9.80752959304992,1.570796326787743,0.0004042064244604184,-1.7347236176875074e-18,0.0,-7.292114769189451e-05,0.0,157.36636431688322,331.882844312232,0.9905241005245508,77954.67384462482,274.0833970966667,-62.832698071690686,0.0,40.934912142211175,0.0,0.0,0.0,0.868103891474,41110.055633134696,288.1085392603228
9.7,6380316.96079344,2603.07690947712,0.0,0.0,240.90293626530004,-156.11449805994,2180.491839447528,0.00040798549367432205,0.0,9.807481315442642,1.570796326787743,0.00040798553029141357,-1.7889337334874297e-18,0.0,-7.292114769189451e-05,0.0,156.11449805994002,331.820929891992,0.9889989868982234,77807.65702009048,273.9815943916667,-62.396719406213265,0.0,40.39936951227851,0.0,0.0,0.0,0.865118379406,40749.706104179175,287.0641366257609
9.8,6380332.499924161,2627.1521039631602,0.0,0.0,240.47403503816642,-154.8662762883672,2196.0408469859763,0.0004117578442058415,0.0,9.807433423163522,1.570796326787743,0.0004117578812014077,-1.8160387928573906e-18,0.0,-7.292114769189451e-05,0.0,154.8662762883672,331.759509256896,0.9874860364181524,77661.81268973206,273.8806035877778,-61.96560701422531,0.0,39.87002069750642,0.0,0.0,0.0,0.862150994397,40393.770588883606,286.02654320747956
9.9,6380347.9143612,2651.184563718312,0.0,0.0,240.04809579312,-153.6216568888632,2211.4652128250164,0.00041552348660626895,0.0,9.80738591505432,1.570796326787743,0.00041552352397840206,-1.8431438523373518e-18,0.0,-7.292114769189451e-05,0.0,153.6216568888632,331.698580971336,0.9859852138375803,77517.13745548758,273.78042233166667,-61.53929934924291,0.0,39.34677832997379,0.0,0.0,0.0,0.859201649689,40042.191511523866,284.99572126380923
10.0,6380363.20440936,2675.1745824021364,0.0,0.0,239.6250857025912,-152.3805983403528,2226.765295122936,0.00041928246714602796,0.0,9.80733879001776,1.570796326787743,0.00041928250489539653,-1.870248911927313e-18,0.0,-7.292114769189451e-05,0.0,152.3805983403528,331.63814362104,0.9844964843014377,77373.62795855686,273.6810482972222,-61.11773592924157,0.0,38.829556453180274,0.0,0.0,0.0,0.856270260645,39694.91228074605,283.9716338597285
10.1,6380378.37049536,2699.122450418928,0.0,0.0,239.2049723504904,-151.1430597063672,2241.941447907984,0.00042303483158416094,0.0,9.80729204698704,1.570796326787743,0.0004230348697123917,-1.870248914887313e-18,0.0,-7.292114769189451e-05,0.0,151.1430597063672,331.578195810024,0.9830198133566506,77231.28087700754,273.5824791844445,-60.70085731886337,0.0,38.318270492643464,0.0,0.0,0.0,0.85335674471,39351.877269983466,282.9542448550319
10.2,6380393.412893521,2723.028454960392,0.0,0.0,238.78772372641683,-149.9090006234616,2256.994021154568,0.00042678062517705545,0.0,9.807245684803922,1.570796326787743,0.00042678066368138543,-1.897353974637274e-18,0.0,-7.292114769189451e-05,0.0,149.90900062346162,331.518736154496,0.9815551669624482,77090.09292960547,273.4847127216667,-60.28860510539651,0.0,37.81283722774171,0.0,0.0,0.0,0.850461021379,39013.03179801729,281.9435188930123
10.3,6380408.33203056,2746.89288003612,0.0,0.0,238.3733082180384,-148.6783812935952,2271.923360819832,0.0004305198926749535,0.0,9.80719970246256,1.570796326787743,0.0004305199315573811,-1.8973539776772738e-18,0.0,-7.292114769189451e-05,0.0,148.6783812935952,331.459763288952,0.980102511449132,76950.0608705479,273.38774666055554,-59.880921881872126,0.0,37.313174763512336,0.0,0.0,0.0,0.847583012169,38678.322110734116,280.9394213860561
10.4,6380423.1281808,2770.71600652236,0.0,0.0,237.961694604996,-147.45116247498723,2286.72980891376,0.00043425267834115017,0.0,9.80715409889616,1.570796326787743,0.0004342527176013753,-1.8973539807472735e-18,0.0,-7.292114769189451e-05,0.0,147.4511624749872,331.40127586008,0.9786618135335383,76811.18149185748,273.29157878,-59.47775122348866,0.0,36.81920250382895,0.0,0.0,0.0,0.844722640585,38347.695362309074,279.94191850638373
10.5,6380437.801679521,2794.4981121955443,0.0,0.0,237.55285205097843,-146.2273054729728,2301.413703547944,0.00043797902594850324,0.0,9.80710887300744,1.570796326787743,0.0004379790655853703,-1.897353983827274e-18,0.0,-7.292114769189451e-05,0.0,146.22730547297283,331.343272532856,0.9772330403293444,76673.45162242463,273.19620688444445,-59.07903767070868,0.0,36.33084112453406,0.0,0.0,0.0,0.84187983209,38021.09959768162,278.9509771711304
10.6,6380452.35292296,2818.239471781056,0.0,0.0,237.14675009854082,-145.006772131164,2315.975378990448,0.0004416989787899046,0.0,9.80706402382104,1.570796326787743,0.00044169901880436506,-1.924459043887235e-18,0.0,-7.292114769189451e-05,0.0,145.006772131164,331.28575199054404,0.9758161592955321,76536.86812705004,273.1016288022222,-58.68472670879697,0.0,35.84801254768399,0.0,0.0,0.0,0.839054514074,37698.483734983485,277.9665650336007
10.7,6380466.78221592,2841.9403569715205,0.0,0.0,236.7433586617896,-143.7895248235248,2330.415165720672,0.0004454125796817716,0.0,9.80701955023968,1.570796326787743,0.00044541262007335926,-1.9244590470572347e-18,0.0,-7.292114769189451e-05,0.0,143.7895248235248,331.228712922504,0.9744111382930781,76401.4279054869,273.00784238777777,-58.29476475002776,0.0,35.37063991610501,0.0,0.0,0.0,0.836246615827,37379.79754858911,276.9886504704076
10.8,6380481.08983272,2865.601036478616,0.0,0.0,236.3426480202864,-142.5755264458368,2344.733390487264,0.000449119870971028,0.0,9.80697545131848,1.570796326787743,0.0004491199117413538,-1.8973539932072737e-18,0.0,-7.292114769189451e-05,0.0,142.5755264458368,331.17215403943203,0.9730179455179555,76267.12789339866,272.9148455177778,-57.909099115891735,0.0,34.89864756861669,0.0,0.0,0.0,0.833456068505,37064.99165230958,276.0172025701544
10.9,6380495.2761696,2889.221776069656,0.0,0.0,235.9445888132568,-141.3647404077744,2358.9303763416483,0.0004528208945438303,0.0,9.80693172599064,1.570796326787743,0.0004528209356913479,-1.9244590534572348e-18,0.0,-7.292114769189451e-05,0.0,141.3647404077744,331.116074067264,0.9716365495372102,76133.9650604437,272.8226360944445,-57.52767801841356,0.0,34.4319610157447,0.0,0.0,0.0,0.830682805105,36754.01748325708,275.05219112314614
11.0,6380509.3415313605,2912.802838585872,0.0,0.0,235.5491520328848,-140.1571306243704,2373.0064427142242,0.000456515691823823,0.0,9.806888373341762,1.570796326787743,0.00045651573334834397,-1.9244590566972348e-18,0.0,-7.292114769189451e-05,0.0,140.1571306243704,331.060471744128,0.9702669192683457,76001.93641075426,272.73121204333336,-57.15045054235898,0.0,33.97050691627861,0.0,0.0,0.0,0.827926760434,36446.82728594858,274.09358660955706
11.1,6380523.28619232,2936.3444840033762,0.0,0.0,235.156309017912,-138.9526615096152,2386.9619054478962,0.00046020430378435566,0.0,9.806845392305041,1.570796326787743,0.0004602043456873374,-1.9244590599472347e-18,0.0,-7.292114769189451e-05,0.0,138.9526615096152,331.005345820344,0.9689090239844771,75871.03898149988,272.6405713127778,-56.77736663055571,0.0,33.514213053874286,0.0,0.0,0.0,0.825187871083,36143.374096696905,273.1413601891423
11.2,6380537.11051824,2959.8469694484,0.0,0.0,234.76603144998,-137.7512979667032,2400.7970768468404,0.0004638867709519736,0.0,9.80680278199656,1.570796326787743,0.0004638868132323321,-2.005774234907118e-18,0.0,-7.292114769189451e-05,0.0,137.75129796670322,330.95069506147206,0.9675628332988688,75741.26984336632,272.550711875,-56.40837706521084,0.0,33.063008314456916,0.0,0.0,0.0,0.822466075394,35843.61172857631,272.19548369094827
11.3,6380550.814783441,2983.310549233872,0.0,0.0,234.37829134509602,-136.553005383156,2414.5122657344164,0.0004675631334099083,0.0,9.806760541380001,1.570796326787743,0.00046756317606632764,-2.005774238337118e-18,0.0,-7.292114769189451e-05,0.0,136.553005383156,330.89651825136,0.9662283171546286,75612.62609959792,272.4616317227778,-56.04343345278698,0.0,32.61682266429125,0.0,0.0,0.0,0.81976131344,35547.494756435975,271.25592960250987
11.4,6380564.3992927205,3006.7354748990397,0.0,0.0,233.99306105028,-135.357749620764,2428.107777498888,0.00047123343080331375,0.0,9.80671866957144,1.570796326787743,0.0004712334738373229,-2.05998435643704e-18,0.0,-7.292114769189451e-05,0.0,135.35774962076403,330.84281418300003,0.9649054458453213,75485.10488647639,272.3733288738889,-55.682488206654085,0.0,32.17558712827432,0.0,0.0,0.0,0.817073526993,35254.97850263167,270.322671059047
11.5,6380577.864381361,3030.1219952399524,0.0,0.0,233.6103132365544,-134.1654970110144,2441.583914133048,0.0004748977023479929,0.0,9.80667716559552,1.570796326787743,0.0004748977457613162,-2.0599843600070398e-18,0.0,-7.292114769189451e-05,0.0,134.16549701101442,330.78958165852805,0.9635941899788928,75358.7033709268,272.2858013666667,-55.325494533744894,0.0,31.739233768583954,0.0,0.0,0.0,0.814402659497,34966.01902256596,269.3956818352334
11.6,6380591.2102932,3053.4703563338403,0.0,0.0,233.2300208946768,-132.9762143456424,2454.9409742829844,0.0004785559868356338,0.0,9.806636028507361,1.570796326787743,0.0004785560306243111,-2.1412995358469232e-18,0.0,-7.292114769189451e-05,0.0,132.9762143456424,330.736819504464,0.9622945204982855,75233.4187514752,272.1990472611111,-54.972406418986075,0.0,31.30769566435039,0.0,0.0,0.0,0.811748656042,34680.573091185914,268.4749363313068
11.7,6380604.437394001,3076.78080160008,0.0,0.0,232.8521573284344,-131.7898688720592,2468.17925330904,0.0004822083226285733,0.0,9.806595257453521,1.570796326787743,0.00048220836679630646,-2.1412995396069236e-18,0.0,-7.292114769189451e-05,0.0,131.7898688720592,330.68452655037606,0.9610064086711301,75109.2482582486,272.1130646388889,-54.623178608839844,0.0,30.88090689115001,0.0,0.0,0.0,0.809111463341,34398.59818919364,267.56040956843873
11.8,6380617.54589712,3100.05357175752,0.0,0.0,232.4766961512912,-130.60642828451282,2481.2990433071523,0.00048585474768074135,0.0,9.80655485148912,1.570796326787743,0.00048585479222530156,-2.1412995433869236e-18,0.0,-7.292114769189451e-05,0.0,130.60642828451282,330.63270164412,0.9597298260639772,74986.18915105979,272.0278516027778,-54.27776659884895,0.0,30.458802501433127,0.0,0.0,0.0,0.806491029698,34120.052490022805,266.6520771748447
11.9,6380630.536168321,3123.2889049464,0.0,0.0,232.1036112799872,-129.42586071890642,2494.300633169808,0.0004894952995289342,0.0,9.806514809699761,1.570796326787743,0.0004894953444512952,-2.1684046047468843e-18,0.0,-7.292114769189451e-05,0.0,129.4258607189064,330.581343645744,0.9584647445783739,74864.23872036491,271.9434062766667,-53.93612661717822,0.0,30.041318504951846,0.0,0.0,0.0,0.803887304988,33844.89484662374,265.7499153760097
12.0,6380643.408451441,3146.48703671616,0.0,0.0,231.7328769293568,-128.2481347460928,2507.184308625672,0.0004931300153050316,0.0,9.806475131232,1.570796326787743,0.0004931300606042914,-2.2226147238368065e-18,0.0,-7.292114769189451e-05,0.0,128.2481347460928,330.530451421392,0.957211136404479,74743.39428630589,271.85972680444445,-53.59821561393888,0.0,29.628391850077506,0.0,0.0,0.0,0.801300240628,33573.08477925394,264.8539009895438
12.1,6380656.163020801,3169.64820005592,0.0,0.0,231.36446760867122,-127.07321936455921,2519.9503522792083,0.0004967589317377424,0.0,9.806435815201919,1.570796326787743,0.0004967589774142847,-2.2768248431367287e-18,0.0,-7.292114769189451e-05,0.0,127.07321936455921,330.480023861592,0.9559689740519863,74623.65319775273,271.7768113511111,-53.263991244730065,0.0,29.219960405162634,0.0,0.0,0.0,0.798729789553,33304.582462598264,263.9640114102631
12.2,6380668.8001812,3192.77262542496,0.0,0.0,230.9983581155424,-125.9010839949408,2532.599043653352,0.0005003820851578403,0.0,9.8063968607256,1.570796326787743,0.0005003821312112795,-2.3310349626666508e-18,0.0,-7.292114769189451e-05,0.0,125.9010839949408,330.43005985687205,0.9547382303140483,74505.01283326132,271.69465810055556,-52.933411858183874,0.0,28.815962940347735,0.0,0.0,0.0,0.796175906191,33039.34871422981,263.0802246045311
12.3,6380681.32020696,3215.8605407222403,0.0,0.0,230.63452353226563,-124.7316984748392,2545.130659241328,0.0005039995115016546,0.0,9.80635826698008,1.570796326787743,0.0005039995579342754,-2.3852450824065728e-18,0.0,-7.292114769189451e-05,0.0,124.7316984748392,330.38055831909605,0.953518878293044,74387.47059963678,271.6132652572222,-52.606436485289585,0.0,28.4163391099908,0.0,0.0,0.0,0.793638546439,32777.344982304705,262.2025190999698
12.4,6380693.7233724,3238.9121714997605,0.0,0.0,230.272939220028,-123.5650330505928,2557.5454725371283,0.0005076112463197969,0.0,9.80632003308144,1.570796326787743,0.0005076112931292691,-2.3852450867665727e-18,0.0,-7.292114769189451e-05,0.0,123.56503305059282,330.331518163176,0.9523108913748116,74271.02393049725,271.532631045,-52.28302482204559,0.0,28.02102943536374,0.0,0.0,0.0,0.791117667637,32518.53333426234,261.33087397568494
12.5,6380706.009921361,3261.92774071872,0.0,0.0,229.91358081525124,-122.4010583733144,2569.8437540812324,0.0005112173247736701,0.0,9.80628215817624,1.570796326787743,0.0005112173719612644,-2.4936653225664173e-18,0.0,-7.292114769189451e-05,0.0,122.40105837331441,330.28293832535996,0.9511142432389548,74155.67028962543,271.45275370611114,-51.96313722145266,0.0,27.629975287393265,0.0,0.0,0.0,0.788613228546,32262.876445525617,260.46526885403523
12.6,6380718.18015864,3284.90746905432,0.0,0.0,229.556424225324,-121.2397454921856,2582.0257714910886,0.0005148177816494317,0.0,9.806244641472,1.570796326787743,0.0005148178292132598,-2.547875442976339e-18,0.0,-7.292114769189451e-05,0.0,121.2397454921856,330.234817744944,0.9499289078382281,74041.40716618049,271.37363150277776,-51.64673467972437,0.0,27.243118870380417,0.0,0.0,0.0,0.786125189321,32010.33758829701,259.60568389188677
12.7,6380730.234328081,3307.85157465192,0.0,0.0,229.20144562281124,-120.0810658492752,2594.0917895220723,0.000518412651351012,0.0,9.80620748214576,1.570796326787743,0.0005184126992932535,-2.4936653318064175e-18,0.0,-7.292114769189451e-05,0.0,120.0810658492752,330.18715537646403,0.948754859419152,73928.23207661345,271.2952627161111,-51.33377882294248,0.0,26.86040320554212,0.0,0.0,0.0,0.78365351149,31760.880620881224,258.75209977135285
12.8,6380742.172704,3330.7602734318402,0.0,0.0,228.84862144301522,-118.92499127374802,2606.0420700796803,0.0005220019679158218,0.0,9.80617067937456,1.570796326787743,0.0005220020162362483,-2.5478754524663393e-18,0.0,-7.292114769189451e-05,0.0,118.924991273748,330.13995018664804,0.9475920724962439,73816.1425651458,271.2176456438889,-51.024231898160515,0.0,26.481772115220032,0.0,0.0,0.0,0.781198157929,31514.469977055807,257.90449769053424
12.9,6380753.995530241,3353.6337788760006,0.0,0.0,228.49792837788002,-117.77149397637841,2617.876872283536,0.0005255857650112626,0.0,9.80613423236592,1.570796326787743,0.0005255858137082439,-2.5478754572463387e-18,0.0,-7.292114769189451e-05,0.0,117.77149397637841,330.093201154416,0.9464405218520183,73705.13620041798,271.14077860333333,-50.71805675916939,0.0,26.107170207222765,0.0,0.0,0.0,0.778759092837,31271.07065558537,257.06285935528774
13.0,6380765.70305064,3376.4723022108,0.0,0.0,228.14934337385762,-116.6205465446736,2629.5964524826322,0.0005291640759399618,0.0,9.806098140266402,1.570796326787743,0.0005291641250142396,-2.6020855782762613e-18,0.0,-7.292114769189451e-05,0.0,116.6205465446736,330.04690726173607,0.9453001825472942,73595.21057836222,271.06465993,-50.41521685849069,0.0,25.736542859613003,0.0,0.0,0.0,0.776336281716,31030.648210310334,256.2271669720244
13.1,6380777.29557,3399.2760522852004,0.0,0.0,227.8028436261168,-115.47212193708242,2641.2010643132403,0.000532736933645009,0.0,9.80606240237496,1.570796326787743,0.0005327369830962342,-2.656295699526183e-18,0.0,-7.292114769189451e-05,0.0,115.4721219370824,330.001067508864,0.9441710299005799,73486.36332028722,270.98928797611114,-50.115676232697474,0.0,25.369836205761445,0.0,0.0,0.0,0.773929691346,30793.16874004427,255.39740323639128
13.2,6380788.7732712,3422.04523578408,0.0,0.0,227.45840657549522,-114.3261934778136,2652.6909587172,0.0005363043707134466,0.0,9.80602701786864,1.570796326787743,0.0005363044205432285,-2.7105058210061052e-18,0.0,-7.292114769189451e-05,0.0,114.32619347781362,329.9556809052,0.9430530394983807,73378.59207192066,270.91466111222223,-49.81939949485231,0.0,25.00699711975666,0.0,0.0,0.0,0.77153928976,30558.59887904566,254.57355132761302
13.3,6380800.136489521,3444.7800571368,0.0,0.0,227.1160099036224,-113.1827348528736,2664.0663839937365,0.0005398664193815059,0.0,9.80599198595496,1.570796326787743,0.0005398664695882232,-2.7105058262061057e-18,0.0,-7.292114769189451e-05,0.0,113.18273485287361,329.91074647233603,0.9419461871745841,73271.89450436675,270.840777725,-49.526351822497126,0.0,24.647973202126295,0.0,0.0,0.0,0.769165046227,30326.905787298234,253.7555948971737
13.4,6380811.3853773605,3467.48071848672,0.0,0.0,226.7756315310912,-112.04172010366561,2675.327585820792,0.0005434231115346073,0.0,9.80595730593288,1.570796326787743,0.0005434231621192179,-2.7647159480560276e-18,0.0,-7.292114769189451e-05,0.0,112.04172010366561,329.866263234912,0.9408504490310743,73166.26831362741,270.7676362188889,-49.236498947867055,0.0,24.292712765691718,0.0,0.0,0.0,0.766806931222,30098.057141365844,252.943518064187
13.5,6380822.520239521,3490.1474198436003,0.0,0.0,226.437249610752,-110.90312362333201,2686.474807306848,0.000546974478716086,0.0,9.80592297697944,1.570796326787743,0.0005469745296782131,-2.7647159534060276e-18,0.0,-7.292114769189451e-05,0.0,110.90312362333201,329.822230235856,0.9397658014068095,73061.71121916593,270.69523501555557,-48.949807147659556,0.0,23.941164822134386,0.0,0.0,0.0,0.764464916408,29872.02112539095,252.13730540407852
