time,eiPosition_m_X,eiPosition_m_Y,eiPosition_m_Z,gePosition_m_X,gePosition_m_Y,gePosition_m_Z,eiVelocity_m_s_X,eiVelocity_m_s_Y,eiVelocity_m_s_Z,feVelocity_m_s_X,feVelocity_m_s_Y,feVelocity_m_s_Z,altitudeMsl_m,longitude_rad,latitude_rad,localGravity_m_s2,eulerAngle_rad_Yaw,eulerAngle_rad_Pitch,eulerAngle_rad_Roll,bodyAngularRateWrtEi_rad_s_Roll,bodyAngularRateWrtEi_rad_s_Pitch,bodyAngularRateWrtEi_rad_s_Yaw,altitudeRateWrtMsl_m_s,speedOfSound_m_s,airDensity_kg_m3,ambientPressure_Pa,ambientTemperature_K,aero_bodyForce_N_X,aero_bodyForce_N_Y,aero_bodyForce_N_Z,aero_bodyMoment_Nm_L,aero_bodyMoment_Nm_M,aero_bodyMoment_Nm_N,mach,dynamicPressure_Pa,trueAirspeed_m_s
0.0,6378137.000000209,0.0,0.0,6378137.000000209,0.0,0.0,304.7999999999999,769.901084897565,-4.78636474447736e-14,-6.478344634006092e-14,304.7999999999998,-304.7999999999998,0.0,0.0,0.0,9.814197353250055,1.5707963267948963,2.7755575615628914e-16,2.775557561562891e-16,4.0479369856014205e-21,-7.292114999989349e-05,2.0239684928007104e-20,304.7999999999997,340.2938020346913,1.2250033106982612,101325.16165865559,288.15,-146.7952203819027,1.394626469869831e-15,146.79522038190265,0.0,0.0,0.0,1.2667062733260588,113806.53165996267,431.046702487581
0.1,6378167.380373969,76.93949877439385,-4.7783615649886904e-15,6378167.380765441,30.429168745824793,-4.7783615649886904e-15,302.8148885097539,768.8957862280168,-4.770522465753708e-14,-4.770573523380161e-14,303.78883302874954,-302.8241636372852,30.38083781828284,4.770832580743929e-06,5.595576115609238e-20,9.814103706840214,1.570796326794896,4.770832581787895e-06,2.775527915441328e-16,4.0479369856014205e-21,-7.292114999989349e-05,2.0239684928007104e-20,302.8241636372852,340.1771772448774,1.22143447585667,100960.73066259688,287.9525254977224,-145.16804791405218,9.308865585830658e-15,144.70569178820233,0.0,0.0,0.0,1.260933227055137,112365.94356892377,428.93514194026704
0.2000000000000001,6378197.563450504,153.77952323300445,-9.541102323457713e-15,6378197.565014939,60.758422969145705,-9.541102323457713e-15,300.8489851817754,767.9065217810233,-4.75498757358429e-14,-4.755089495518045e-14,302.79376664394977,-300.8674994626313,60.56530412109196,9.52595499715688e-06,1.117285989174621e-19,9.814010667057346,1.5707963267948957,9.525954998857099e-06,2.775489799053045e-16,4.0479369856014205e-21,-7.292114999989349e-05,2.0239684928007104e-20,300.8674994626313,340.06126777322635,1.2178966250248133,100599.71046048765,287.7563292734936,-143.5726516071572,9.078544446499708e-15,142.6565750582866,0.0,0.0,0.0,1.25523012593712,110953.62061575358,426.8496110921703
0.3000000000000002,6378227.55063558,230.5211638803216,-1.4288418680342658e-14,6378227.554152312,90.98885745008187,-1.4288418680342658e-14,298.89701945384456,766.9280799592034,-4.7396763932903664e-14,-4.739828989012113e-14,301.8095884989412,-298.92473748474873,90.55480110640526,1.4265539551763819e-05,1.6732081323305953e-19,9.813918229553598,1.5707963267948963,1.4265539552123442e-05,2.775506739868473e-16,4.0479369856014205e-21,-7.292114999989349e-05,2.0239684928007104e-20,298.9247374847487,339.9460689427631,1.2143894282236722,100242.06149496204,287.5614021768952,-142.0035935923398,8.852041513973745e-15,140.64223741386118,0.0,0.0,0.0,1.2495753073236804,109565.26629473883,424.78270350237557
0.4000000000000003,6378257.343311108,307.16549403216186,-1.902048206898291e-14,6378257.349557345,121.12154973979979,-1.902048206898291e-14,296.9587554387704,765.9602824866641,-4.7244779772448484e-14,-4.7246798089025013e-14,300.83611958508214,-296.9956423750058,120.3507071705103,1.8989755835681926e-05,2.2273441162844796e-19,9.813826390054867,1.5707963267948961,1.898975583564702e-05,1.6652328932843158e-16,4.0479369856014205e-21,-7.292114999989349e-05,2.0239684928007104e-20,296.99564237500584,339.83157615751014,1.2109125611779252,99887.74491124444,287.36773521279315,-140.46029682080376,-2.2359007451746326e-14,138.66191227963728,0.0,0.0,0.0,1.2439680273082576,108200.35480453275,422.7341319125124
0.5000000000000003,6378286.942835686,383.7135693723585,-2.373742936845994e-14,6378286.952586541,151.1575597180539,-2.373742936845994e-14,295.03396243343553,765.0029549814462,-4.709443764374595e-14,-4.7096951972413883e-14,299.8731848037825,-295.0799839767202,149.95437745643557,2.3698770659487495e-05,2.779709969905346e-19,9.813735144359143,1.5707963267948954,2.3698770661836707e-05,1.6651312494979926e-16,4.0479369856014205e-21,-7.292114999989349e-05,2.0239684928007104e-20,295.0799839767202,339.7177849006049,1.2074657051846813,99536.72254072141,287.1753195377604,-138.94220019263355,-2.219266575482234e-14,136.7148542196585,0.0,0.0,0.0,1.2384075590555634,106858.37486558194,420.7036156081686
0.6000000000000004,6378316.350545097,460.16642833675894,-2.843942344091906e-14,6378316.364573618,181.0979299780158,-2.843942344091906e-14,293.12241477624576,764.0559268482126,-4.694571082985137e-14,-4.694871781435727e-14,298.920612858751,-293.17753716293777,179.36714434333743,2.8392748113781348e-05,3.3303247647414245e-19,9.813644488334967,1.5707963267948963,2.8392748114523108e-05,1.6651820716784207e-16,4.0479369856014205e-21,-7.292114999989349e-05,2.0239684928007104e-20,293.1775371629378,339.604690732637,1.204048546990304,99188.95688550803,286.98414645688354,-137.4487580286441,-2.2028865635566694e-14,134.8003382366444,0.0,0.0,0.0,1.2328931923403097,105538.82923915742,418.6908802409555
0.7000000000000005,6378345.567752789,536.5250924866705,-3.312662450669021e-14,6378345.586829986,210.94368620052296,-3.312662450669021e-14,291.22389170929137,763.1190311744742,-4.679857320243262e-14,-4.680206952021625e-14,297.9782361517905,-291.28808169890743,208.59031792680324,3.307184962808724e-05,3.8792072629780185e-19,9.813554417919951,1.5707963267948963,3.3071849628279226e-05,1.6651312499410104e-16,4.0479369856014205e-21,-7.292114999989349e-05,2.0239684928007104e-20,291.2880816989075,339.49228929001475,1.20066077867105,98844.41110340181,286.7942074206291,-135.97943956256742,-2.1867553234495973e-14,132.91765909831807,0.0,0.0,0.0,1.2274242331012164,104241.2342649105,416.69565765646024
0.8000000000000006,6378374.59575039,612.7905668720978,-3.779919020141663e-14,6378374.620645273,240.69583751809998,-3.779919020141663e-14,289.33817724504087,762.1921046302297,-4.6652999193515625e-14,-4.665698155501898e-14,297.0458906820307,-289.4114021090919,237.62518654116693,3.7736234028143774e-05,4.4263759241274205e-19,9.81346492911915,1.5707963267948961,3.773623402973726e-05,1.6650973688980735e-16,4.0479369856014205e-21,-7.292114999989349e-05,2.0239684928007104e-20,289.4114021090919,339.3805762831641,1.1973020975099973,98503.04899261481,286.6054940214369,-134.5337284520281,-2.1708676162490937e-14,131.06613068891144,0.0,0.0,0.0,1.2220000030104758,102965.11941564386,414.7176857278805
0.9000000000000007,6378403.43580814,688.9638403851113,-4.2457275631327574e-14,6378403.467287737,270.35537686909703,-4.2457275631327574e-14,287.4650600373936,761.2749873708826,-4.650896378030756e-14,-4.6513428928300795e-14,296.1234159484473,-287.54728754851686,266.47301717622577,4.238605759164149e-05,4.971848911501469e-19,9.813376018003796,1.5707963267948957,4.238605759308837e-05,1.6649618439365616e-16,4.0479369856014205e-21,-7.292114999989349e-05,2.0239684928007104e-20,287.5472875485168,339.2695474951271,1.1939722058884017,98164.83497801624,286.41799799099994,-133.1111223094081,-2.1552183453142342e-14,129.2450853866104,0.0,0.0,0.0,1.2166198390560066,101710.02687001415,412.75670819510924
1.0000000000000009,6378432.089175404,765.0458861036664,-4.71010334270183e-14,6378432.128004791,299.92328134224476,-4.71010334270183e-14,285.60433325692406,760.3675229433085,-4.636644247051224e-14,-4.637138717943505e-14,295.2106548555387,-285.69553167830446,295.1350560006917,4.702147410244676e-05,5.515644098509314e-19,9.813287680709633,1.5707963267948966,4.70214741027522e-05,1.6650973695532844e-16,4.0479369856014205e-21,-7.292114999989349e-05,2.0239684928007104e-20,285.6955316783044,339.15919877974505,1.1906708111664916,97829.73409637446,286.2317111968511,-131.71113224899676,-2.1398025516659582e-14,127.45387346314472,0.0,0.0,0.0,1.2112830931389034,100475.51110028893,410.81247450905903
1.0999999999999897,6378460.557081058,841.0376616261783,-5.1730613795785186e-14,6378460.604023391,329.40051251196246,-5.1730613795785186e-14,283.75579447015986,759.4695581949641,-4.6225411288119955e-14,-4.623083236343899e-14,294.3074536220643,-283.85593254522877,323.61252873689534,5.16426349033718e-05,6.057779074785993e-19,9.81319991343581,1.5707963267948968,5.164263490410135e-05,1.6652328952046202e-16,4.0479369856014205e-21,-7.292114999989349e-05,2.0239684928007104e-20,283.85593254522877,339.0495260604079,1.187397625582555,97497.71198359384,286.04662563991695,-130.3332824530013,-2.124615409580433e-14,125.69186250775347,0.0,0.0,0.0,1.2059891316820646,99261.13847701573,408.88473968104296
1.1999999999999786,6378488.840733955,916.9401093971605,-5.6346164572562986e-14,6378488.896550491,358.7880167647027,-5.6346164572562986e-14,281.91924552274025,758.5809431859043,-4.608584675965292e-14,-4.6091741037236025e-14,293.41366169270066,-282.0282924651498,351.90664113995433,5.6249688947537986e-05,6.598271152157301e-19,9.813112712443337,1.5707963267948954,5.624968894941945e-05,1.664860201121107e-16,4.0479369856014205e-21,-7.292114999989349e-05,2.0239684928007104e-20,282.02829246514983,338.94052532839686,1.1841523661424442,97168.73486096418,285.86273345139296,-128.97710975238476,-2.109652222324108e-14,123.95843687135492,0.0,0.0,0.0,1.2007373352529525,98066.48688741498,406.9732641370025
1.2999999999999676,6378516.941323345,992.7541570242021,-6.094783126950872e-14,6378517.006773473,388.0867256166187,-6.094783126950872e-14,280.0944924263118,757.7015311036181,-4.594772590085065e-14,-4.595409024635618e-14,292.52913165253074,-280.2124179101727,380.0185794019997,6.0842782848367306e-05,7.137137370446184e-19,9.813026074053882,1.5707963267948963,6.08427828491911e-05,1.664995726840611e-16,4.0479369856014205e-21,-7.292114999989349e-05,2.0239684928007104e-20,280.21241791017275,338.83219264150887,1.1809347545184055,96842.76952252084,285.6800268901057,-127.64216322417548,-2.0949084180612966e-14,122.25299713225552,0.0,0.0,0.0,1.195527098197586,96891.14536864687,405.0778135764194
1.3999999999999566,6378544.860019287,1068.4807175865647,-6.553575712427538e-14,6378544.935860549,417.2975560228328,-6.553575712427538e-14,278.28134524902174,756.8311781805696,-4.5811026203777616e-14,-4.5817857512056507e-14,291.653719144237,-278.40811939938726,407.94951057343485,6.542206092825437e-05,7.6743945031257e-19,9.812939994648426,1.5707963267948966,6.542206092853187e-05,1.6650634899578866e-16,4.0479369856014205e-21,-7.292114999989349e-05,2.0239684928007104e-20,278.4081193993873,338.7245241226128,1.177744516948271,96519.78332242939,285.49849833976504,-126.32800380338941,-2.0803795459081345e-14,120.57495958136553,0.0,0.0,0.0,1.1903578282865233,95734.71375443685,403.19815883571783
1.4999999999999456,6378572.5979730515,1144.1206899356675,-7.011008314701673e-14,6378572.684961169,446.42141067857665,-7.011008314701673e-14,276.47961800947513,755.9697436143376,-4.567572562433818e-14,-4.5683020818852134e-14,290.78728278791965,-276.61521139307774,435.7005829558075,6.998766526596255e-05,8.210059062823413e-19,9.81285447066609,1.5707963267948961,6.998766526681426e-05,1.6648602025647436e-16,4.0479369856014205e-21,-7.292114999989349e-05,2.0239684928007104e-20,276.61521139307774,338.61751595830765,1.1745813841388264,96199.7441629181,285.3181403064012,-125.03420390951827,-2.0660612721360988e-14,118.9237557266516,0.0,0.0,0.0,1.1852289463718262,94596.80233493143,401.33407575600836
1.5999999999999346,6378600.156317476,1219.6749589877122,-7.467094816616363e-14,6378600.25520638,475.4591783124585,-7.467094816616363e-14,274.6891285740247,755.1170894902714,-4.554180257018338e-14,-4.554955860243671e-14,289.92968410343695,-274.83351219025127,463.2729264719725,7.453973574277398e-05,8.744147306681876e-19,9.81276949860293,1.5707963267948957,7.453973574471132e-05,1.664656915204494e-16,4.0479369856014205e-21,-7.292114999989349e-05,2.0239684928007104e-20,274.83351219025127,338.51116439766554,1.1714450911732994,95882.62048268015,285.13894541594885,-123.76034708689856,-2.051949376517675e-14,117.29883181593128,0.0,0.0,0.0,1.1801398860546513,93477.03152916749,399.4853450550032
1.6999999999999236,6378627.536167407,1295.1443960086895,-7.921848887300941e-14,6378627.647709254,504.411733972089,-7.921848887300941e-14,272.909698557278,754.2730807065553,-4.540923588899547e-14,-4.5417449737980465e-14,289.08078743515716,-273.0628438293745,490.6676530850798,7.907841008744232e-05,9.276675241579735e-19,9.812685075010695,1.5707963267948968,7.907841008803748e-05,1.6651312542367547e-16,4.0479369856014205e-21,-7.292114999989349e-05,2.0239684928007104e-20,273.0628438293745,338.4054657507811,1.1683353774148808,95568.3812449192,284.9609064115155,-122.50602765752073,-2.0380397487939783e-14,115.69964837643899,0.0,0.0,0.0,1.1750900933640045,92375.03156898143,397.6517522029454
1.7999999999999126,6378654.7386200065,1370.5298588920173,-8.375283986514301e-14,6378654.863565207,533.2799393023327,-8.375283986514301e-14,271.1411532257008,753.4375849016155,-4.527800485713684e-14,-4.528667352879038e-14,288.2404598790657,-271.3030319921965,517.885857119912,8.360382391998468e-05,9.80765862921779e-19,9.812601196495796,1.5707963267948968,8.360382392019412e-05,1.6649957295776592e-16,4.0479369856014205e-21,-7.292114999989349e-05,2.0239684928007104e-20,271.3030319921965,338.30041638769205,1.1652519864225124,95256.99592671395,284.7840161512832,-121.2708503875231,-2.0243283852883815e-14,114.12567977212326,0.0,0.0,0.0,1.1700790264443617,91290.44219520899,395.8330873024212
1.899999999999901,6378681.764755165,1445.8321924290249,-8.827413368876361e-14,6378681.903852406,562.0646428163783,-8.827413368876361e-14,269.3833214042031,752.6104723837541,-4.5148089168649045e-14,-4.515720969532421e-14,287.40857121211394,-269.5539059105579,544.9286156716526,8.811611079433236e-05,1.0337112991074203e-18,9.81251785971805,1.5707963267948966,8.811611079555933e-05,1.6649957302227206e-16,4.0479369856014205e-21,-7.292114999989349e-05,2.0239684928007104e-20,269.5539059105579,338.19601273696037,1.162194665858015,94948.43450757136,284.6082676058437,-120.0544301646,-2.010811385623706e-14,112.5764137758724,0.0,0.0,0.0,1.1651061552542146,90222.91236400978,394.02914497189767
1.9999999999998903,6378708.615635813,1521.0522285725192,-9.278250087991304e-14,6378708.769632076,590.7666801598922,-9.278250087991304e-14,267.63603538560415,751.79161606296,-4.501946892459054e-14,-4.502903836453979e-14,286.58499382375055,-267.81529827606425,571.7969889135987,9.261540223991674e-05,1.0865053613232872e-18,9.812435061389728,1.570796326794896,9.261540224162193e-05,1.6647924429914662e-16,4.0479369856014205e-21,-7.292114999989349e-05,2.0239684928007104e-20,267.81529827606425,338.092251284637,1.159163167406153,94642.66745932214,284.4336538561898,-118.85639168810432,-1.9974849495756332e-14,111.05135115814033,0.0,0.0,0.0,1.160170961272725,89172.09996457354,392.23972423286625
2.09999999999988,6378735.292308287,1596.1907866936253,-9.72780700046577e-14,6378735.461948884,619.3868743684179,-9.72780700046577e-14,265.8991308428686,750.9808913848029,-4.4892124622699846e-14,-4.4902140059569995e-14,285.76960264954,-266.08704515252464,598.4920204730005,9.710182780216617e-05,1.1391495551088844e-18,9.812352798274377,1.5707963267948968,9.710182780247684e-05,1.6651990195165587e-16,4.0479369856014205e-21,-7.292114999989349e-05,2.0239684928007104e-20,266.0870451525247,337.9891285729608,1.1561572466878458,94339.66573541734,284.2601680912641,-117.67636916934825,-1.9843453740239432e-14,109.55000528944863,0.0,0.0,0.0,1.1552729372163468,88137.67154625716,390.46462840044893
2.1999999999998687,6378761.795802659,1671.2486738321259,-1.0176096769825307e-13,6378761.981831233,647.92603611827,-1.0176096769825307e-13,264.17244674401945,750.1781762663317,-4.4766037147373475e-14,-4.477649568971147e-14,284.9622751067972,-264.36898589106033,625.0147377342314,0.00010157551508198884,1.191645363393458e-18,9.812271067185913,1.5707963267948968,0.00010157551508214591,1.66506349498433e-16,4.0479369856014205e-21,-7.292114999989349e-05,2.0239684928007104e-20,264.36898589106033,337.88664119933395,1.1531766631832208,94039.4007612258,284.087803605981,-116.51400604331039,-1.9713890500246654e-14,108.07190175772294,0.0,0.0,0.0,1.1504115867632596,87119.30205598897,388.7036649773477
2.2999999999998577,6378788.127133045,1746.2266849404843,-1.0623131870332079e-13,6378788.330291618,676.3849639710942,-1.0623131870332079e-13,262.4558252696289,749.3833510339189,-4.464118775994675e-14,-4.4652086540718126e-14,284.16289103218116,-262.6609630477919,651.3661521862418,0.0001060365897742729,1.243994246943056e-18,9.8121898649875,1.5707963267948961,0.00010603658977590305,1.664656919938432e-16,4.0479369856014205e-21,-7.292114999989349e-05,2.0239684928007104e-20,262.6609630477919,337.78478581512195,1.1502211801503888,93741.84442399812,283.9165537989602,-115.36895468996535,-1.9586124599761753e-14,106.61657799862394,0.0,0.0,0.0,1.145586424286855,86116.674584531,386.95664555102894
2.3999999999998467,6378814.287297957,1821.125603121748,-1.1068924246304445e-13,6378814.508326926,704.7644446122952,-1.1068924246304445e-13,260.74911173279867,748.5962983629735,-4.451672314709566e-14,-4.4528059323354826e-14,283.3713326211554,-260.96282230400203,677.547259729135,0.000110485175705392,1.2961976044660347e-18,9.812109188590641,1.5707963267948966,0.00011048517570690521,1.6647924460125313e-16,4.0479369856014205e-21,-7.292114999989349e-05,2.0239684928007104e-20,260.96282230400203,337.6835591246084,1.147290564550149,93446.9690634567,283.74641217052675,-114.2408761657982,-1.9459785177035673e-14,105.18358293923748,0.0,0.0,0.0,1.1407969745968196,85129.48012195557,385.22338569400773
2.499999999999836,6378840.27728059,1895.9461998615138,-1.1513478282542358e-13,6378840.516918763,733.0652530835141,-1.1513478282542358e-13,259.0521545015419,747.816903219468,-4.4394297495540935e-14,-4.440606825096519e-14,282.5874843692747,-259.27441238869807,703.5590409955055,0.00011492139486980471,1.348255949432997e-18,9.812029034954138,1.5707963267948968,0.00011492139486971918,1.6650634973897981e-16,4.0479369856014205e-21,-7.292114999989349e-05,2.0239684928007104e-20,259.2744123886981,337.58295788388887,1.144384586970331,93154.74746237903,283.577372320615,-113.12943994449348,-1.9335515223671598e-14,103.77247665402017,0.0,0.0,0.0,1.1360427726883149,84157.41732151303,383.50370486714945
2.5999999999998247,6378866.09804911,1970.6892352541277,-1.1956814069818196e-13,6378866.357033723,761.2881530093352,-1.1956814069818196e-13,257.36480492348164,747.0450528031912,-4.427305584224063e-14,-4.428525838018395e-14,281.8112330152072,-257.5955850034851,729.4024616206796,0.00011934536746572032,1.4001716345216234e-18,9.811949401083309,1.570796326794897,0.00011934536746600132,1.6650634982526256e-16,4.0479369856014205e-21,-7.292114999989349e-05,2.0239684928007104e-20,257.5955850034851,337.48297889995854,1.1415030215562172,92865.15283790808,283.40942794700493,-112.03432366713625,-1.9212942238077292e-14,102.382830033173,0.0,0.0,0.0,1.1313233634980469,83200.1922720853,381.797426325853
2.6999999999998137,6378891.750556974,2045.3554582233141,-1.2398943288338125e-13,6378892.02962371,789.4338968183984,-1.2398943288338125e-13,255.6869172527846,746.2806364926968,-4.415298088530898e-14,-4.416561243175294e-14,281.0424674854537,-255.92619474966943,755.0784725697309,0.00012375721192990258,1.4519460275120994e-18,9.811870284028926,1.5707963267948963,0.00012375721193140531,1.6646569233277476e-16,4.0479369856014205e-21,-7.292114999989349e-05,2.0239684928007104e-20,255.92619474966943,337.38361902957723,1.138645645936588,92578.15883237457,283.24257284318986,-110.95521290038947,-1.9092034443475378e-14,101.0142244618736,0.0,0.0,0.0,1.1266383016684338,82257.51827801761,380.10437702903886
2.799999999999802,6378917.235743196,2119.9456067373517,-1.2839880410599653e-13,6378917.535626203,817.5032259590542,-1.2839880410599653e-13,254.01834857925698,745.5235457918682,-4.403445674019162e-14,-4.4047514542133347e-14,280.2810788406961,-254.2660990575209,780.588010392961,0.00012815704497160925,1.5035808231686293e-18,9.811791680886458,1.5707963267948966,0.00012815704497296537,1.6647924495229574e-16,4.0479369856014205e-21,-7.292114999989349e-05,2.0239684928007104e-20,254.26609905752093,337.2848751784076,1.1358122411579057,92293.73950506546,283.076800896709,-109.89180090371778,-1.897291808693838e-14,99.66625151121372,0.0,0.0,0.0,1.1219871513179147,81329.11564706943,378.4243875508353
2.899999999999792,6378942.554532644,2194.460408019007,-1.3279635074247416e-13,6378942.875964558,845.4968711097657,-1.3279635074247416e-13,252.35895875952207,744.7736742780532,-4.3916663459412414e-14,-4.3930144786321506e-14,279.5269602237152,-252.61515811760734,805.9319975324751,0.00013254498160569233,1.5550771500825394e-18,9.811713588795083,1.5707963267948968,0.0001325449816057604,1.6649279757479226e-16,4.0479369856014205e-21,-7.292114999989349e-05,2.0239684928007104e-20,252.61515811760734,337.1867442999531,1.1330025916140707,92011.86932356188,282.91210608714795,-108.84378840398594,-1.885524694384956e-14,98.3385126391737,0.0,0.0,0.0,1.1173694858187475,80414.71148518627,376.75729199486693
2.9999999999997806,6378967.707836322,2268.900578750352,-1.3718217402097785e-13,6378968.051548282,873.4155523843759,-1.3718217402097785e-13,250.7086103502147,744.0309175517148,-4.379998688189296e-14,-4.381388902502556e-14,278.7800068088333,-250.97323481414537,831.1113425969661,0.00013692113518491277,1.6064361936599297e-18,9.81163600493688,1.570796326794897,0.0001369211351852723,1.6650635020024158e-16,4.0479369856014205e-21,-7.292114999989349e-05,2.0239684928007104e-20,250.9732348141454,337.08922339461395,1.1302164849809664,91732.5231555692,282.74848248434665,-107.8108833780324,-1.873915028475563e-14,97.03061890205936,0.0,0.0,0.0,1.1127848875810042,79514.03949848753,375.1029279110635
3.0999999999997696,6378992.696551603,2343.266825272615,-1.4155638480729816e-13,6378993.063273273,901.2599795324137,-1.4155638480729816e-13,249.06716854311895,743.2951731875401,-4.36844109677838e-14,-4.369873123932885e-14,278.0401157528252,-249.3401946602878,856.1269406001628,0.00014128561743145595,1.6576592521658262e-18,9.81155892653606,1.5707963267948966,0.00014128561743285045,1.6646569271945598e-16,4.0479369856014205e-21,-7.292114999989349e-05,2.0239684928007104e-20,249.34019466028786,336.992309508883,1.1274537121552852,91455.67626128328,282.5859242468432,-106.79280084295262,-1.862459933479529e-14,95.74219067602617,0.0,0.0,0.0,1.1082329478424746,78626.83980221969,373.4611362148995
3.1999999999997586,6379017.521562509,2417.5598437812228,-1.4591909237837552e-13,6379017.912022098,929.0308521345652,-1.4591909237837552e-13,247.43450110218402,742.5663406869639,-4.3569919978708814e-14,-4.3584655711394856e-14,277.3071861472462,-247.71590573528826,880.9796732378841,0.00014563853846769306,1.7087476052594367e-18,9.81148235085812,1.5707963267948961,0.00014563853846953965,1.664521402961107e-16,4.0479369856014205e-21,-7.292114999989349e-05,2.0239684928007104e-20,247.7159057352883,336.8959997343875,1.1247140671906206,91181.30428545417,282.42442562006653,-105.78926265300692,-1.8511566018350063e-14,94.47285738758843,0.0,0.0,0.0,1.1037132664652238,77752.8587358239,371.8317611089792
3.299999999999748,6379042.183739974,2491.7803205161567,-1.5027044077503218e-13,6379042.598664248,956.7288597934553,-1.5027044077503218e-13,245.8104783023575,741.8443214320555,-4.3457254726732796e-14,-4.3472403272041725e-14,276.5811189721277,-246.1002386234752,905.6704091401131,0.00014998000684620432,1.7597029396933734e-18,9.811406275209048,1.5707963267948966,0.0001499800068465307,1.6647924545754138e-16,4.0479369856014205e-21,-7.292114999989349e-05,2.0239684928007104e-20,246.1002386234752,336.8002912070257,1.1219973472365499,90909.38324985282,282.2639809346925,-104.79999730356487,-1.840030945569141e-14,93.22225725337395,0.0,0.0,0.0,1.0992254517377695,76891.84868437661,370.2146500068883
3.399999999999737,6379066.68394208,2565.9289319477643,-1.546105390670169e-13,6379067.124056381,984.354682319866,-1.546105390670169e-13,244.19497287017228,741.1290186407269,-4.334488558851162e-14,-4.3360444317619615e-14,275.8618170509989,-244.49306635497396,930.2000041219354,0.00015431012957908645,1.8105265327005793e-18,9.811330696934572,1.5707963267948974,0.0001543101295793081,1.6651990314917118e-16,4.0479369856014205e-21,-7.292114999989349e-05,2.0239684928007104e-20,244.49306635497396,336.7051811061043,1.1193033524792624,90639.8895458719,282.10458460500695,-103.82473974157256,-1.829022721501499e-14,91.9900370285451,0.0,0.0,0.0,1.0947691201830057,76043.56790597718,368.60965345924063
3.4999999999997256,6379091.023014293,2640.0063449581517,-1.589394525412889e-13,6379091.489042561,1011.9089899145588,-1.589394525412889e-13,242.58785992603129,740.4203373232153,-4.3233555916052237e-14,-4.3249522221074195e-14,275.14918500719256,-242.89426434812853,954.5693014140397,0.00015862901216656217,1.8612191488070223e-18,9.81125561341942,1.570796326794897,0.00015862901216753957,1.665063507343745e-16,4.0479369856014205e-21,-7.292114999989349e-05,2.0239684928007104e-20,242.8942643481286,336.6106666535527,1.1166318860847642,90372.79992746837,281.9462311274016,-102.86323118248886,-1.8181582418132606e-14,90.77585176373476,0.0,0.0,0.0,1.0903438963714291,75207.78036500062,367.0166250818432
3.5999999999997145,6379115.201789718,2714.0132170183097,-1.6325728441202822e-13,6379115.694454503,1039.3924433457873,-1.6325728441202822e-13,240.9890169281281,739.7181842397964,-4.312325110653347e-14,-4.3139622398632366e-14,274.4431292213842,-241.30371035355256,978.7791319125206,0.00016293675862491072,1.911781996675531e-18,9.811181022086553,1.5707963267948961,0.00016293675862734025,1.6641148315834728e-16,4.0479369856014205e-21,-7.292114999989349e-05,2.0239684928007104e-20,241.30371035355256,336.51674511306015,1.1139827541410536,90108.09150400819,281.7889150787452,-101.91521893304352,-1.8074349593114887e-14,89.57936456981001,0.0,0.0,0.0,1.0859494127399685,74384.25557069648,365.43542148590524
3.699999999999704,6379139.221089324,2787.9501963610337,-1.6756413644655672e-13,6379139.7411118075,1066.8056941225968,-1.6756413644655672e-13,239.39832361795877,739.0224678596925,-4.301395682455059e-14,-4.303073053358517e-14,273.74355779033203,-239.72128439976836,1002.8303144093783,0.00016723347151375082,1.962216268025878e-18,9.811106920396455,1.5707963267948966,0.000167233471514332,1.6642503580373222e-16,4.0479369856014205e-21,-7.292114999989349e-05,2.0239684928007104e-20,239.72128439976836,336.423413789284,1.1113557656029236,89845.74173343493,281.63263111487976,-100.98045621999242,-1.7968503874140905e-14,88.40024639052504,0.0,0.0,0.0,1.081585309415785,73572.76842122282,363.86590221023386
3.799999999999693,6379163.081722161,2861.8179221498203,-1.7186012617275973e-13,6379163.629822167,1094.1493846641042,-1.7186012617275973e-13,237.81566196736188,738.3330983211273,-4.290601671739728e-14,-4.292319029093389e-14,273.05038048676187,-238.1468687403653,1026.7236558003099,0.00017151925196266907,2.012523339137818e-18,9.811033305846491,1.570796326794897,0.00017151925196281918,1.664927985613187e-16,4.0479369856014205e-21,-7.292114999989349e-05,2.0239684928007104e-20,238.1468687403653,336.33067002714495,1.1087507322403207,89585.72841579313,281.47737396926465,-100.05870202466589,-1.786415205136118e-14,87.2381757827765,0.0,0.0,0.0,1.0772512340447742,72773.09905292449,362.30792965533027
3.8999999999996815,6379186.784485576,2935.6170246438164,-1.7614537054505151e-13,6379187.361381588,1121.4241484648273,-1.7614537054505151e-13,236.2409161270455,737.6499873925042,-4.2799054394566804e-14,-4.28166252975282e-14,272.36350872039014,-236.58034780265032,1050.4599513106675,0.00017579419969723778,2.0627045795756192e-18,9.810960175970203,1.570796326794897,0.00017579419969782073,1.66506351212284e-16,4.0479369856014205e-21,-7.292114999989349e-05,2.0239684928007104e-20,236.58034780265032,336.2385112110484,1.106167468585055,89328.02968665738,281.32313845150316,-99.14972092270591,-1.7761135862345535e-14,86.09283870384233,0.0,0.0,0.0,1.0729468416252017,71985.0326943782,360.7613690193534
3.9999999999996714,6379210.330165456,3009.34812535895,-1.8041995057000693e-13,6379210.936574642,1148.630610256164,-1.8041995057000693e-13,234.67397237654595,736.9730484346535,-4.269270650001492e-14,-4.271067221564063e-14,271.68285550001355,-235.02160813772215,1074.0399847361773,0.00018005841306443205,2.1127609379457243e-18,9.810887528336556,1.5707963267948968,0.00018005841306609012,1.6649279881123938e-16,4.0479369856014205e-21,-7.292114999989349e-05,2.0239684928007104e-20,235.02160813772218,336.1469347640462,1.1036057918768405,89072.62401050435,281.1699194457721,-98.25328292882278,-1.765930574386206e-14,84.9639283053653,0.0,0.0,0.0,1.0686717943461783,71208.35952504478,359.22608823585983
4.099999999999704,6379233.719536407,3083.011837225304,-1.8468394370324403e-13,6379234.35617462,1175.7693861641374,-1.8468394370324403e-13,233.11471907557703,736.3021963641299,-4.258731435906845e-14,-4.260567238865521e-14,271.0083353966575,-233.47053837193457,1097.4645286087186,0.00018431198905744656,2.1626933212720153e-18,9.810815360549432,1.5707963267948966,0.00018431198905904703,1.664521413581024e-16,4.0479369856014205e-21,-7.292114999989349e-05,2.0239684928007104e-20,233.4705383719346,336.05593814728724,1.101065522018198,88819.49017499729,281.0177119097404,-97.36916334726351,-1.755876903326635e-14,83.85114473459198,0.0,0.0,0.0,1.0644257614297783,70442.87453899477,357.70195791328507
4.199999999999737,6379256.953361965,3156.608764740922,-1.889374448637215e-13,6379257.620943773,1202.841083863539,-1.889374448637215e-13,231.5630466167217,735.6373476175157,-4.248286488288688e-14,-4.250161274476978e-14,270.339864507731,-231.9270291596963,1120.7343444279581,0.00018855502333995933,2.2125028410782884e-18,9.810743670246927,1.5707963267948974,0.00018855502334042706,1.6650635159936101e-16,4.0479369856014205e-21,-7.292114999989349e-05,2.0239684928007104e-20,231.9270291596963,335.9655188592101,1.0985464815226609,88568.60728465073,280.8665108730581,-96.49714262641994,-1.7459503653256823e-14,82.75419494141717,0.0,0.0,0.0,1.0602084189783572,69688.37741253171,356.18885127609474
4.299999999999771,6379280.032394832,3230.139504122055,-1.9318054767318128e-13,6379280.731633519,1229.8463027285156,-1.9318054767318128e-13,230.01884737942504,734.9784201167009,-4.237934521507278e-14,-4.2398480444313886e-14,269.6773604221578,-230.3909731375694,1143.8501828759552,0.00019278761026981736,2.2621905936976194e-18,9.81067245510066,1.5707963267948977,0.00019278761027018387,1.6656056184336876e-16,4.0479369856014205e-21,-7.292114999989349e-05,2.0239684928007104e-20,230.3909731375694,335.8756744347993,1.096048495465556,88319.95475477647,280.71631143595704,-95.63700621822149,-1.7361488039604353e-14,81.6727924917187,0.0,0.0,0.0,1.0560194498258986,68944.67237615121,354.6866441075528
4.399999999999804,6379302.957377024,3303.604643449995,-1.9741334447912705e-13,6379303.688984619,1256.7856339797418,-1.9741334447912705e-13,228.4820156852456,734.325333235114,-4.227674272638937e-14,-4.2296262874473623e-14,269.0207421864762,-228.86226487962762,1166.812783981803,0.00019700984292220604,2.311757660541447e-18,9.81060171281527,1.5707963267948974,0.00019700984292295306,1.6650635187075648e-16,4.0479369856014205e-21,-7.292114999989349e-05,2.0239684928007104e-20,228.86226487962765,335.7864024450336,1.0935713914410214,88073.51230605827,280.56710876817607,-94.78854444245567,-1.7264701127407056e-14,80.60665738701542,0.0,0.0,0.0,1.05185854339291,68211.56809090282,353.1952146940737
4.4999999999998375,6379325.729040096,3377.0047628145826,-2.0163592637728178e-13,6379326.493727375,1283.659660828248,-2.0163592637728178e-13,226.95244775432516,733.6780077648616,-4.217504500962091e-14,-4.219494764415781e-14,268.3699302718397,-227.34080085402618,1189.6228773282855,0.0002012218131122791,2.3612051083625585e-18,9.810531441127786,1.5707963267948966,0.00020122181311416055,1.6643858937324834e-16,4.0479369856014205e-21,-7.292114999989349e-05,2.0239684928007104e-20,227.34080085402616,335.69770049616955,1.091114999514797,87829.25995876094,280.4188981076136,-93.95155235495837,-1.716912233770341e-14,79.55551588946794,0.0,0.0,0.0,1.0477253955457768,67488.87752836183,351.714443771077
4.599999999999871,6379348.348105302,3450.3404344544624,-2.0584838323353935e-13,6379349.14658181,1310.468958615999,-2.0584838323353935e-13,225.43004166303842,733.036365884759,-4.2074239874572124e-14,-4.209452257900399e-14,267.7248465419161,-225.8264793807505,1212.2811822346864,0.00020542361141727693,2.4105339895121485e-18,9.810461637807055,1.5707963267948968,0.00020542361141839046,1.664385895154403e-16,4.0479369856014205e-21,-7.292114999989349e-05,2.0239684928007104e-20,225.8264793807505,335.6095662291142,1.0886791521802122,87587.17802728266,280.27167475913484,-93.1258296201615,-1.707473156454433e-14,78.51910035256672,0.0,0.0,0.0,1.043619708459706,66776.41785453307,350.24421447032086
4.699999999999904,6379370.815283817,3523.612222894211,-2.100508037054218e-13,6379371.648257881,1337.2140949533243,-2.100508037054218e-13,223.91469730278737,732.4003311292179,-4.1974315343201664e-14,-4.199497571651678e-14,267.0854142216443,-224.3192005905043,1234.7884079577684,0.0002096153271981568,2.4597453421910832e-18,9.810392300653122,1.5707963267948974,0.00020961532719837147,1.6651990482494167e-16,4.0479369856014205e-21,-7.292114999989349e-05,2.0239684928007104e-20,224.3192005905043,335.52199731872696,1.0862636843130367,87347.24711459753,280.1254340932617,-92.31118038745109,-1.698150916243621e-14,77.49714905696922,0.0,0.0,0.0,1.039541190485612,66074.01031726396,348.7844122686533
4.799999999999938,6379393.131276871,3596.820685078344,-2.142432752630564e-13,6379393.999455614,1363.8956298532469,-2.142432752630564e-13,222.40631633990023,731.7698283579643,-4.187525964488559e-14,-4.189629530133752e-14,266.4515578668297,-222.81886638470198,1257.1452538348408,0.00021379704862072848,2.5088401906955557e-18,9.810323427496773,1.5707963267948977,0.00021379704862086113,1.6654701002729265e-16,4.0479369856014205e-21,-7.292114999989349e-05,2.0239684928007104e-20,222.818866384702,335.43499147334353,1.0838684331330355,87109.44810739686,279.9801715452379,-91.50741317189143,-1.6889435934269255e-14,76.48940605188756,0.0,0.0,0.0,1.0354895560199298,65381.48013753853,347.3349249381446
4.899999999999971,6379415.296775974,3669.9663705023927,-2.184258842096865e-13,6379416.200865323,1390.5141158628387,-2.184258842096865e-13,220.90480217660567,731.144783726569,-4.1777061211806836e-14,-4.1798469780639997e-14,265.82320333455095,-221.32538039653542,1279.3524095040411,0.00021796886267632436,2.5578195456572644e-18,9.810255016198871,1.5707963267948974,0.0002179688626769684,1.6650635259485481e-16,4.0479369856014205e-21,-7.292114999989349e-05,2.0239684928007104e-20,221.32538039653545,335.34854643399785,1.0814932381573783,86873.76217048695,279.83588261359426,-90.71434073794082,-1.67984931194896e-14,75.49562100079997,0.0,0.0,0.0,1.0314645253788657,64698.65640363935,345.89564249755625
5.000000000000004,6379437.312463037,3743.049821341033,-2.2259871570172683e-13,6379438.253167744,1417.070098191657,-2.2259871570172683e-13,219.4100599130441,730.5251246577462,-4.167970867446665e-14,-4.170148779964675e-14,265.2002777543429,-219.8386479530722,1301.4105550315082,0.00022213085520201033,2.6066844042782727e-18,9.810187064649947,1.5707963267948966,0.0002221308552038185,1.6646569516487798e-16,4.0479369856014205e-21,-7.292114999989349e-05,2.0239684928007104e-20,219.83864795307218,335.2626599740047,1.0791379411651798,86640.17074225482,279.69256285931726,-89.9317799875778,-1.6708662382787336e-14,74.5155490326156,0.0,0.0,0.0,1.0274658246749078,64025.371969168315,344.4664571650964
5.100000000000038,6379459.179010572,3816.0715725734103,-2.2676185376837536e-13,6379460.157034224,1443.5641148373554,-2.2676185376837536e-13,217.92199631028683,729.9107798134202,-4.158319085731448e-14,-4.160533819726488e-14,264.5827095001471,-218.35857603836203,1323.3203611055465,0.0002262831109003551,2.655435750560661e-18,9.810119570769611,1.5707963267948966,0.00022628311090170075,1.664521427923486e-16,4.0479369856014205e-21,-7.292114999989349e-05,2.0239684928007104e-20,218.35857603836206,335.1773298982797,1.0768023861549825,86408.65552949636,279.5502079045837,-89.15955185125974,-1.6619925803020347e-14,73.54895059690469,0.0,0.0,0.0,1.02349318569744,63361.463353771884,343.04726331243245
5.200000000000071,6379480.897081868,3889.0321521056817,-2.3091538133079455e-13,6379481.9131269,1469.9966967084897,-2.3091538133079455e-13,216.4405197543319,729.3016790675188,-4.1487496774492086e-14,-4.151001000183455e-14,263.9704281629885,-216.88507325751348,1345.0824892103524,0.0002304257133587474,2.704074555531152e-18,9.81005253250601,1.5707963267948974,0.0002304257133587317,1.664928005323567e-16,4.0479369856014205e-21,-7.292114999989349e-05,2.0239684928007104e-20,216.88507325751348,335.0925540427368,1.074486419305021,86179.19850253679,279.4088134316275,-88.39748118238732,-1.6532265862507485e-14,72.59559132370298,0.0,0.0,0.0,1.0195463457962792,62706.77064702928,341.6379574199109
5.300000000000105,6379502.467331092,3961.93208089089,-2.350593802208726e-13,6379503.522098802,1496.3683677446954,-2.350593802208726e-13,214.96554022104527,728.6977534794796,-4.139261562568918e-14,-4.1415492426989916e-14,263.3633645243787,-215.41804980171838,1366.6975917372913,0.00023455874506831393,2.7526017774608037e-18,9.809985947835468,1.5707963267948977,0.00023455874506819873,1.6656056332998354e-16,4.0479369856014205e-21,-7.292114999989349e-05,2.0239684928007104e-20,215.41804980171835,335.0083302739279,1.072189888940752,85951.78189107943,279.26837518201296,-87.64539665552007,-1.6445665436748192e-14,71.65524188802554,0.0,0.0,0.0,1.015625047767575,62061.13741565245,340.23843803296035
5.400000000000138,6379523.890403521,4034.7718730462193,-2.3919393119957577e-13,6379524.984594078,1522.6796450341835,-2.3919393119957577e-13,213.4969692420194,728.0989352684421,-4.129853679210633e-14,-4.132177486762754e-14,262.76145053039465,-213.95741741418934,1388.1663121995002,0.0002386822874424037,2.801018362079918e-18,9.809919814761844,1.5707963267948977,0.0002386822874427877,1.6662832613020973e-16,4.0479369856014205e-21,-7.292114999989349e-05,2.0239684928007104e-20,213.9574174141894,334.92465648827744,1.0699126454916144,85726.3881790346,279.12888895523616,-86.90313066676477,-1.6360107784283305e-14,70.72767787773878,0.0,0.0,0.0,1.0117290397438996,61424.41061285547,338.8486057196216
5.500000000000171,6379545.166935655,4107.552035967704,-2.4331911397490086e-13,6379546.301248111,1548.9310389287293,-2.4331911397490086e-13,212.03471987132173,727.5051577881123,-4.120524983252265e-14,-4.1228846895978583e-14,262.1646192664447,-212.50308935698615,1409.489285359061,0.00024279642083468224,2.849325242788278e-18,9.809854131316138,1.570796326794897,0.0002427964208361082,1.6649280101968889e-16,4.0479369856014205e-21,-7.292114999989349e-05,2.0239684928007104e-20,212.50308935698615,334.8415306116567,1.0676545414577887,85503.00010033787,278.9903506078949,-86.17051923792313,-1.627557653700211e-14,69.81267966603663,0.0,0.0,0.0,1.0078580750862245,60796.44049099677,337.4683630291933
5.600000000000205,6379566.297555367,4180.273070442453,-2.474350072194422e-13,6379567.472687676,1575.123053156149,-2.474350072194422e-13,210.57870665310614,726.9163555022698,-4.111274447946445e-14,-4.113669825778235e-14,261.57280493267234,-211.05498037870223,1430.6671373734744,0.00024690122455683423,2.8975233408608485e-18,9.809788895555997,1.5707963267948968,0.0002469012245590141,1.6642503854917786e-16,4.0479369856014205e-21,-7.292114999989349e-05,2.0239684928007104e-20,211.05498037870223,334.75895059888126,1.0654154313752529,85281.60063462995,278.85275605273347,-85.44740192333879,-1.6192055690706964e-14,68.91003228759925,0.0,0.0,0.0,1.0040119122789148,60177.08051672143,336.0976144519393
5.700000000000238,6379587.282882062,4252.93547075846,-2.5154168858757774e-13,6379588.499531083,1601.256184930368,-2.5154168858757774e-13,209.12884559005954,726.3324639609076,-4.102101063547233e-14,-4.1045318868557985e-14,260.98594281999766,-209.61300668298446,1451.7004859455437,0.0002509967768958773,2.9456135656490403e-18,9.809724105565312,1.5707963267948974,0.0002509967768965283,1.6647924882919383e-16,4.0479369856014205e-21,-7.292114999989349e-05,2.0239684928007104e-20,209.6130066829845,334.6769144331933,1.0631951717808907,85062.17300296386,278.71610125766455,-84.73362171949398,-1.6109529595953557e-14,68.01952531842389,0.0,0.0,0.0,1.0001903148274942,59566.18728861904,334.7362663798346
5.800000000000272,6379608.123526808,4325.539724812059,-2.5563923473228843e-13,6379609.38238833,1627.3309250591203,-2.5563923473228843e-13,207.68505411266062,725.7534197769745,-4.093003836946314e-14,-4.095469880997013e-14,260.40396928676046,-208.1770858978614,1472.5899404755264,0.00025508315513111956,2.993596814777666e-18,9.809659759453696,1.5707963267948974,0.0002550831551307321,1.6650635405653013e-16,4.0479369856014205e-21,-7.292114999989349e-05,2.0239684928007104e-20,208.1770858978614,334.5954201257334,1.060993621177964,84844.70066355195,278.5803822447775,-84.02902497726922,-1.602798294915798e-14,67.14095275921069,0.0,0.0,0.0,0.9963930511590556,58963.62045731696,333.3842270683127
5.900000000000305,6379628.82009249,4398.08631421308,-2.597277213216177e-13,6379630.12186123,1653.347758049348,-2.597277213216177e-13,206.24725104922737,725.1791606037177,-4.083981791318471e-14,-4.086482832628908e-14,259.82682173597385,-206.74713704586358,1493.3361021849007,0.00025916043555073164,3.0414739743376783e-18,9.80959585535613,1.5707963267948977,0.0002591604355502953,1.6653345928631074e-16,4.0479369856014205e-21,-7.292114999989349e-05,2.0239684928007104e-20,206.7471370458636,334.5144657151226,1.05881064000462,84629.16730786915,278.4455950895307,-83.33346131703767,-1.5947400784012006e-14,66.27411292239138,0.0,0.0,0.0,0.9926198945249304,58369.24264811006,332.0414065989956
6.000000000000338,6379649.373173958,4470.575714387765,-2.638072230547805e-13,6379650.718543573,1679.3071622103485,-2.638072230547805e-13,204.81535659672636,724.609625112589,-4.0750339657760053e-14,-4.077569782093898e-14,259.25443859313515,-205.32308051489892,1513.9395642810077,0.000263228693467985,3.089245919074821e-18,9.809532391432434,1.5707963267948974,0.00026322869346821363,1.6647924935276798e-16,4.0479369856014205e-21,-7.292114999989349e-05,2.0239684928007104e-20,205.32308051489892,334.4340492668814,1.05664609059895,84415.55685638991,278.31173591967774,-82.6467835459132,-1.586776846308482e-14,65.41880832221023,0.0,0.0,0.0,0.988870622906279,57782.919385630776,330.70771684335864
6.100000000000372,6379669.783358142,4543.0083946795185,-2.6787781367793267e-13,6379671.173021253,1705.2096097547653,-2.6787781367793267e-13,203.38929229232562,724.0447529717175,-4.0661594150318806e-14,-4.068729785313335e-14,258.6867592846095,-203.9048380298712,1534.400912081954,0.00026728800323714164,3.136913512574283e-18,9.809469365866898,1.5707963267948968,0.0002672880032386409,1.6642503942146662e-16,4.0479369856014205e-21,-7.292114999989349e-05,2.0239684928007104e-20,203.9048380298712,334.3541688730056,1.0544998371683767,84203.85345479721,278.17880091445335,-81.96884757775652,-1.578907166973348e-14,64.57484556829279,0.0,0.0,0.0,0.9851450189216466,57204.51902096464,329.3830714273196
6.200000000000405,6379690.051224184,4615.384818447514,-2.7193956599960604e-13,6379691.485872375,1731.055566897426,-2.7193956599960604e-13,201.9689809856651,723.4844848249096,-4.057357209071264e-14,-4.059961913459493e-14,258.1237242165478,-202.4923326250174,1554.720723125616,0.00027133843826900657,3.1844776074414514e-18,9.809406776867927,1.570796326794897,0.00027133843827049534,1.6647924971362883e-16,4.0479369856014205e-21,-7.292114999989349e-05,2.0239684928007104e-20,202.4923326250174,334.2748226516001,1.0523717457612034,83994.04147041039,278.0467863038612,-81.29951235563695,-1.5711296400272848e-14,63.742035262417915,0.0,0.0,0.0,0.9814428697366512,56633.91266098242,328.0673856967093
6.300000000000439,6379710.177343574,4687.7054431632305,-2.759925519058196e-13,6379711.657667408,1756.8454939520993,-2.759925519058196e-13,200.5543468118266,722.9287622711851,-4.048626432831294e-14,-4.0512652526356683e-14,257.565274754332,-201.08548861693725,1574.8995673195213,0.00027538007104615603,3.2319390454788723e-18,9.809344622667588,1.570796326794897,0.00027538007104657486,1.6647924989755791e-16,4.0479369856014205e-21,-7.292114999989349e-05,2.0239684928007104e-20,201.08548861693723,334.1960087463522,1.0502616842339405,83786.10548824453,277.91568836769727,-80.63863977621797,-1.5634428956309532e-14,62.920191898026715,0.0,0.0,0.0,0.977763966976414,56070.97409949915,326.7605766836079
6.400000000000472,6379730.162280293,4759.970720504978,-2.800368423748757e-13,6379731.688969318,1782.5798454262324,-2.800368423748757e-13,199.1453151649825,722.3775278448148,-4.039966185888795e-14,-4.042638903564307e-14,257.0113532025305,-199.68423157830435,1594.938007077107,0.0002794129731378387,3.2792986578595003e-18,9.809282901521183,1.5707963267948977,0.00027941297313762575,1.6658767030528112e-16,4.0479369856014205e-21,-7.292114999989349e-05,2.0239684928007104e-20,199.68423157830435,334.11772532605846,1.048169522221052,83580.03030726494,277.78550343466094,-79.98609461643767,-1.5558455937317484e-14,62.10913376272896,0.0,0.0,0.0,0.9741081066400128,55515.579750505654,325.4625630735127
6.500000000000505,6379750.006590912,4832.181096450445,-2.84072507491845e-13,6379751.580333675,1808.259070113723,-2.84072507491845e-13,197.7418126727014,721.8307249958553,-4.031375582155715e-14,-4.0340819812828474e-14,256.4619027853549,-198.28848831223232,1614.836597425586,0.00028343721521457407,3.3265572652963436e-18,9.809221611706917,1.5707963267948977,0.00028343721521439436,1.6653346038314369e-16,4.0479369856014205e-21,-7.292114999989349e-05,2.0239684928007104e-20,198.28848831223232,334.03997058425927,1.0460951311074351,83375.80093698697,277.65622788165155,-79.34174446252946,-1.5483364233471546e-14,61.30868284379523,0.0,0.0,0.0,0.9704750890167528,54967.608583486544,324.1732651733225
6.600000000000539,6379769.71082473,4904.337011367317,-2.880996164627541e-13,6379771.332308791,1833.8836111857452,-2.880996164627541e-13,196.34376717089467,721.2882980711603,-4.022853749582062e-14,-4.025593614847036e-14,255.9168676275915,-196.89818682727883,1634.595886134258,0.00028745286706245,3.373715678208593e-18,9.809160751525507,1.570796326794897,0.00028745286706263333,1.6645214540773655e-16,4.0479369856014205e-21,-7.292114999989349e-05,2.0239684928007104e-20,196.89818682727886,333.96274273879317,1.0440383839993,83173.40259391507,277.5278581329312,-78.70545964091201,-1.5409141018654103e-14,60.51866473622982,0.0,0.0,0.0,0.966864718604718,54426.94206048186,322.8926048801024
6.700000000000572,6379789.275523884,4976.438900102037,-2.9211823762847857e-13,6379790.94543582,1859.4539062797198,-2.9211823762847857e-13,194.95110767938317,720.7501922958622,-4.014399829866134e-14,-4.017172947041485e-14,255.37619273600598,-195.51325631306972,1654.216413828054,0.00029145999759711845,3.4207746968843023e-18,9.809100319299805,1.5707963267948966,0.00029145999759816037,1.6639793548987602e-16,4.0479369856014205e-21,-7.292114999989349e-05,2.0239684928007104e-20,195.51325631306975,333.886040031408,1.0419991556972164,82972.82069818284,277.4003906593845,-78.0771131511698,-1.5335773743684054e-14,59.73890855355936,0.0,0.0,0.0,0.9632768040311688,53893.464075031654,321.6205056506163
6.800000000000606,6379808.7012234675,5048.487192066712,-2.961284384783469e-13,6379810.420248882,1884.9703875864554,-2.961284384783469e-13,193.56376437806674,720.2163537552999,-4.006012978171781e-14,-4.0088191340973344e-14,254.83982398119684,-194.1336271165234,1673.6987141022207,0.00029545867487750497,3.467735111639714e-18,9.809040313374476,1.5707963267948968,0.00029545867487895883,1.6645214579612598e-16,4.0479369856014205e-21,-7.292114999989349e-05,2.0239684928007104e-20,194.1336271165234,333.80986072736516,1.03997732266885,82774.04087022912,277.27382197777024,-77.45658060092677,-1.5263250129735785e-14,58.969246841148035,0.0,0.0,0.0,0.9597111579748796,53367.06089285234,320.35689247159416
6.900000000000639,6379827.988451669,5120.482311324265,-3.001302856634701e-13,6379829.7572752135,1910.4334819353871,-3.001302856634701e-13,192.1816685836819,719.686729377391,-3.997692362852609e-14,-4.0005313454167534e-14,254.30770807989043,-192.759230718662,1693.0433136710644,0.0002994489661192255,3.514597702975342e-18,9.808980732115513,1.570796326794897,0.0002994489661198154,1.6647925104921977e-16,4.0479369856014205e-21,-7.292114999989349e-05,2.0239684928007104e-20,192.75923071866197,333.7342031149112,1.0379727630190192,82577.04892717495,277.1481486497522,-76.8437401423024,-1.5191558161892793e-14,58.20951549176941,0.0,0.0,0.0,0.9561675970907448,52847.62109401753,319.10169183071974
7.000000000000672,6379847.137729846,5192.424676671825,-3.041238450097949e-13,6379848.957035209,1935.8436108782842,-3.041238450097949e-13,190.80475272712636,719.1612669154299,-3.9894371651827975e-14,-3.9923087633040916e-14,253.7797925776727,-191.38999971198893,1712.2507324235917,0.00030343093770775247,3.561363241728824e-18,9.808921573910087,1.5707963267948977,0.00030343093770792345,1.6656056641572872e-16,4.0479369856014205e-21,-7.292114999989349e-05,2.0239684928007104e-20,191.38999971198896,333.6590655051109,1.035985356469337,82381.8308801954,277.02336728153483,-76.23847241087475,-1.5120686083023615e-14,57.459553664100774,0.0,0.0,0.0,0.9526459419351808,52335.0355172656,317.85483168831956
7.100000000000706,6379866.149572659,5264.314701722401,-3.0810918193156155e-13,6379868.020042595,1961.201190771061,-3.0810918193156155e-13,189.43295033133847,718.6399149312991,-3.981248023259456e-14,-3.982878122200334e-14,253.25602583212688,-190.02586777841998,1731.3214835767956,0.00030740465521129586,3.608032493916621e-18,9.808862837166043,1.5707963267948977,0.0003074046552112714,1.1104941276378023e-16,4.0479369856014205e-21,-7.292114999989349e-05,2.0239684928007104e-20,190.02586777842,333.58444623129793,1.0340149843281647,82188.3729309399,276.8994745228647,-75.64066046560639,-1.3996470923926009e-14,56.71920370293626,0.0,0.0,0.0,0.9491460168943776,51829.197205359,316.61624144972166
7.200000000000739,6379885.024488172,5336.152794984955,-3.120863625879579e-13,6379886.946804506,1986.5066328540547,-3.120863625879579e-13,188.06619598971284,718.1226227790852,-3.973123861197442e-14,-3.974773692729517e-14,252.73635699638396,-188.66676966774904,1750.2560737653585,0.000311370183393427,3.654606234278706e-18,9.808804520311643,1.5707963267948977,0.0003113701833937639,1.1104941290002504e-16,4.0479369856014205e-21,-7.292114999989349e-05,2.0239684928007104e-20,188.66676966774907,333.51034364877364,1.0320615294675743,81996.66146864512,276.77646706644475,-75.05018973093559,-1.3919402020995856e-14,55.9883110619967,0.0,0.0,0.0,0.9456676501135666,51330.0013523091,315.3858519382739
7.300000000000771,6379903.762977975,5407.939359942785,-3.1605545066757844e-13,6379905.737821601,2011.7603433305746,-3.1605545066757844e-13,186.70442534504073,717.6093405890822,-3.965062740397119e-14,-3.96673222198387e-14,252.22073600305785,-187.31264117663758,1769.0550031620116,0.00031532758622544065,3.701085208623809e-18,9.808746621795187,1.570796326794897,0.0003153275862265873,1.1096809787075267e-16,4.0479369856014205e-21,-7.292114999989349e-05,2.0239684928007104e-20,187.3126411766376,333.43675613438387,1.030124876297425,81806.68306697841,276.65434164715015,-74.4669479402441,-1.3843235018590781e-14,55.26672422871271,0.0,0.0,0.0,0.9422106734282903,50837.3452519141,314.1635953689978
7.400000000000806,6379922.365537253,5479.674795130374,-3.200165088257258e-13,6379924.393588155,2036.9627234439497,-3.200165088257258e-13,185.34757506895642,717.1000192521828,-3.9570638909071563e-14,-3.958752940215379e-14,251.70911354857247,-185.96341912810817,1787.7187655479343,0.0003192769268984798,3.74747015066057e-18,9.808689140084793,1.5707963267948968,0.00031927692690054976,1.1091388789842345e-16,4.0479369856014205e-21,-7.292114999989349e-05,2.0239684928007104e-20,185.96341912810817,333.3636820862909,1.0282049107444402,81618.4244814283,276.5330950415677,-73.89082508126697,-1.3767956980241574e-14,54.5542946513684,0.0,0.0,0.0,0.938774922296751,50351.12824798314,312.94940532286205
7.500000000000839,6379940.832654919,5551.359494208716,-3.239695989536104e-13,6379942.914592179,2062.114169553019,-3.239695989536104e-13,183.995582841879,716.5946104046341,-3.9491265544530144e-14,-3.950835089348936e-14,251.2014410778549,-184.61904135153432,1806.2478484558226,0.00032321826783541103,3.793761785149919e-18,9.808632073667972,1.5707963267948968,0.0003232182678370238,1.1094099309458458e-16,4.0479369856014205e-21,-7.292114999989349e-05,2.0239684928007104e-20,184.61904135153435,333.29111992345975,1.026301520224786,81431.87264600063,276.41272406706446,-73.3217133424693,-1.3693555237224215e-14,53.850876667855005,0.0,0.0,0.0,0.9353602357345296,49871.25168557042,311.7432167216577
7.600000000000873,6379959.164813703,5622.993846039043,-3.2791478218990876e-13,6379961.3013155,2087.2150732060363,-3.2791478218990876e-13,182.6483873334326,716.0930664131536,-3.941249984203849e-14,-3.942977922749239e-14,250.69767076938516,-183.27944666310344,1824.6427332448304,0.00032715167070245893,3.8399608280404415e-18,9.808575421051357,1.5707963267948974,0.00032715167070317624,1.1102230840377522e-16,4.0479369856014205e-21,-7.292114999989349e-05,2.0239684928007104e-20,183.27944666310347,333.21906808541047,1.0244145936235112,81247.01467064377,276.2932255812978,-72.75950706139554,-1.3620017382401687e-14,53.15632743675262,0.0,0.0,0.0,0.9319664562500568,49397.61886389508,310.5449658034472
7.700000000000906,6379977.362490263,5694.578234755193,-3.318521189320926e-13,6379979.5542339,2112.265821213198,-3.318521189320926e-13,181.30592818333656,715.5953403603979,-3.933433444544922e-14,-3.935180704993278e-14,250.19775552060824,-181.94457484675374,1842.903895217523,0.00033107719642060796,3.886067986601028e-18,9.808519180760376,1.5707963267948977,0.00033107719642077026,1.1104941360300773e-16,4.0479369856014205e-21,-7.292114999989349e-05,2.0239684928007104e-20,181.94457484675377,333.1475250318043,1.0225440212698071,81063.83783828764,276.1745964814535,-72.20410267412977,-1.3547331264177764e-14,52.47050687007317,0.0,0.0,0.0,0.92859342978206,48930.13499034748,309.354590098591
7.8000000000009395,6379995.426155239,5766.11303983446,-3.357816688475353e-13,6379997.673817132,2137.266795717688,-3.357816688475353e-13,179.96814598274713,715.1013860307695,-3.925676210855317e-14,-3.9274427116481015e-14,249.70164893368158,-180.61436663555833,1861.0318036698372,0.0003349949051767921,3.932083959550946e-18,9.808463351339089,1.5707963267948977,0.00033499490517673974,1.110765188037312e-16,4.0479369856014205e-21,-7.292114999989349e-05,2.0239684928007104e-20,180.61436663555833,333.07648924229215,1.0206896949200008,80882.32960259359,276.05683370391864,-71.65539866661415,-1.3475484980705863e-14,51.793277568185815,0.0,0.0,0.0,0.9252410056376936,48468.707136079945,308.1720284063169
7.900000000000973,6380013.356273407,5837.598636167111,-3.3970349088439443e-13,6380015.660529102,2162.218374265327,-3.3970349088439443e-13,178.63498225604127,714.611157896552,-3.9179775692908156e-14,-3.919763229053747e-14,249.2093053015497,-179.28876369355177,1879.0269220511825,0.0003389048564348503,3.978009437187278e-18,9.808407931349679,1.5707963267948977,0.00033890485643486775,1.1107651895006983e-16,4.0479369856014205e-21,-7.292114999989349e-05,2.0239684928007104e-20,179.2887636935518,333.0059592159299,1.01885150772859,80702.47758463648,275.9399342232391,-71.1132955264956,-1.3404466874106555e-14,51.12450475593092,0.0,0.0,0.0,0.9219090364332544,48013.24419226992,306.99722077181684
8.000000000001005,6380031.153303719,5909.035394124444,-3.436176432822837e-13,6380033.514827904,2187.120929872814,-3.436176432822837e-13,177.3063794430313,714.1246111043733,-3.910336816571851e-14,-3.9121415541112075e-14,248.72067959435438,-177.96770859798576,1896.8897080007762,0.0003428071089462582,4.023845101509879e-18,9.808352919372357,1.5707963267948974,0.00034280710894674343,1.1102230898600387e-16,4.0479369856014205e-21,-7.292114999989349e-05,2.0239684928007104e-20,177.96770859798576,332.9359334710784,1.0170293542332467,80524.26957086315,275.8238950518814,-70.57769569716307,-1.3334265525007831e-14,50.464056221103995,0.0,0.0,0.0,0.9185973780349304,47563.65682817173,305.83010846387316
8.10000000000095,6380048.817699435,5980.423679625601,-3.4752418358273304e-13,6380051.237165944,2211.9748310946775,-3.4752418358273304e-13,175.9822808815981,713.6417014619766,-3.9027532597763417e-14,-3.9045769940753276e-14,248.23572744614754,-176.65114482200283,1914.6206134804936,0.00034670172076067026,4.069591626343879e-18,9.808298314004931,1.570796326794897,0.0003467017207618013,1.1096809902318959e-16,4.0479369856014205e-21,-7.292114999989349e-05,2.0239684928007104e-20,176.65114482200283,332.8664105449237,1.0152231303293566,80347.69351011996,275.70871323936706,-70.04850353233209,-1.3264869747103057e-14,49.81180225409693,0.0,0.0,0.0,0.9153058895018849,47119.85744983607,304.67063395297697
8.200000000000895,6380066.349908182,6051.763854203001,-3.5142316863944466e-13,6380068.827990002,2236.780442088884,-3.5142316863944466e-13,174.66263079072849,713.1623854252945,-3.8952262161372735e-14,-3.8970688663524273e-14,247.75440514191277,-175.33901671771324,1932.2200848259629,0.00035058874923623977,4.115249677459785e-18,9.808244113862674,1.5707963267948968,0.0003505887492380828,1.1091388906161713e-16,4.0479369856014205e-21,-7.292114999989349e-05,2.0239684928007104e-20,175.33901671771324,332.79738899331755,1.0134327332535782,80172.73751153114,275.5943858719386,-69.52562525242239,-1.3196268581963332e-14,49.167615589568825,0.0,0.0,0.0,0.9120344330297286,46681.76016032902,303.51874088993515
8.30000000000084,6380083.750372047,6123.056275066547,-3.5531466856743557e-13,6380086.287741328,2261.538122681184,-3.5531466856743557e-13,173.3473742539512,712.6866200858269,-3.8877774819070994e-14,-3.889638967326729e-14,247.2766696048909,-174.03126949966915,1949.6885628544362,0.000354468251049745,4.160820075921277e-18,9.80819031757796,1.570796326794897,0.0003544682510506456,1.1096809932533672e-16,4.0479369856014205e-21,-7.292114999989349e-05,2.0239684928007104e-20,174.03126949966915,332.72886739039393,1.0116580615617345,79999.389841844,275.4809100718565,-69.008968901706,-1.3128513984024757e-14,48.53137134938861,0.0,0.0,0.0,0.9087828738958648,46249.280720751536,302.37437408495686
8.400000000000784,6380101.019527683,6194.301295166554,-3.591987334441862e-13,6380103.616855744,2286.24822842819,-3.591987334441862e-13,172.03645720315765,712.2143631582992,-3.8803614131180976e-14,-3.882241653212302e-14,246.80247838418347,-172.72784922872228,1967.0264829578966,0.00035834028220650834,4.206303408147673e-18,9.808136923799996,1.5707963267948977,0.00035834028220659215,1.1107651970268307e-16,4.0479369856014205e-21,-7.292114999989349e-05,2.0239684928007104e-20,172.72784922872228,332.6608443282431,1.009899015108506,79827.63892295508,275.3682829967925,-68.49844430669329,-1.306146959212155e-14,47.90294698716732,0.0,0.0,0.0,0.905551080405842,45822.33651236764,301.23747948719074
