time,eiPosition_m_X,eiPosition_m_Y,eiPosition_m_Z,gePosition_m_X,gePosition_m_Y,gePosition_m_Z,eiVelocity_m_s_X,eiVelocity_m_s_Y,eiVelocity_m_s_Z,feVelocity_m_s_X,feVelocity_m_s_Y,feVelocity_m_s_Z,altitudeMsl_m,longitude_rad,latitude_rad,localGravity_m_s2,eulerAngle_rad_Yaw,eulerAngle_rad_Pitch,eulerAngle_rad_Roll,bodyAngularRateWrtEi_rad_s_Roll,bodyAngularRateWrtEi_rad_s_Pitch,bodyAngularRateWrtEi_rad_s_Yaw,altitudeRateWrtMsl_m_s,speedOfSound_m_s,airDensity_kg_m3,ambientPressure_Pa,ambientTemperature_K,aero_bodyForce_N_X,aero_bodyForce_N_Y,aero_bodyForce_N_Z,aero_bodyMoment_Nm_L,aero_bodyMoment_Nm_M,aero_bodyMoment_Nm_N,mach,dynamicPressure_Pa,trueAirspeed_m_s,feVelocity_m_s_Z_1
0.0,6378137.000000001,0.0,0.0,6378137.000000001,0.0,0.0,304.80000000000007,465.10108489755,304.79999999999995,304.8,0.0,-304.8,0.0,0.0,0.0,9.81419735327356,0.0,-0.0,0.0,7.292114999999996e-05,0.0,2.79183632379757e-20,304.80000000000007,340.29371844685693,1.2250039125041485,101325.16165865559,288.15,-146.79529249781558,-0.0,146.79529249781558,0.0,0.0,0.0,1.2667065858840942,113806.58289375546,431.0519179787598,-304.8
0.0099999997764825,6378140.047006564,4.651010848978013,3.0474972274648175,6378140.047008261,-2.221910539998362e-06,3.0474972274648184,304.6013405419831,465.10108489838086,304.69946696457106,304.6993204439428,-0.0004443093334120071,-304.6018262663958,3.0470089946090604,-3.4836339804745646e-13,4.810235887556894e-07,9.81418796106085,2.246036126815427e-22,4.810235890717653e-07,3.483633979725888e-13,7.292114999999996e-05,4.081577607021832e-42,2.79183632379757e-20,304.6018262663958,340.2820234620917,1.2246456120406572,101288.56274632117,288.13019445102844,-146.63203372749257,0.00021381723233968898,146.58497507722467,0.0,0.0,0.0,1.2661291360855105,113661.7731651802,430.8406015651856,-304.6018262663958
0.0199999995529651,6378143.092027278,9.302021697972867,6.09398970128123,6378143.0920340605,-8.884737425228196e-06,6.09398970128123,304.40282805194283,465.1010849008677,304.59904789307274,304.5987550905568,-0.0008881829681306177,-304.4037993554142,6.09203699178237,-1.3929975068017412e-12,9.618889695997954e-07,9.81417857496792,1.4973583614607665e-22,9.61888969697215e-07,1.3929975066520061e-12,7.292114999999996e-05,8.163155214043664e-42,2.79183632379757e-20,304.4037993554142,340.2703356904017,1.2242876249692847,101251.99835833926,288.1104017975025,-146.46905163321753,0.0004270905638953156,146.3750238207324,0.0,0.0,0.0,1.2655521631240845,113517.22060596471,430.6294735466309,-304.4037993554142
0.0299999993294477,6378146.135063585,13.953032547000026,9.139478542238258,6378146.1350788465,-1.998412899386608e-05,9.139478542238258,304.2044593937145,465.101084904812,304.4987403589318,304.4983015134441,-0.0013316215231029202,-304.20591613062334,9.135085438935473,-3.1332190530970067e-12,1.4425945761259936e-06,9.814169194990289,1.4973606846512203e-22,1.4425945760178224e-06,3.1332190523483287e-12,7.292114999999996e-05,1.2244732821065495e-41,2.79183632379757e-20,304.2059161306234,340.25865512695236,1.223929950950396,101215.46845398315,288.09062202997694,-146.3063432865668,0.0006398214157076763,146.1654352824769,0.0,0.0,0.0,1.264975666999817,113372.91352659262,430.41856532226564,-304.20591613062334
0.0399999991059303,6378149.176116925,18.604043396073248,12.18396486477235,6378149.176144061,-3.55157394575599e-05,12.183964864772351,304.00623431897657,465.10108491005167,304.39854417479773,304.3979595246928,-0.00177462557992005,-304.00817634417086,12.17615577547348,-5.5683456872407485e-12,1.92314126211635e-06,9.814159821123488,1.3029786594138608e-27,1.923141262350233e-06,5.568345687240746e-12,7.292114999999996e-05,1.6326310428087327e-41,2.79183632379757e-20,304.00817634417086,340.2469817669389,1.2235725896454908,101178.97299266611,288.07085513905855,-146.1439080735707,0.000852011187225492,145.9562086439456,0.0,0.0,0.0,1.264399766921997,113228.85192706392,430.20781409375,-304.00817634417086
0.050000000745058,6378152.215188732,23.255054245204686,15.227449781448534,6378152.215231127,-5.547522885594845e-05,15.227449781448534,303.80815257996744,465.1010849164252,304.2984591537399,304.29772893706644,-0.002217195718369855,-303.81057974850887,15.215249426446437,-8.697695975877266e-12,2.4035290444357644e-06,9.814150453363101,8.409611620790045e-28,2.403529044348619e-06,8.697695975278327e-12,7.292114999999996e-05,2.040788803510916e-41,2.79183632379757e-20,303.8105797485089,340.23531560561054,1.2232155407182321,101142.51193401725,288.0511011154477,-145.98174538217157,0.0010636612734434474,145.7473430891148,0.0,0.0,0.0,1.263824224472046,113085.03580737863,429.99728265942383,-303.81057974850887
0.0599999986588954,6378155.2522804355,27.906065094404852,18.269934402964644,6378155.252341486,-7.985826298086067e-05,18.269934402964648,303.6102139294841,465.10108492377117,304.19848510924646,304.19760956335506,-0.0026593325174071323,-303.6131260970419,18.252367828761585,-1.2520589390097378e-11,2.883759235434156e-06,9.814141091704677,2.809204557725657e-27,2.8837592356288913e-06,1.2520589388300553e-11,7.292114999999996e-05,2.448946564213099e-41,2.79183632379757e-20,303.61312609704197,340.2236566381697,1.222858803830944,101106.08523756672,288.0313599497677,-145.8198546018505,0.0012747730653794663,145.5388378040753,0.0,0.0,0.0,1.2632492780685425,112941.4768570531,429.7869082209473,-303.6131260970419
0.0700000002980232,6378158.287393468,32.55707594368269,21.31141983815548,6378158.287476563,-0.00010866051342612764,21.311419838155487,303.41241812088043,465.10108493192894,304.0986218552236,304.0976012171342,-0.0031010365543912358,-303.415815143363,21.287512407186643,-1.7036346313242374e-11,3.3638319393711616e-06,9.814131736143796,-2.994693496349073e-22,3.363831939330796e-06,1.7036346311745025e-11,7.292114999999996e-05,2.8571043249152827e-41,2.79183632379757e-20,303.415815143363,340.21200485986486,1.2225023786479092,101069.69286303382,288.0116316327207,-145.65823512395778,0.0014853479497238464,145.33069197736012,-0.0,-0.0,0.0,1.2626748085021973,112798.16338657097,429.57675357666017,-303.415815143363
0.0799999982118606,6378161.320529256,37.20808679304551,24.351907193996986,6378161.320637787,-0.00014187765753343913,24.35190719399699,303.21476490806566,465.1010849407382,303.9988692059934,303.9977037127622,-0.0035423084055713466,-303.2186466412533,24.320684588324227,-2.2244288032409314e-11,3.843746055752249e-06,9.814122386676027,5.2506458592381974e-27,3.843746056000499e-06,2.224428803001354e-11,7.292114999999996e-05,3.2652620856174654e-41,2.79183632379757e-20,303.2186466412534,340.2003602659357,1.2221462648333576,101033.33477015902,287.99191615499717,-145.49688634151124,0.001695387309083837,145.1229047997411,0.0,0.0,0.0,1.2621008157730105,112655.09539593225,429.3667873273926,-303.2186466412533
0.0900000035762786,6378164.351689223,41.85909764249902,27.391397575610394,6378164.351826582,-0.00017950537839667505,27.391397575610394,303.0172540455027,465.10108495003885,303.89922697629385,303.8979168649987,-0.003983148645324014,-303.02162034506165,27.351885794931153,-2.8143736739124355e-11,4.323500527913453e-06,9.814113043296967,-5.98933915015523e-22,4.323500528150595e-06,2.8143736736129635e-11,7.292114999999996e-05,3.673419846319649e-41,2.79183632379757e-20,303.02162034506165,340.1887228516361,1.2217904620523452,100997.01091877214,287.97221350731246,-145.33580764927004,0.0019048925216324144,144.9154754643011,0.0,-0.0,0.0,1.2615272998809814,112512.27288513693,429.15700947314457,-303.02162034506165
0.1000000014901161,6378167.380874791,46.51010849204734,30.42989208626641,6378167.381044372,-0.00022153936482725386,30.42989208626641,302.81988528820654,465.1010849596715,303.79969498127673,303.7982404871127,-0.004423557847539235,-302.8247360116,30.38111745004072,-3.473401552390408e-11,4.8031005904915625e-06,9.814103706002202,-5.98937887116381e-22,4.803100590704722e-06,3.473401552210726e-11,7.292114999999996e-05,4.081577607021832e-41,2.79183632379757e-20,302.82473601160007,340.17709261221785,1.221434969970185,100960.72126874267,287.95252368038035,-145.1749984436714,0.0021138649617840444,144.70840316636827,0.0,-0.0,0.0,1.2609542608261108,112369.695854185,428.9473886147461,-302.8247360116
0.1099999994039535,6378170.408087383,51.161119341693,33.4673918273893,6378170.408292572,-0.0002679753114104415,33.467391827389314,302.622658391743,465.1010849694768,303.7002730365067,303.6986743961805,-0.004863536584234499,-302.6279933948264,33.408380969568675,-4.20144483850782e-11,5.282540275897693e-06,9.81409437478734,-1.197878293894367e-21,5.2825402759921e-06,4.2014448382682426e-11,7.292114999999996e-05,4.489735367724016e-41,2.79183632379757e-20,302.6279933948263,340.16546954295836,1.22107978825322,100924.46578006844,287.9328466649607,-145.01445812292755,0.002322305999545704,144.5016871036113,0.0,-0.0,0.0,1.260381817817688,112227.3643030765,428.7379875505371,-302.6279933948264
0.1199999973177909,6378173.433328413,55.81213019143692,36.50389789856106,6378173.433572606,-0.0003188089183927142,36.50389789856106,302.42557311222697,465.1010849792963,303.60096095796047,303.59921840665004,-0.005303085426594189,-302.43139225229714,36.433677771144104,-4.99843602111269e-11,5.7618236553458355e-06,9.814085049647991,-5.989361299563996e-22,5.7618236553116145e-06,4.998436020813219e-11,7.292114999999996e-05,4.897893128426197e-41,2.79183632379757e-20,302.43139225229714,340.1538536391281,1.220724916568001,100888.24441276959,287.9131824518026,-144.85418608689702,0.002530217001025218,144.29532647590864,0.0,-0.0,0.0,1.2598097324371338,112085.27823181138,428.52877488134766,-302.43139225229714
0.1299999952316284,6378176.456599299,60.463141041278455,39.53941139752548,6378176.456885886,-0.0003740358917208276,39.539411397525484,302.22862920632065,465.1010849889712,303.50175856202515,303.4998723345038,-0.00574220494386086,-302.2349323409904,39.457009268132666,-5.864307678678713e-11,6.240951095329761e-06,9.814075730579757,-5.989371108573535e-22,6.240951095480977e-06,5.864307678379241e-11,7.292114999999996e-05,5.306050889128377e-41,2.79183632379757e-20,302.2349323409904,340.1422448960125,1.220370354581902,100852.0571269602,287.89353103168276,-144.69418173716264,0.00273759932791581,144.08932048542485,0.0,-0.0,0.0,1.2592382431030271,111943.42595087332,428.31975060717775,-302.2349323409904
0.1400000005960464,6378179.477901449,65.11415189121537,42.573933420192276,6378179.478233822,-0.00043365194303299253,42.57393342019229,302.03182643123233,465.10108499834405,303.40266566549735,303.4006359968755,-0.006180895704444025,-302.0386134176842,42.478376867540376,-6.798992479168873e-11,6.719920507427151e-06,9.814066417578289,-5.9894289478737e-22,6.719920507504574e-06,6.79899247898919e-11,7.292114999999996e-05,5.714208649830558e-41,2.79183632379757e-20,302.0386134176842,340.1306433089204,1.2200161019632767,100815.90388287298,287.87389239541915,-144.5344444770541,0.0029444543380391574,143.88366833663062,0.0,-0.0,0.0,1.258667230606079,111801.83083929501,428.11091472802735,-302.0386134176842
0.1500000059604644,6378182.497236277,69.76516274124387,45.60746506064121,6378182.497617828,-0.0004976527896677108,45.60746506064122,301.8351645447148,465.10108500725704,303.30368208558207,303.3015092105394,-0.006619158275712304,-301.84243524047287,45.49778198594138,-7.80242318017068e-11,7.19873234479501e-06,9.814057110639192,-1.1978737330723902e-21,7.19873234479751e-06,7.802423179811312e-11,7.292114999999996e-05,6.122366410532739e-41,2.79183632379757e-20,301.84243524047287,340.11904887312295,1.219662158379603,100779.78464066901,287.8542665337678,-144.3749737114216,0.003150783385253951,143.6783692360758,0.0,-0.0,0.0,1.2580965757369995,111660.46951804376,427.9022672438965,-301.84243524047287
0.1599999964237213,6378185.514605192,74.41617359135854,48.64000741112609,6378185.515039308,-0.0005660341545683599,48.64000741112609,301.63864330506345,465.1010850155531,303.2048076398912,303.2024917919114,-0.007056993223300307,-301.64639756876215,48.515226022370896,-8.874532627401581e-11,7.677389600009544e-06,9.814047809758128,-1.197864388230371e-21,7.677389600188026e-06,8.874532627042216e-11,7.292114999999996e-05,6.530524171234919e-41,2.79183632379757e-20,301.64639756876215,340.1074615839575,1.2193085235008834,100743.69936076138,287.8346534375988,-144.21576884700607,0.0033565878191460954,143.47342239275585,0.0,-0.0,0.0,1.2575265169143677,111519.36536615225,427.6938081547852,-301.64639756876215
0.1700000017881393,6378188.530009593,79.06718444155246,51.67156156207889,6378188.5304996725,-0.0006387917663525356,51.6715615620789,301.4422624711153,465.1010850230755,303.106042146443,303.10358355968594,-0.007494401111524599,-301.450500160619,51.530710386341006,-1.0015253755794954e-10,8.155889065880668e-06,9.81403851493073,-1.1978741435846858e-21,8.155889066019785e-06,1.0015253755675163e-10,7.292114999999996e-05,6.9386819319371e-41,2.79183632379757e-20,301.4505001606191,340.09588143671994,1.2189551969959873,100707.64800348056,287.81505309771404,-144.05682929204573,0.0035618689852317843,143.2688270177181,-0.0,-0.0,0.0,1.256956934928894,111378.48331507145,427.48550606152344,-301.450500160619
0.1800000071525573,6378191.543450887,83.71819529181707,54.70212860211378,6378191.54400032,-0.0007159213592687994,54.70212860211379,301.2460218022473,465.10108502966796,303.0073854236602,303.0047843314422,-0.007931382503730044,-301.2547427761772,54.544236474931516,-1.1224519588820441e-10,8.634232572443489e-06,9.814029226152652,-1.1978395916297585e-21,8.634232572939557e-06,1.1224519588700653e-10,7.292114999999996e-05,7.34683969263928e-41,2.79183632379757e-20,301.2547427761772,340.08430842675324,1.2186021785356909,100671.63052934795,287.7954655049965,-143.89815445658675,0.0037666282251417726,143.06458232436967,0.0,-0.0,0.0,1.2563878297805786,111237.85843335041,427.2774237624512,-301.2547427761772
0.1899999976158142,6378194.554930474,88.36920614214233,57.73170961803119,6378194.555542651,-0.0007974186731878714,57.731709618031196,301.0499210583743,465.10108503517444,302.90883729036943,302.9060939255284,-0.008367937961804803,-301.05912517574194,57.555805688260406,-1.2502263238347563e-10,9.112420743357606e-06,9.814019943419561,-1.1978821149847232e-21,9.112420743449421e-06,1.2502263238706923e-10,7.292114999999996e-05,7.754997453341462e-41,2.79183632379757e-20,301.059125175742,340.0727425493874,1.218249467790564,100635.64689889082,287.77589065030924,-143.73974375226427,0.003970866876398308,142.86068752825702,0.0,-0.0,0.0,1.2558192014694214,111097.46734195642,427.0695298583984,-301.05912517574194
0.2000000029802322,6378197.564449754,93.02021699251658,60.760305694821795,6378197.565128062,-0.0008832794536201555,60.76030569482182,300.8539599999483,465.1010850394395,302.8103975657998,302.8075121614348,-0.008804068046457586,-300.86364711941206,60.56541942093352,-1.38484179049168e-10,9.590451749191535e-06,9.81401066672714,-1.1978492191945056e-21,9.590451749456171e-06,1.3848417904797013e-10,7.292114999999996e-05,8.163155214043642e-41,2.79183632379757e-20,300.8636471194121,340.06118379997247,1.2178970644323097,100599.69707274434,287.75632852455135,-143.5815965924148,0.00417458627256232,142.65714184717584,0.0,-0.0,0.0,1.255251169204712,110957.32173040582,426.86182434936524,-300.86364711941206
0.209999993443489,6378200.572010119,97.67122784292665,63.787917915670626,6378200.572757954,-0.0009734994515335911,63.787917915670654,300.6581383879564,465.10108504230806,302.7120660695819,302.70903885791347,-0.009239773317217493,-300.66830836896804,63.57307907404101,-1.526291687488677e-10,1.0068327546535995e-05,9.814001396071038,-1.197863840243973e-21,1.0068327546395645e-05,1.5262916874766982e-10,7.292114999999996e-05,8.571312974745822e-41,2.79183632379757e-20,300.668308368968,340.0496321738328,1.2175449681319623,100563.78101150833,287.7367791185798,-143.42371239190493,0.00437778774324102,142.45394450099946,0.0,-0.0,0.0,1.254683494567871,110817.40990918229,426.6542758361816,-300.66830836896804
0.2199999988079071,6378203.577612966,102.32223869335779,66.81454736196102,6378203.578433719,-0.001068074423734988,66.81454736196102,300.4624559839197,465.10108504362523,302.6138426217467,302.6106738348564,-0.009675054332364893,-300.4731086859799,66.57878603435653,-1.674569352640983e-10,1.0546047638668238e-05,9.813992131446955,-1.1978311110025576e-21,1.0546047638775339e-05,1.6745693526290044e-10,7.292114999999996e-05,8.979470735448004e-41,2.79183632379757e-20,300.47310868598,340.03808766634637,1.2171931785626686,100527.89867599572,287.71724242334466,-143.2660905674134,0.004580472614075582,142.2510947119568,0.0,-0.0,0.0,1.2541162967681885,110677.74356780214,426.4469471171875,-300.4731086859799
0.2300000041723251,6378206.581259684,106.97324954379373,69.84019511327854,6378206.582156744,-0.001167000132298283,69.84019511327854,300.2669125498913,465.1010850432369,302.51572704272417,302.51241691216745,-0.010109911648376924,-300.27804783294084,69.5825416898029,-1.8296681320467318e-10,1.1023612819078165e-05,9.813982872850584,-1.1978372177782103e-21,1.1023612819405533e-05,1.8296681320826687e-10,7.292114999999996e-05,9.387628496150188e-41,2.79183632379757e-20,300.27804783294084,340.026550272886,1.216841695397678,100492.0500270473,287.69771842978855,-143.10873053721144,0.004782642206485621,142.04859170441213,0.0,-0.0,0.0,1.253549575805664,110538.31101674907,426.23977539404297,-300.27804783294084
0.2399999946355819,6378209.582951661,111.62426039421659,72.86486224741515,6378209.583928425,-0.001270272345153414,72.86486224741515,300.07150784845527,465.1010850409889,302.4177191533424,302.4142679105113,-0.010544345821382797,-300.08312557250935,72.58434743514466,-1.9915813810104785e-10,1.1501022675705964e-05,9.813973620277608,-1.1978202058020129e-21,1.1501022676171474e-05,1.9915813809266257e-10,7.292114999999996e-05,9.795786256852373e-41,2.79183632379757e-20,300.08312557250935,340.01501998879706,1.2164905183097252,100456.23502546415,287.6782071288099,-142.9516317210795,0.004984297838366746,141.84643470478107,0.0,-0.0,0.0,1.2529834508895874,110399.11225602303,426.0328234650879,-300.08312557250935
0.25,6378212.582690284,116.27527124460708,75.88854984037297,6378212.583750139,-0.0013778868354629105,75.88854984037299,299.8762416427251,465.1010850367278,302.31981877482633,302.3162266509372,-0.010978357405223465,-299.8883416678854,75.58420464608928,-2.1603024630652413e-10,1.1978276839323082e-05,9.813964373723751,-1.1978919680908468e-21,1.1978276839146875e-05,2.1603024630053467e-10,7.292114999999996e-05,1.020394401755456e-40,2.79183632379757e-20,299.8883416678854,340.00349680949716,1.2161396469740702,100420.45363231636,287.65870851143063,-142.7947935406581,0.0051854408231969545,141.64462294187643,0.0,-0.0,0.0,1.2524176836013794,110260.1589751404,425.82602853198244,-299.8883416678854
0.2599999904632568,6378215.580476938,120.92628209494424,78.91125896636845,6378215.581623274,-0.0014898393821586495,78.91125896636845,299.6811136963417,465.1010850303005,302.222025728797,302.21829295450414,-0.011411946953599893,-299.693695883186,78.5821147090272,-2.3358247508145283e-10,1.2455376228522749e-05,9.813955133184727,-1.1978291010112738e-21,1.2455376228706648e-05,2.335824750682761e-10,7.292114999999996e-05,1.0612101778256743e-40,2.79183632379757e-20,299.693695883186,339.99198073036155,1.2157890810649932,100384.70580858817,287.6392225686037,-142.63821541903303,0.005386072471052239,141.44315564649492,0.0,-0.0,0.0,1.2518523931503296,110121.43948458481,425.6194219938965,-299.693695883186
0.270000010728836,6378218.576313001,125.57729294520567,81.93299069783616,6378218.577549215,-0.0016061257696649116,81.93299069783617,299.48612377347274,465.1010850215539,302.1243398372699,302.12046664265483,-0.011845115018271244,-299.49918798306686,81.57807900603663,-2.518141625497658e-10,1.2932321804734611e-05,9.813945898656234,-1.1978292079091788e-21,1.2932321804971694e-05,2.5181416253179746e-10,7.292114999999996e-05,1.102025953895893e-40,2.79183632379757e-20,299.4991879830668,339.98047174678135,1.215438820257651,100348.99151535665,287.61974929131,-142.4818967809365,0.005586194087770778,141.24203205161487,0.0,-0.0,0.0,1.2512876987457275,109982.95378435629,425.4130038508301,-299.49918798306686
0.2800000011920929,6378221.570199855,130.2283037953674,84.9537461054328,6378221.571529332,-0.0017267417877942926,84.9537461054328,299.29127163881054,465.10108501033585,302.02676092265403,302.0227475383334,-0.0122778621497479,-299.30481773159033,84.57209890997468,-2.707246476826723e-10,1.340911083095298e-05,9.81393667013403,-2.3957314383208212e-21,1.340911083102024e-05,2.707246476635062e-10,7.292114999999996e-05,1.1428417299661116e-40,2.79183632379757e-20,299.30481773159033,339.968969854182,1.2150888642284374,100313.31071385046,287.60028867059026,-142.32583705280885,0.005785806975298995,141.04125139245568,0.0,-0.0,0.0,1.250723361968994,109844.71356397116,425.2067741027832,-299.30481773159033
0.2899999916553497,6378224.562138877,134.87931464540398,87.97352625804119,6378224.563565013,-0.0018516832319383266,87.9735262580412,299.0965570575709,465.10108499649436,301.9292888077511,301.92513546299864,-0.012710188897637933,-299.1105848952375,87.5641758005654,-2.903132703285334e-10,1.3885746844592143e-05,9.81392744761383,-2.3957415109068734e-21,1.3885746844466953e-05,2.9031327030697137e-10,7.292114999999996e-05,1.1836575060363302e-40,2.79183632379757e-20,299.1105848952375,339.9574750479614,1.2147392126533854,100277.66336525741,287.580840697441,-142.1700356625727,0.0059849124318557085,140.84081290625167,-0.0,-0.0,0.0,1.2501596212387085,109706.69544439673,425.00073274975585,-299.1105848952375
0.3000000119209289,6378227.552131435,139.53032549528842,90.99233222277402,6378227.553657621,-0.0019809459028595796,90.99233222277404,298.9019797954914,465.10108497987767,301.83192331575407,301.8276302396089,-0.013142095810162091,-298.91648923989317,90.55431104752178,-3.105793711802604e-10,1.4362229684578105e-05,9.81391823109139,-2.395622728192181e-21,1.4362229685106682e-05,3.105793711634899e-10,7.292114999999996e-05,1.2244732821065486e-40,2.79183632379757e-20,298.9164892398931,339.9459873235548,1.214389865209816,100242.04943092598,287.5614053629235,-142.0144920398582,0.006183511751727061,140.64071583247372,0.0,-0.0,0.0,1.2495962381362915,109568.92280466571,424.79484839257816,-298.91648923989317
0.3100000023841858,6378230.540178908,144.18133634499216,94.01016506497797,6378230.541808534,-0.0021145256070554614,94.01016506497797,298.70753961883025,465.1010849603346,301.7346642702464,301.7302316918736,-0.013573583434223043,-298.7225305315986,93.54250602191698,-3.3152229183235294e-10,1.483855798550089e-05,9.813909020562459,-2.3956811981847135e-21,1.4838557985921837e-05,3.3152229182037407e-10,7.292114999999996e-05,1.2652890581767674e-40,2.79183632379757e-20,298.72253053159864,339.9345066763915,1.2140408215753085,100206.46887222953,287.54198265809043,-141.859205615843,0.006381606225302553,140.44095941266906,0.0,-0.0,0.0,1.2490333318710327,109431.38395526173,424.58918382958984,-298.7225305315986
0.3199999928474426,6378233.526282663,148.83234719448524,97.02702584823739,6378233.528019122,-0.002252418156238478,97.02702584823739,298.5132362943646,465.1010849377145,301.63751149520033,301.6329396435059,-0.014004652315405356,-298.5287085373035,96.52876209195603,-3.531413746994024e-10,1.5314731670834132e-05,9.813899816022783,8.092095723660842e-26,1.53147316709732e-05,3.5314137467065303e-10,7.292114999999996e-05,1.306104834246986e-40,2.79183632379757e-20,298.52870853730343,339.9230331019108,1.2136920814280598,100170.92165061671,287.5225725740131,-141.7041758233042,0.006579197139090614,140.24154289051043,0.0,0.0,0.0,1.2484710216522217,109294.0788961848,424.38367626245116,-298.5287085373035
0.3300000131130218,6378236.510444071,153.4833580437361,100.04291563437835,6378236.512290752,-0.002394619367613449,100.04291563437836,298.31906958938924,465.1010849118667,301.5404648149767,301.5357539185958,-0.014435302998668567,-298.3350230244862,99.5130806285994,-3.7543596305954783e-10,1.5790750703987952e-05,9.813890617468129,-2.395706438218744e-21,1.5790750703956487e-05,3.7543596304277726e-10,7.292114999999996e-05,1.3469206103172043e-40,2.79183632379757e-20,298.3350230244862,339.9115665955399,1.2133436444461134,100135.40772754415,287.5031751017451,-141.5494020965364,0.0067762857760531045,140.04246551171363,-0.0,-0.0,0.0,1.2479090690612793,109157.00762743493,424.17835709033204,-298.3350230244862
0.3400000035762787,6378239.492664493,158.13436889271173,103.05783548347252,6378239.494624792,-0.0025411250639467585,103.05783548347253,298.125039271715,465.10108488264103,301.44352405432306,301.4386743408653,-0.014865536027376952,-298.14147376190493,102.4954629917895,-3.984054010653376e-10,1.6266617581427824e-05,9.813881424894266,-2.395776114770911e-21,1.626661758131924e-05,3.9840540104377564e-10,7.292114999999996e-05,1.3877363863874233e-40,2.79183632379757e-20,298.14147376190493,339.90010715274786,1.2129955103092127,100099.9270646406,287.4837902324115,-141.3948838715342,0.006972873415168058,139.8437265242158,-0.0,-0.0,0.0,1.2473475933074951,109020.15845949575,423.97322631323243,-298.14147376190493
0.3499999940395355,6378242.472945291,162.7853797413776,106.07178645384083,6378242.4750225935,-0.002691931073133294,106.07178645384083,297.9311451096676,465.1010848498881,301.34668903837314,301.3417007355264,-0.015295351942952973,-297.94806051771667,105.47591053744763,-4.2204903367581277e-10,1.6742331103393123e-05,9.813872238296998,-2.395632932591099e-21,1.6742331103909576e-05,4.220490336446676e-10,7.292114999999996e-05,1.4285521624576417e-40,2.79183632379757e-20,297.94806051771667,339.8886547690179,1.2126476786977713,100064.47962362348,287.46441795716373,-141.24062058589143,0.007168961331277552,139.6453251780742,0.0,-0.0,0.0,1.2467867136001587,108883.55477139998,423.7682839311524,-297.94806051771667
0.3600000143051147,6378245.451287828,167.4363905896977,109.08476960205765,6378245.453485532,-0.0028470332288547833,109.08476960205766,297.7373868720856,465.1010848134581,301.24995959264515,301.2448329277925,-0.01572475128695646,-297.75478306098,108.45442463490883,-4.4636620675972504e-10,1.721789135734136e-05,9.813863057672075,-2.3957529763354224e-21,1.7217891357325726e-05,4.4636620672858e-10,7.292114999999996e-05,1.46936793852786e-40,2.79183632379757e-20,297.75478306097995,339.87720943978076,1.2123001492909657,100029.0653660911,287.4450582670658,-141.0866116785592,0.007364550796060978,139.4472607252252,-0.0,-0.0,0.0,1.246226191520691,108747.17318411492,423.5634985449219,-297.75478306098
0.3700000047683716,6378248.427693464,172.08740143763455,112.09678598295433,6378248.430014954,-0.0030064273698520868,112.09678598295434,297.54376432831975,465.10108477320256,301.15333554304146,301.14807074361914,-0.016153734598797518,-297.561641160902,111.43100663345956,-4.713562669814432e-10,1.7693297226722094e-05,9.81385388301531,-2.395780752936641e-21,1.769329722645855e-05,4.713562669502983e-10,7.292114999999996e-05,1.5101837145980787e-40,2.79183632379757e-20,297.56164116090196,339.86577116054326,1.2119529217706013,99993.68425392102,287.4257111533126,-140.932856590295,0.007559643076996382,139.24953241992603,-0.0,-0.0,0.0,1.2456661462783811,108611.03707667324,423.3589329528809,-297.561641160902
0.3799999952316284,6378251.402163547,176.73841228514905,115.10783664962322,6378251.404612219,-0.003170109340583594,115.10783664962322,297.350277248231,465.1010847289727,301.0568167158471,301.0514140082222,-0.016582302417053267,-297.3686345883368,114.40565789099821,-4.970185619041707e-10,1.8168551369987264e-05,9.813844714322501,-2.3956982231180012e-21,1.8168551370184484e-05,4.970185618682339e-10,7.292114999999996e-05,1.5509994906682976e-40,2.79183632379757e-20,297.3686345883368,339.8543399267777,1.2116059958177101,99958.33624892881,287.40637660704266,-140.77935476326854,0.007754239437972985,139.05213951836393,0.0,-0.0,0.0,1.24510657787323,108475.12307004227,423.1545243566895,-297.3686345883368
0.3899999856948852,6378254.374699441,181.38942313220076,118.11792265342136,6378254.377278684,-0.003338074990601574,118.11792265342142,297.1569254021895,465.1010846806203,300.96040293772865,300.9548625479293,-0.017010455279052185,-297.17576311390894,117.37837975830602,-5.233524398921494e-10,1.8643653996303474e-05,9.81383555158945,-2.395726170114244e-21,1.8643653996333143e-05,5.233524398562129e-10,7.292114999999996e-05,1.5918152667385158e-40,2.79183632379757e-20,297.17576311390894,339.8429157339833,1.2112593711145094,99923.02131305508,287.38705461944096,-140.62610564127027,0.007948341139114145,138.85508127886013,-0.0,-0.0,0.0,1.2445474863052368,108339.44285373835,422.9503041555176,-297.17576311390894
0.4000000059604645,6378257.34530249,186.04043397874776,121.1270450439744,6378257.348015693,-0.0035103201748638616,121.1270450439744,296.9637085610727,465.10108462799747,300.8640940357333,300.8584161901766,-0.01743819372066605,-296.9830265080132,120.34917358350418,-5.503572501595505e-10,1.9118602866991e-05,9.813826394811985,-2.3957022731723227e-21,1.9118602867031143e-05,5.503572501284056e-10,7.292114999999996e-05,1.6326310428087344e-40,2.79183632379757e-20,296.9830265080132,339.8314985776683,1.2109130473437835,99887.73940831223,287.3677451817098,-140.47310866964483,0.008141949436693283,138.65835696180204,0.0,-0.0,0.0,1.243988871574402,108203.98473824513,422.74624095019533,-296.9830265080132
0.4099999964237213,6378260.313974043,190.69144482474658,124.13520486918041,6378260.316824603,-0.003686840753768668,124.13520486918041,296.77062649626424,465.10108457095697,300.7678898372877,300.76207476202796,-0.017865518277003042,-296.7904245423123,123.31804071852741,-5.780323427759008e-10,1.9593398273203927e-05,9.813817243985914,-2.395517236402653e-21,1.9593398273600115e-05,5.780323427351727e-10,7.292114999999996e-05,1.6734468188789532e-40,2.79183632379757e-20,296.79042454231234,339.82008845332507,1.2105670241881106,99852.49049670782,287.34844828502685,-140.32036329519963,0.00833506558346038,138.46196582955181,0.0,-0.0,0.0,1.243430733680725,108068.76041307896,422.5423975390625,-296.7904245423123
0.4199999868869781,6378263.280715448,195.34245567015228,127.14240317521356,6378263.2837067535,-0.003867632593015955,127.1424031752136,296.57767897965266,465.10108450935155,300.6717901701972,300.6658380901759,-0.01829242948143748,-296.59795698973335,126.28498250267627,-6.063770686443471e-10,2.006804303476774e-05,9.813808099107067,-2.395608679603631e-21,2.006804303489515e-05,6.063770686132022e-10,7.292114999999996e-05,1.714262594949172e-40,2.79183632379757e-20,296.59795698973335,339.80868535649375,1.2102213013318215,99817.27454043941,287.3291639206518,-140.16786896642117,0.00852769082821674,138.26590714665758,-0.0,-0.0,0.0,1.2428730726242063,107933.76987823984,422.3387111237793,-296.59795698973335
0.4300000071525574,6378266.24552805,199.9934665149185,130.14864100652798,6378266.248663493,-0.004052691563780626,130.14864100652798,296.3848657836296,465.10108444303455,300.5757948626444,300.5697060031567,-0.01871892786699588,-296.40562362222096,129.2500002854825,-6.35390779528815e-10,2.0542535034425283e-05,9.813798960171283,-2.3956195659072055e-21,2.0542535034612034e-05,6.353907794880866e-10,7.292114999999996e-05,1.7550783710193901e-40,2.79183632379757e-20,296.40562362222096,339.79728928267406,1.2098758784583699,99782.09150162333,287.30989207977814,-140.01562513316097,0.008719826416451956,138.07018017954186,0.0,-0.0,0.0,1.2423158884048462,107799.00144421142,422.13521310351564,-296.40562362222096
0.4399999976158142,6378269.208413191,204.6444773589974,133.15391940586147,6378269.211696166,-0.004242013542262059,133.1539194058615,296.192186681089,465.1010843718597,300.4799037431882,300.4736783287647,-0.01914501396469374,-296.21342421335646,132.21309540577914,-6.650728279833758e-10,2.1016875928322967e-05,9.813789827174407,-2.395666085058409e-21,2.1016875928534153e-05,6.650728279282732e-10,7.292114999999996e-05,1.7958941470896091e-40,2.79183632379757e-20,296.21342421335646,339.7859002274058,1.2095307552528083,99746.9413425427,287.2906327536686,-139.86363124691454,0.008911473589597957,137.87478419677524,-0.0,-0.0,0.0,1.241759181022644,107664.45511099369,421.9318720791016,-296.21342421335646
0.449999988079071,6378272.169372213,209.29548820233964,136.15823941423938,6378272.172806106,-0.0044355944100306945,136.1582394142394,295.9996414454252,465.1010842956809,300.38411664076307,300.3777548958954,-0.01957068830464434,-296.02135853648514,135.1742691992579,-6.954225674065721e-10,2.1491064924477498e-05,9.81378070011228,-2.3955768538701005e-21,2.1491064924741044e-05,6.954225673514695e-10,7.292114999999996e-05,1.836709923159827e-40,2.79183632379757e-20,296.02135853648514,339.77451818623996,1.2091859314006526,99711.82402555797,287.2713859336067,-139.71188676071208,0.00910263358555034,137.67971846896637,0.0,-0.0,0.0,1.2412028312683103,107530.15425761936,421.728750848877,-296.02135853648514
0.4600000083446502,6378275.128406448,213.94649904489452,139.16160207097818,6378275.131994655,-0.0046334300540973195,139.16160207097823,295.8072298505313,465.1010842143528,300.2884333846775,300.2819355338069,-0.019995951415920157,-295.82942636546306,138.13352300451933,-7.26439352052275e-10,2.1965101271168593e-05,9.813771578980768,-2.395679282750177e-21,2.1965101271166848e-05,7.264393520019636e-10,7.292114999999996e-05,1.877525699230046e-40,2.79183632379757e-20,295.82942636546306,339.7631431547153,1.2088414065875213,99676.73951303479,287.252151610857,-139.56039112903363,0.009293307638611421,137.48498226867704,0.0,-0.0,0.0,1.2406470775604248,107396.0638155394,421.52578661450195,-295.82942636546306
0.4699999988079071,6378278.085517238,218.59750988660977,142.16400841368937,6378278.089263144,-0.0048355163667743815,142.16400841368937,295.61495167079886,465.1010841277298,300.1928538046135,300.1862200713832,-0.020420803826275622,-295.6376274754031,141.09085815146014,-7.581225370079497e-10,2.243898674402616e-05,9.813762463775733,-2.3956604495101268e-21,2.2438986744169278e-05,7.581225369336808e-10,7.292114999999996e-05,1.9183414753002647e-40,2.79183632379757e-20,295.6376274754031,339.7517751284029,1.2084971805002707,99641.68776748168,287.23292977674066,-139.40914380795954,0.009483496979380824,137.29057487056824,0.0,-0.0,0.0,1.2400916814804075,107262.20716378647,421.3230107751465,-295.6376274754031
0.4799999892711639,6378281.040705909,223.2485207274317,145.16545947828305,6378281.04461291,-0.005041849245156272,145.1654594782831,295.4228066811154,465.1010840356672,300.09737773062494,300.09060833860576,-0.020845246062355126,-295.44596164117905,144.04627597779597,-7.904714781131572e-10,2.29127206713201e-05,9.81375335449304,-2.3957120378836323e-21,2.291272067128694e-05,7.904714780580546e-10,7.292114999999996e-05,1.959157251370483e-40,2.79183632379757e-20,295.4459616411791,339.7404141028431,1.2081532528250345,99606.66875135413,287.213720422528,-139.258144254944,0.009673202834850212,137.0964955511756,-0.0,-0.0,0.0,1.2395368814468384,107128.57261284423,421.12039193164065,-295.44596164117905
0.4900000095367431,6378283.993973797,227.8995315673052,148.16595629897182,6378283.998045283,-0.0052524245923668495,148.16595629897188,295.2307946568635,465.1010839380205,300.0020049931371,299.9951001647141,-0.021269278649623614,-295.2544286392894,146.99977781054233,-8.234855321551313e-10,2.3386306149737485e-05,9.813744251128567,-4.791446564666488e-21,2.338630614992947e-05,8.23485532092841e-10,7.292114999999996e-05,1.999973027440702e-40,2.79183632379757e-20,295.2544286392895,339.7290600736161,1.2078096232496482,99571.68242727417,287.1945235395591,-139.10739192905797,0.009862426428396189,136.90274358914672,0.0,-0.0,0.0,1.2389824390411377,106995.17185222906,420.91796148315433,-295.2544286392894
0.5,6378286.945322226,232.55054240617375,151.16549990827434,6378286.94956159,-0.005467238316277227,151.16549990827437,295.0389153739196,465.10108383464564,299.9067354229454,299.8996953818764,-0.021692902112228008,-295.0630282441287,149.95136497555092,-8.571640566677585e-10,2.3859737616430527e-05,9.813735153678204,-2.39569426332277e-21,2.3859737616549213e-05,8.571640565982814e-10,7.292114999999996e-05,2.0407888035109204e-40,2.79183632379757e-20,295.06302824412865,339.7177130363057,1.2074662914622047,99536.72875791679,287.17533911918156,-138.95688629085697,0.010051168979721562,136.70931826510963,0.0,-0.0,0.0,1.2384284734725952,106861.98150290824,420.7157194296875,-295.0630282441287
0.5099999904632568,6378289.8947525285,237.2015532439793,154.16409133701902,6378289.8991631605,-0.0056862863301987724,154.16409133701902,294.8471686086524,465.1010837253988,299.8115688512144,299.8043938193163,-0.022116116973551665,-294.8717602339496,152.9010387987089,-8.915064100402286e-10,2.4333020732653925e-05,9.813726062137842,-4.791483126899963e-21,2.4333020732503824e-05,8.915064099587723e-10,7.292114999999996e-05,2.0816045795811386e-40,2.79183632379757e-20,294.8717602339496,339.70637298649456,1.2071232571511572,99501.8077059962,287.15616715274285,-138.80662680235994,0.01023943170512136,136.51621886164966,0.0,-0.0,0.0,1.237874984741211,106729.02494391445,420.5136343720703,-294.8717602339496
0.5199999809265137,6378292.842266022,241.85256408066246,157.16173161434781,6378292.846851314,-0.005909564552120989,157.16173161434784,294.65555413792134,465.1010836101364,299.7165051094766,299.70919530954836,-0.022538923755244238,-294.68062438452654,155.84880060347976,-9.265119513975103e-10,2.4806151258495013e-05,9.813716976503382,-4.7915632673350496e-21,2.480615125840775e-05,9.265119513304285e-10,7.292114999999996e-05,2.122420355651358e-40,2.79183632379757e-20,294.6806243845265,339.6950399197736,1.2067805200054231,99466.91923429442,287.1370076316063,-138.65661292707694,0.010427215817045131,136.32344466333532,0.0,-0.0,0.0,1.237321853637695,106596.29048573137,420.31173770947265,-294.68062438452654
0.5299999713897705,6378295.787864033,246.50357491616236,160.15842176771986,6378295.792627377,-0.006137068906062624,160.1584217677199,294.4640717390757,465.1010834887156,299.6215440296317,299.61409968360977,-0.022961322978468833,-294.48962047399726,158.7946517102213,-9.62180040812222e-10,2.5279131205990317e-05,9.813707896770715,-2.395521881521252e-21,2.5279131206096782e-05,9.621800407523279e-10,7.292114999999996e-05,2.1632361317215757e-40,2.79183632379757e-20,294.4896204739972,339.6837138317448,1.2064380797146412,99432.06330566948,287.11786054715526,-138.5068441300135,0.01061452252468809,136.13099495672094,-0.0,-0.0,0.0,1.2367693185806274,106463.78981787534,420.11002944189454,-294.48962047399726
0.5400000214576721,6378298.731547878,251.1545857504167,163.154162822915,6378298.736492666,-0.006368795320859119,163.15416282291503,294.2727211899527,465.1010833609936,299.52668544394544,299.5191067728951,-0.023383315162516256,-294.29874828099804,161.73859343702563,-9.985100391144807e-10,2.5751962625224508e-05,9.813698822935766,-2.395684743461813e-21,2.5751962625152947e-05,9.985100390402117e-10,7.292114999999996e-05,2.2040519077917943e-40,2.79183632379757e-20,294.2987482809981,339.67239471801776,1.206095935968966,99397.23988304543,287.0987258907881,-138.35731987765456,0.010801353033358605,135.93886903032885,0.0,-0.0,0.0,1.2362172603607178,106331.49956131366,419.90850956933593,-294.29874828099804
0.550000011920929,6378301.673318878,255.80559658336165,166.14895580403774,6378301.678448495,-0.006604739730405048,166.14895580403774,294.08150226887676,465.1010832268282,299.43192918504866,299.4242164106155,-0.023804900825983067,-294.1080075831756,164.6806270944312,-1.035501307929928e-09,2.6224642638219466e-05,9.813689754994472,-4.791301992043409e-21,2.6224642638212483e-05,1.035501307853263e-09,7.292114999999996e-05,2.2448676838620133e-40,2.79183632379757e-20,294.10800758317566,339.6610825742303,1.2057540884597366,99362.44892947459,287.0796036539523,-138.2080396380302,0.010987708545040444,135.74706617471242,0.0,-0.0,0.0,1.2356655597686768,106199.43140556267,419.70714669262696,-294.1080075831756
0.5600000023841858,6378304.613178345,260.4566074149321,169.14280173352057,6378304.618496189,-0.0068448980738620505,169.1428017335206,293.89041475465757,465.10108308607715,299.33727508593614,299.32942842850815,-0.02422608048642504,-293.9173981605331,167.62075400684267,-1.0731532097123167e-09,2.669717461467016e-05,9.813680692942716,-4.7914028621695805e-21,2.6697174614691103e-05,1.0731532096404434e-09,7.292114999999996e-05,2.285683459932232e-40,2.79183632379757e-20,293.9173981605331,339.649777395966,1.2054125368767987,99327.69040788434,287.0604938280052,-138.05900288042537,0.01117359025822018,135.55558568216927,-0.0,-0.0,0.0,1.235114336013794,106067.58535062238,419.5059408117676,-293.9173981605331
0.5699999928474426,6378307.551127593,265.1076182450616,172.1357016321278,6378307.556637052,-0.007089266295762801,172.13570163212782,293.6994584265893,465.10108293859906,299.2427229799658,299.2347426604879,-0.024646854659871983,-293.7269197917098,170.5589754793747,-1.1114651077598094e-09,2.7169555755686317e-05,9.813671636776453,-2.395540828501239e-21,2.7169555755937646e-05,1.1114651076759573e-09,7.292114999999996e-05,2.32649923600245e-40,2.79183632379757e-20,293.7269197917098,339.63847917888097,1.2050712809127802,99292.96428146896,287.0413964044295,-137.91020907581623,0.011358999367708822,135.36442684716786,0.0,-0.0,0.0,1.2345635890960691,105935.97308600915,419.30492332592775,-293.7269197917098
0.5799999833106995,6378310.487167932,269.7586290736821,175.12765651895916,6378310.492872398,-0.007337840345352544,175.12765651895916,293.5086330644488,465.1010827842525,299.1482727008576,299.14015893972584,-0.025067223861313062,-293.5365722569547,173.4952928189292,-1.1504363661117494e-09,2.764178702580844e-05,9.813662586491636,5.601227973571133e-26,2.764178702573688e-05,1.150436366030293e-09,7.292114999999996e-05,2.367315012072669e-40,2.79183632379757e-20,293.5365722569546,339.6271879186245,1.204730320260051,99258.27051344038,287.0223113746965,-137.7616576965856,0.011543937064854437,135.1735889660667,0.0,0.0,0.0,1.234013319015503,105804.57123269026,419.1040942351074,-293.5365722569547
0.5899999737739563,6378313.421300671,274.4096399007242,178.11866741145332,6378313.427203538,-0.007590616177386243,178.11866741145334,293.31793844849454,465.1010826228966,299.05392408269245,299.0456771001078,-0.025487188605251045,-293.346355336638,176.42970734119368,-1.190066349673605e-09,2.811386818726858e-05,9.813653542084193,3.9701476109290817e-25,2.8113868187722367e-05,1.1900663495921485e-09,7.292114999999996e-05,2.408130788142887e-40,2.79183632379757e-20,293.346355336638,339.61590361081034,1.2043896546105182,99223.60906694543,287.0032387302204,-137.6133482164245,0.011728404537801482,134.98307133701576,-0.0,0.0,0.0,1.2334635257720947,105673.39148018206,418.90345353930667,-293.346355336638
0.6000000238418579,6378316.353527119,279.06065072611716,181.1087353253916,6378316.359631775,-0.007847589751781903,181.10873532539162,293.12737435946525,465.1010824543909,298.95967695991135,298.95129697550465,-0.025906749403831156,-293.1562688119924,179.36222034348114,-1.2303544241626444e-09,2.8585800282033535e-05,9.813644503550078,-4.7912376339253256e-21,2.858580028194976e-05,1.230354424071605e-09,7.292114999999996e-05,2.448946564213106e-40,2.79183632379757e-20,293.1562688119924,339.6046262511223,1.204049283658304,99188.97990538663,286.9841784625348,-137.4652801106881,0.011912402970667445,134.79287326030416,-0.0,-0.0,0.0,1.2329140901565552,105542.43382848457,418.7029698393555,-293.1562688119924
0.6100000143051147,6378319.283848575,283.7116615497887,184.09786127490148,6378319.2901584115,-0.008108757033170218,184.0978612749015,292.9369405785784,465.101082278595,298.86553116731443,298.8570184001366,-0.026325906768989566,-292.96631246474004,182.29283313277804,-1.2712999560372984e-09,2.90575843905616e-05,9.813635470885263,2.117113343889728e-25,2.9057584390779766e-05,1.2712999559510508e-09,7.292114999999996e-05,2.4897623402833244e-40,2.79183632379757e-20,292.96631246474,339.5933558352056,1.2037092070967585,99154.38299209088,286.9651305631106,-137.3174528560195,0.012095933544513434,134.6029940379893,0.0,0.0,0.0,1.2323651313781738,105411.68658808141,418.5026745344238,-292.96631246474004
0.6200000047683716,6378322.212266345,288.3626723716652,187.08604627246032,6378322.218784755,-0.008374113991622198,187.08604627246035,292.74663688752923,465.1010820953692,298.77148654005987,298.7628412092988,-0.026744661211205868,-292.77648607634995,185.22154700709083,-1.312902312611246e-09,2.9529219149649397e-05,9.813626444085708,-4.791112249348896e-21,2.9529219150077e-05,1.3129023125393728e-09,7.292114999999996e-05,2.5305781163535433e-40,2.79183632379757e-20,292.77648607635,339.5820923587398,1.2033694246205713,99119.8182905294,286.94609502347714,-137.16986593059138,0.012278997436800167,134.41343297413263,0.0,-0.0,0.0,1.231816649436951,105281.17313800532,418.3025362253418,-292.77648607634995
0.6299999952316284,6378325.138781728,293.0136831916719,190.07329132889882,6378325.145512102,-0.008643656602198617,190.07329132889885,292.5564630684892,465.1010819045739,298.6775429136627,298.66876523790495,-0.027163013240057463,-292.58678942952065,188.14836326872071,-1.355160861982784e-09,3.0000705717127403e-05,9.813617423147386,-4.791345127466346e-21,3.0000705717251324e-05,1.3551608619013272e-09,7.292114999999996e-05,2.571393892423762e-40,2.79183632379757e-20,292.5867894295207,339.5708358173863,1.2030299359240704,99085.2857641611,286.9270718351356,-137.02251881392627,0.012461595821638857,134.22418937462103,0.0,-0.0,0.0,1.2312686443328855,105150.87009922357,418.1025549121094,-292.58678942952065
0.6399999856948853,6378328.063396021,297.66469400973205,193.0595974534045,6378328.070341749,-0.008917380845227462,193.0595974534045,292.36641890410465,465.10108170607,298.5837001239945,298.57479032194107,-0.027580963363665254,-292.3972223066949,191.07328320965988,-1.3980749730782823e-09,3.0472042807548415e-05,9.813608408066269,-4.79099687699925e-21,3.0472042807773564e-05,1.3980749729872426e-09,7.292114999999996e-05,2.61220966849398e-40,2.79183632379757e-20,292.3972223066949,339.55958620684515,1.2026907407032348,99050.78537660498,286.90806098965464,-136.87541098708434,0.012643729869564342,134.0352625473498,0.0,-0.0,0.0,1.230721116065979,105020.78916125251,417.9027933930664,-292.3972223066949
0.6499999761581421,6378330.98611052,302.31570482576814,196.0449656535256,6378330.993274998,-0.009195282705783918,196.04496565352562,292.1765041774959,465.1010814997186,298.4899580072814,298.4809162973737,-0.027998512089455883,-292.2077844911716,193.99630813026957,-1.4416440155706876e-09,3.094323041491897e-05,9.813599398838349,2.4874993164061825e-25,3.0943230415093504e-05,1.4416440154940227e-09,7.292114999999996e-05,2.6530254445641987e-40,2.79183632379757e-20,292.20778449117165,339.5483435227839,1.202351838653166,99016.31709141948,286.88906247854834,-136.72854193241292,0.012825400747872709,133.8466518019752,-0.0,0.0,0.0,1.230173945426941,104890.9186345758,417.70318886987303,-292.2077844911716
0.6600000262260437,6378333.906926517,306.9667156397009,199.0293969351741,6378333.91431313,-0.0094773581742449,199.0293969351741,291.98671867225517,465.10108128538127,298.39631640010424,298.3871429997887,-0.028415659923191557,-292.01847576747224,196.91743931298288,-1.4858673599664477e-09,3.141427105117626e-05,9.813590395459643,-4.791542973989452e-21,3.141427105109249e-05,1.485867359923324e-09,7.292114999999996e-05,2.6938412206344177e-40,2.79183632379757e-20,292.0184757674723,339.5371077609374,1.2020132294714396,98981.8808724124,286.8700762934473,-136.58191113388744,0.013006609620219177,133.65835645024688,0.0,-0.0,0.0,1.2296273708343506,104761.27020870979,417.5037413425293,-292.01847576747224
0.6700000166893005,6378336.825845306,311.6177264514497,202.01289230262984,6378336.83345745,-0.009763603246046474,202.01289230262987,291.79706217244615,465.10108106291983,298.3027751393966,298.29347026620235,-0.02883240737000954,-291.8292959194909,199.83667805613828,-1.5307443775674683e-09,3.1885163546338836e-05,9.81358139792611,2.220012360601474e-25,3.188516354648021e-05,1.5307443775195532e-09,7.292114999999996e-05,2.734656996704636e-40,2.79183632379757e-20,291.8292959194909,339.5258789169786,1.201674912853982,98947.47668324232,286.85110242587893,-136.43551807666225,0.01318735764706203,133.47037580556648,0.0,0.0,0.0,1.229081153869629,104631.83219413813,417.3044822102051,-291.8292959194909
0.6800000071525574,6378339.742868173,316.2687372609328,204.9954527585435,6378339.750709236,-0.01005401392147594,204.9954527585435,291.60753446260213,465.1010808321966,298.20933406244455,298.19989793360963,-0.029248754933659867,-291.64024473197134,202.7540256428424,-1.576274440438519e-09,3.235590800788581e-05,9.8135724062338,3.8946378455510017e-25,3.235590800817553e-05,1.5762744403522713e-09,7.292114999999996e-05,2.775472772774855e-40,2.79183632379757e-20,291.6402447319713,339.5146569866383,1.2013368884987303,98913.10448778518,286.8321408674698,-136.28936224747505,0.013367645985365027,133.2827091833818,0.0,0.0,0.0,1.228535294532776,104502.61628037716,417.1054114729004,-291.64024473197134
0.6899999976158142,6378342.657996406,320.9197480680668,207.97707930394066,6378342.666069779,-0.010348586205879818,207.97707930394063,291.41813532772505,465.10108059307413,298.1159930068853,298.1064258397078,-0.029664703116921164,-291.451321989768,205.66948335889276,-1.6224569214398221e-09,3.282650334336848e-05,9.813563420378689,-4.7911202709791225e-21,3.2826503343604095e-05,1.622456921377532e-09,7.292114999999996e-05,2.8162885488450734e-40,2.79183632379757e-20,291.451321989768,339.5034419656357,1.200999156103672,98878.76424992313,286.81319160982866,-136.1434431344071,0.013547475788772667,133.09535590095027,0.0,-0.0,0.0,1.2279900312423706,104373.62246742689,416.9064977314453,-291.451321989768
0.699999988079071,6378345.57123129,325.57075887276693,210.95777293822474,6378345.579540366,-0.010647316109802327,210.95777293822474,291.228864553284,465.10108034541526,298.0227518107062,298.01305382108916,-0.0300802524215313,-291.2625274796914,208.58305249178466,-1.6692911942487765e-09,3.329695345421033e-05,9.81355444035682,-4.791187349474172e-21,3.329695345442501e-05,1.6692911941864863e-09,7.292114999999996e-05,2.857104324915292e-40,2.79183632379757e-20,291.2625274796914,339.4922338496827,1.2006617153667434,98844.45593355598,286.79425464455363,-135.9977602268912,0.013726848207591498,132.90831527734548,0.0,-0.0,0.0,1.227445125579834,104244.83906577097,416.70774098583985,-291.2625274796914
0.7099999785423279,6378348.482574107,330.22176967494727,213.93753465918095,6378348.491122278,-0.010950199648638933,213.93753465918098,291.0397219252137,465.1010800890832,297.9296103122442,297.91978171685184,-0.03049540334791025,-291.07386098681167,211.4947343205102,-1.7167766333056307e-09,3.376725484449942e-05,9.813545466164204,1.8687799310977855e-25,3.376725484454655e-05,1.7167766332577152e-09,7.292114999999996e-05,2.89792010098551e-40,2.79183632379757e-20,291.07386098681167,339.4810326345227,1.2003245659872728,98810.17950272169,286.7753299632981,-135.8523130158415,0.013905764388685592,132.72158663358243,0.0,0.0,0.0,1.2269006967544556,104116.2660754094,416.5091726352539,-291.07386098681167
0.7200000286102295,6378351.392026139,334.8727804745203,216.9163654629796,6378351.400816796,-0.011257232842913618,216.9163654629796,290.85070722991435,465.1010798239417,297.83656835018445,297.8266093649872,-0.03091015639557585,-290.8853222981522,214.40453012307236,-1.7649126138569359e-09,3.423740901297268e-05,9.813536497796889,-4.791351599933218e-21,3.4237409013100086e-05,1.7649126138138125e-09,7.292114999999996e-05,2.938735877055729e-40,2.79183632379757e-20,290.8853222981522,339.46983831590234,1.1999877076647945,98775.93492150726,286.7564175577217,-135.70710099355014,0.0140842254756696,132.53516929251455,0.0,-0.0,0.0,1.2263567447662354,103987.91518585851,416.31076128051757,-290.8853222981522
0.7300000190734863,6378354.299588661,339.52379127139733,219.89426634417956,6378354.308625194,-0.011568411717932211,219.8942663441796,290.66182025424865,465.10107954985455,297.74362576355946,297.73353660418553,-0.031324512062728044,-290.69691120084127,217.31244117559612,-1.8136985119012143e-09,3.470741625666418e-05,9.81352753525091,1.2642600419048688e-25,3.4707416256627527e-05,1.8136985118437161e-09,7.292114999999996e-05,2.9795516531259477e-40,2.79183632379757e-20,290.69691120084127,339.4586508895742,1.1996511400994607,98741.72215405949,286.73751741949667,-135.5621236536946,0.014262232608726359,132.34906257883952,-0.0,0.0,0.0,1.2258132696151731,103859.77470760197,416.1125383208008,-290.69691120084127
0.7400000095367432,6378357.205262952,344.1748020654882,222.87123829573173,6378357.214548753,-0.011883732304129077,222.87123829573176,290.47306078554203,465.1010792666862,297.65078239174824,297.64056327419263,-0.03173847084652602,-290.50862748174245,220.2184687538945,-1.8631337042432826e-09,3.5177274432923976e-05,9.813518578522322,7.027362274674e-25,3.517727443339871e-05,1.8631337041666174e-09,7.292114999999996e-05,3.020367429196166e-40,2.79183632379757e-20,290.5086274817424,339.4474703512913,1.1993148629916823,98707.54116456628,286.7186295402972,-135.4173804913118,0.014439786924745256,132.16326581907217,0.0,0.0,0.0,1.22527015209198,103731.84464063979,415.9145037561035,-290.50862748174245
0.75,6378360.109050284,348.8258128567016,225.84728230898256,6378360.118588746,-0.0122031906369284,225.8472823089826,290.28442861158055,465.1010789743011,297.5580380744754,297.5476892132897,-0.032152033243434866,-290.32047093003484,223.12261413271708,-1.9132175684725133e-09,3.564698763007064e-05,9.813509627607159,2.904964508103952e-25,3.564698763036559e-05,1.913217568415015e-09,7.292114999999996e-05,3.061183205266385e-40,2.79183632379757e-20,290.32047093003484,339.4362966968097,1.1989788760422297,98673.3919172653,286.6997539118041,-135.27287100280506,0.014616889557488124,131.97777834155002,-0.0,0.0,0.0,1.2247275114059448,103604.12498497195,415.7166261872559,-290.32047093003484
0.7599999904632568,6378363.010951932,353.4768236449444,228.8223993736775,6378363.020746442,-0.012526782756259127,228.82239937367754,290.09592352061014,465.10107867256426,297.4653926518099,297.45491426189255,-0.03256519974825515,-290.13244133352373,226.02487857952528,-1.963949482886779e-09,3.611655377965338e-05,9.813500682501497,1.6355295386433164e-25,3.61165537797389e-05,1.963949482848447e-09,7.292114999999996e-05,3.101998981336604e-40,2.79183632379757e-20,290.13244133352373,339.42512992191257,1.1986431789529566,98639.27437651745,286.6808905257461,-135.1285946860192,0.014793541637167115,131.79259947650448,0.0,0.0,0.0,1.224185347557068,103476.62743011481,415.51890561425785,-290.13244133352373
0.7699999809265137,6378365.910969162,358.1278344301225,231.79659047796443,6378365.921023115,-0.012854504707802332,231.79659047796446,289.90754530133484,465.10107836134074,297.37284596416475,297.3622382600301,-0.03297797085516257,-289.9445384812215,228.92526336625858,-2.015328826688015e-09,3.658597332887967e-05,9.813491743201396,4.225833208788545e-25,3.658597332893727e-05,2.0153288266784317e-09,7.292114999999996e-05,3.1428147574068216e-40,2.79183632379757e-20,289.94453848122157,339.41397002236494,1.1983077714255617,98605.18850666827,286.66203937382284,-134.98455104008426,0.014969744290911769,131.60772855590727,-0.0,0.0,0.0,1.2236435413360596,103349.32859703565,415.3213734362793,-289.9445384812215
0.7799999713897705,6378368.809103244,362.7788452121404,234.76985660839688,6378368.8194200285,-0.01318635254160525,234.76985660839688,289.71929374291597,465.10107804049636,297.28039785229515,297.26966104806405,-0.033390347057222866,-289.75676216260774,231.82376975563562,-2.0673549797649163e-09,3.7055246761776435e-05,9.81348280970294,3.561107455229762e-25,3.7055246761795625e-05,2.067354979736167e-09,7.292114999999996e-05,3.183630533477041e-40,2.79183632379757e-20,289.7567621626077,339.4028169939664,1.1979726531629804,98571.13427220857,286.64320044779345,-134.8407395655878,0.015145498642576397,131.42316491363616,0.0,0.0,0.0,1.223102331161499,103222.2518647672,415.1239982541504,-289.75676216260774
0.7900000214576721,6378371.705355441,367.42985599090116,237.7421987499379,6378371.715938451,-0.013522322312704973,237.74219874993798,289.53116863497064,465.10107770989697,297.18804815729834,297.17718246704663,-0.033802328845906664,-289.56911216726064,234.72039901470814,-2.1200273227907136e-09,3.752437336093654e-05,9.81347388200219,7.32694009285121e-26,3.752437336088942e-05,2.120027322771547e-09,7.292114999999996e-05,3.2244463095472584e-40,2.79183632379757e-20,289.56911216726064,339.39167083249885,1.1976378238678909,98537.11163761556,286.6243737393895,-134.6971597643955,0.015320805812511447,131.23890788529934,0.0,0.0,0.0,1.2225613594055176,103095.38554379309,414.92681146704103,-289.56911216726064
0.800000011920929,6378374.599727021,372.08086676630677,240.7136178859631,6378374.6105796425,-0.013862410081128472,240.7136178859631,289.3431697675707,465.10107736940904,297.0957967206123,297.0848023580016,-0.03421391671192108,-289.3815882855915,237.61515240167958,-2.1733452372231725e-09,3.7993353684697815e-05,9.813464960095251,6.313727145583807e-25,3.799335368477113e-05,2.1733452372135892e-09,7.292114999999996e-05,3.2652620856174778e-40,2.79183632379757e-20,289.3815882855915,339.38053153377746,1.1973032832443629,98503.12056750726,286.6055592403999,-134.55381113981727,0.015495666917970071,131.0549568083949,0.0,0.0,0.0,1.222020983695984,102968.72963411333,414.7297816757813,-289.3815882855915
0.8100000023841858,6378377.492219242,376.73187753825727,243.68411499826408,6378377.503344871,-0.014206611911892446,243.68411499826408,289.1552969312415,465.101077018899,297.00364338401505,296.9925205622833,-0.03462511114534835,-289.19419030847587,240.50803118362384,-2.2273081053045873e-09,3.846218832804649e-05,9.813456043978196,5.402182591821738e-25,3.846218832829782e-05,2.2273081053141706e-09,7.292114999999996e-05,3.3060778616876963e-40,2.79183632379757e-20,289.19419030847587,339.36939909358205,1.196969030995641,98469.16102643454,286.5867569425558,-134.4106931963732,0.01567008307315438,130.87131102208176,0.0,0.0,0.0,1.2214809656143188,102842.28413572792,414.5329088803711,-289.19419030847587
0.8199999928474426,6378380.3828333635,381.38288830665215,246.6536910670521,6378380.39423539,-0.014554923874587788,246.6536910670522,288.9675499169603,465.1010766582338,296.91158798962334,296.900336921575,-0.03503591263460636,-289.0069180272513,243.39903661277546,-2.281915309996587e-09,3.893087792207267e-05,9.813447133647141,-6.369578497943446e-26,3.89308779218545e-05,2.28191531000617e-09,7.292114999999996e-05,3.346893637757915e-40,2.79183632379757e-20,289.00691802725123,339.3582735077489,1.1966350668268253,98435.2329791592,286.56796683768505,-134.2678054400966,0.015844055388787543,130.6879698674731,0.0,0.0,0.0,1.220941424369812,102716.04904863685,414.3362244799805,-289.0069180272513
0.8299999833106995,6378383.271570643,386.0338990713891,249.62234707096115,6378383.283252456,-0.01490734204372584,249.6223470709612,288.7799285161556,465.10107628728076,296.8196303798922,296.80825127824585,-0.0354463216670723,-288.8197712333494,246.28816994516518,-2.3371662350344533e-09,3.9399421897758876e-05,9.813438229098185,4.555324632388693e-25,3.939942189778331e-05,2.33716623502487e-09,7.292114999999996e-05,3.3877094138281335e-40,2.79183632379757e-20,288.81977123334946,339.34715477209846,1.1963013904430164,98401.33639043545,286.549188917591,-134.1251473782881,0.01601758497238154,130.50493268739513,-0.0,0.0,0.0,1.2204023599624634,102590.02437284013,414.1397284746094,-288.8197712333494
