time,feVelocity_m_s_X,feVelocity_m_s_Y,feVelocity_m_s_Z,altitudeMsl_m,longitude_rad,latitude_rad,localGravity_m_s2,eulerAngle_rad_Yaw,eulerAngle_rad_Pitch,eulerAngle_rad_Roll,bodyAngularRateWrtEi_rad_s_Roll,bodyAngularRateWrtEi_rad_s_Pitch,bodyAngularRateWrtEi_rad_s_Yaw,altitudeRateWrtMsl_m_s,speedOfSound_m_s,airDensity_kg_m3,ambientPressure_Pa,ambientTemperature_K,aero_bodyForce_N_X,aero_bodyForce_N_Y,aero_bodyForce_N_Z,aero_bodyMoment_Nm_L,aero_bodyMoment_Nm_M,aero_bodyMoment_Nm_N,mach,trueAirspeed_m_s
0.0,304.8,0.0,-304.8,0.0,0.0,0.0,9.814197669,0.0,0.0,0.0,7.289999999989351e-05,0.0,0.0,304.8,340.29372012240003,1.2250039125042,101325.14585817013,288.15,-146.79532301952491,0.0,146.79532301952491,0.0,0.0,0.0,1.266706578,431.05192044527763
0.1,303.79814596104,-0.0042034964952,-302.82460695816,30.381110032680002,-3.141592653589793e-11,4.7709447767890994e-06,9.814113358272001,-4.171336912266447e-15,4.7724457599458155e-06,2.5132741228718345e-11,7.289999999989351e-05,0.0,0.0,302.82460694800005,340.177111872,1.221560666621142,100971.10241730112,287.9525531666667,-145.34924344850089,0.0017997148797614761,144.9288646650906,0.0,0.0,0.0,1.260953779,428.9472431002416
0.2,302.80727898672,-0.0085861449816,-300.86336117784003,60.5653932708,-1.3177235852557188e-10,9.526251403480331e-06,9.814020257112004,-1.9547687622336492e-14,9.529305729671319e-06,1.186823891356144e-10,7.289999999989351e-05,0.0,0.0,300.863361188,340.0612189872,1.218139582027258,100619.73596171167,287.7563852222222,-143.76682793115103,0.0038680845521982254,142.88759782902676,0.0,0.0,0.0,1.255249916,426.8614467760048
0.3,301.82717014176,-0.012926280573600001,-298.91595950496003,90.55424604888,-3.0019663134302465e-10,1.4266076959706371e-05,9.81392776250401,-4.642575810304916e-14,1.4270667175639116e-05,2.8099800957108704e-10,7.289999999989351e-05,0.0,0.0,298.9159594948,339.94603750560003,1.2147406587225482,100271.02393979981,287.5614875555556,-142.20947249336172,0.005884828164568261,140.87987205185516,0.0,0.0,0.0,1.249593999,424.79416081566524
0.4,300.85764956112,-0.0172244525208,-296.98217532072,120.34904135376,-5.375614096142534e-10,1.899061343168494e-05,9.813835868352019,-8.429940287132613e-14,1.8996722084066923e-05,5.096361415823443e-10,7.289999999989351e-05,0.0,0.0,296.9821753004,339.83156316,1.2113638967070122,99924.9499286367,287.3678516111111,-140.67663320659383,0.007851209011810318,138.90496236241685,0.0,0.0,0.0,1.243985322,422.7451105061268
0.5,299.89855097640003,-0.0214811991,-295.06178663928,149.95112984568001,-8.395033702092725e-10,2.369998299246368e-05,9.81374456551203,-1.333431548523668e-13,2.3707610081294896e-05,8.063421144213802e-10,7.289999999989351e-05,0.0,0.0,295.0617866088,339.7177907688,1.208008780601832,99581.48520006699,287.17546788888893,-139.16782214541843,0.009768441458425361,136.96220428536702,0.0,0.0,0.0,1.238423194,420.7140271532884
0.6,298.94971150248,-0.025697047005600004,-293.15457610776,179.36184014784,-1.2095131716320705e-09,2.8394395081552827e-05,9.81365385703204,-1.937315469713706e-13,2.840350570024824e-05,1.1711159280881952e-09,7.289999999989351e-05,0.0,0.0,293.1545760976,339.6047163696,1.204675310407008,99240.6074897702,286.98432772222225,-137.6825387959393,0.011637717627806281,135.05092542752627,0.0,0.0,0.0,1.232906937,418.70064782482166
0.7,298.01097157656,-0.0298725110448,-291.26033085384,208.58247939504002,-1.6458454846306528e-09,3.3073989325292546e-05,9.813563736816057,-2.635447170511438e-13,3.308456602055963e-05,1.5987215948268058e-09,7.289999999989351e-05,0.0,0.0,291.260330864,339.4923347808,1.20136348612254,98902.28869203436,286.79442255555557,-136.2203118690763,0.01346019850579466,133.17048671289515,0.0,0.0,0.0,1.227435889,416.70471509294885
0.8,297.0821748972,-0.034008095966400004,-289.37884236384,237.6143336604,-2.1467549799530254e-09,3.773892280331551e-05,9.813474198768072,-3.455751918948772e-13,3.775096557515427e-05,2.0943951023931954e-09,7.289999999989351e-05,0.0,0.0,289.37884237400004,339.38064295440006,1.198073307748428,98566.5191829274,286.6057447222222,-134.7806654051167,0.015237000596015928,131.32024902099198,0.0,0.0,0.0,1.222009402,414.7259773431096
0.9,296.16316836336,-0.0381042955464,-287.50990639128,266.45866838208,-2.705260340591211e-09,4.238933514196188e-05,9.81338524288809,-4.380776422505767e-13,4.24028265370798e-05,2.652900463031381e-09,7.289999999989351e-05,0.0,0.0,287.5099063608,339.2696363184,1.194804259905854,98233.27100037805,286.4182857777778,-133.3631436837559,0.016969218160987443,129.49959742966067,0.0,0.0,0.0,1.21662684,412.7641880022948
1.0,295.25380189152,-0.0421615931976,-285.65332283496,295.11672872904,-3.3335788713091694e-09,4.702540087415686e-05,9.813296860032112,-5.393067388662478e-13,4.7040323439261414e-05,3.2812189937493395e-09,7.289999999989351e-05,0.0,0.0,285.65332282480006,339.15931030080003,1.1915563425948181,97902.52839178113,286.2320369444444,-131.9673023276546,0.018657918773896862,127.70793222966303,0.0,0.0,0.0,1.211287585,410.81910589915725
1.1,294.3539283852,-0.0461804622744,-283.80889558656,323.58974011920003,-4.031710572106901e-09,5.164727707953312e-05,9.813209050200136,-6.527531402458793e-13,5.166359590803927e-05,3.961897402027128e-09,7.289999999989351e-05,0.0,0.0,283.8088955764,339.0496603296,1.188329040436502,97574.25760155405,286.0469898333333,-130.59271586441528,0.020304138870380545,125.94467648665558,0.0,0.0,0.0,1.20599103,408.89049500678965
1.2,293.46340376544003,-0.0501613666824,-281.97643253064,351.87890873760006,-4.782202150464463e-09,5.625508593113831e-05,9.813121807296161,-7.766715171374767e-13,5.627281847633858e-05,4.71238898038469e-09,7.289999999989351e-05,0.0,0.0,281.9764325408,338.9406839664,1.185122868809724,97248.45005913045,285.86313855555557,-129.23895352825676,0.021908879300301925,124.20925197631054,0.0,0.0,0.0,1.200736577,406.9781240311696
1.3,292.58208669648,-0.054104759964,-280.15574536176,379.9854210792,-5.6025068989017976e-09,6.08489845086051e-05,9.813035128272189,-9.093165402890457e-13,6.086809586391444e-05,5.515240436302082e-09,7.289999999989351e-05,0.0,0.0,280.15574535160005,338.8323766392,1.181937312335666,96925.07828124169,285.68047466666667,-127.90561084238747,0.023473127568859584,122.50110996600945,0.0,0.0,0.0,1.195523644,405.08176677127045
1.4,291.70983870768003,-0.058011086822400006,-278.34664952352,407.910446052,-6.492624817418906e-09,6.542911243827366e-05,9.812949013128216,-1.0524335389525807e-12,6.544960260369207e-05,6.387905062299246e-09,7.289999999989351e-05,0.0,0.0,278.3466495032,338.7247343856,1.178772371014328,96604.12713772591,285.4989904444444,-126.59228546516239,0.024997835595479193,120.81970759478641,0.0,0.0,0.0,1.190351663,403.2012017075056
1.5,290.84652398016004,-0.06188078312160001,-276.54896408664,435.6551333616,-7.4176493209759004e-09,6.999562679977667e-05,9.812863452720253,-1.2060225131280817e-12,7.001746086871911e-05,7.3303828583761845e-09,7.289999999989351e-05,0.0,0.0,276.54896409680003,338.6177532432,1.17562804484571,96285.57546550866,285.31867733333337,-125.29858466309507,0.026483924162035113,119.16451516841146,0.0,0.0,0.0,1.185220077,401.3362117959516
1.6,289.99200943824,-0.0657142752768,-274.76251177944005,463.22061503520007,-8.429940287132611e-09,7.454864976616175e-05,9.812778447048284,-1.3683381335635542e-12,7.457182773862824e-05,8.325220532012953e-09,7.289999999989351e-05,0.0,0.0,274.7625117896,338.5114298592,1.1725038184509942,95969.40291547988,285.13952961111113,-124.02412535534005,0.027932309602180086,117.53501589249733,0.0,0.0,0.0,1.180128337,399.48658462268077
1.7,289.14616444464,-0.0695119814736,-272.98711868304,490.60800603120003,-9.47713783832921e-09,7.90883384170616e-05,9.812693990016319,-1.5428710587629873e-12,7.91128428397596e-05,9.37241808320955e-09,7.289999999989351e-05,0.0,0.0,272.9871186932,338.4057596616,1.16939969183018,95655.58846820585,284.96153872222226,-122.76854127532945,0.029343868215572312,115.93071258931408,0.0,0.0,0.0,1.175075911,397.6521121465396
1.8,288.30886098336,-0.0732743107536,-271.2226143228,517.8184036296,-1.0611601852125524e-08,8.361479747223133e-05,9.812610081624356,-1.7243853009703976e-12,8.364062834516085e-05,1.0489428804485921e-08,7.289999999989351e-05,0.0,0.0,271.2226143228,338.30074051680003,1.166315664983268,95344.1239361623,284.7846988888889,-121.53146722406873,0.030719454060761934,114.3511127962467,0.0,0.0,0.0,1.170062273,395.8325905962596
1.9,287.47997341584,-0.077001665148,-269.46883151592,544.8528880416001,-1.1780972450961725e-08,8.812818401130364e-05,9.812526715776396,-1.9198621771937625e-12,8.815530642787964e-05,1.1658799403322122e-08,7.289999999989351e-05,0.0,0.0,269.4688314956,338.196367548,1.163251737910258,95034.97661713234,284.60900155555555,-120.31254681004205,0.03205990340341261,112.795735749503,0.0,0.0,0.0,1.165086913,394.0278204190132
2.0,286.65937860288,-0.0806944372392,-267.72560631048003,571.7125236288,-1.30201562198777e-08,9.262862020732614e-05,9.812443892472437,-2.1118483949131385e-12,9.265703416754861e-05,1.2897983172238097e-08,7.289999999989351e-05,0.0,0.0,267.7256063308,338.09263709760006,1.160207395232332,94728.13813207067,284.43444005555557,-119.11143956636698,0.03336603471630155,111.2641191454105,0.0,0.0,0.0,1.160149328,392.237606074636
2.1,285.8469556608,-0.08435301229440001,-265.99277795496,598.3983576840001,-1.4311699866353502e-08,9.711622823334647e-05,9.812361602568483,-2.3212879051524585e-12,9.714593373721543e-05,1.4172073526193956e-08,7.289999999989351e-05,0.0,0.0,265.9927779448,337.98954764160004,1.157183152328308,94423.58310444001,284.2610096111111,-117.92779813141757,0.03463863533465465,109.75579769998826,0.0,0.0,0.0,1.155249022,390.4617561385156
2.2,285.04258599192,-0.08797776857040002,-264.27018871536,624.91142226,-1.5655603390389138e-08,0.00010159116516899735,9.812279849112533,-2.5481807079117214e-12,0.00010162210985663519,1.5533430342749532e-08,7.289999999989351e-05,0.0,0.0,264.27018870520004,337.88709338880005,1.15417797844055,94121.30253275168,284.0887006666667,-116.76130543595711,0.035878479249032987,108.2703377116288,0.0,0.0,0.0,1.15038552,388.7000829929252
2.3,284.24615325408,-0.0915690757896,-262.5576838752,651.2527332552,-1.706932008450454e-08,0.00010605351828074132,9.812198626008572,-2.775073510670984e-12,0.00010608571960544061,1.6929693744344997e-08,7.289999999989351e-05,0.0,0.0,262.55768387520004,337.7852725104,1.151192388947876,93821.27108834867,283.9175085,-115.61163720462983,0.03708631820888952,106.80730178670068,0.0,0.0,0.0,1.145558346,386.95240277557923
2.4,283.4575432692,-0.09512729666400001,-260.8551116136,677.4232916328001,-1.8500490071139893e-08,0.00011050342719491858,9.812117930208625,-3.01941960595019e-12,0.00011053688515667932,1.832595714594046e-08,7.289999999989351e-05,0.0,0.0,260.8551116136,337.6840813488,1.1482263838502862,93523.48091886853,283.74742638888887,-114.47847659061007,0.03826289061901238,105.3662628514466,0.0,0.0,0.0,1.140767037,385.21853548252204
2.5,282.67664396232,-0.0986527868952,-259.16232300528003,703.4240834208001,-2.0071286397934788e-08,0.00011494103153786928,9.812037758664673,-3.2637657012293963e-12,0.00011497569377681389,1.9896753472735358e-08,7.289999999989351e-05,0.0,0.0,259.1623230256,337.583516856,1.145279447768962,93227.90037546004,283.5784477222222,-113.36152142620352,0.039408903746638406,103.94681029052929,0.0,0.0,0.0,1.136011143,383.4983046594616
2.6,281.90334536160003,-0.1021458954792,-257.47917199008003,729.2560791024001,-2.1642082724729687e-08,0.00011936641857605603,9.811958105280727,-3.5255650890285456e-12,0.00011940231999876954,2.1467549799530254e-08,7.289999999989351e-05,0.0,0.0,257.4791720104,337.48357446000006,1.142352096082722,92934.52720775105,283.4105647777778,-112.26046202622133,0.04052505151433957,102.54852979658747,0.0,0.0,0.0,1.131290222,381.791537453214
2.7,281.13753947640004,-0.10560696409680001,-255.80551509864,754.9202357496,-2.3212879051524583e-08,0.00012377974538911149,9.811878976152789,-3.7873644768276954e-12,0.00012381683363571637,2.3038346126325152e-08,7.289999999989351e-05,0.0,0.0,255.80551510880002,337.3842532464,1.1394432980339302,92643.34288608133,283.24377383333336,-111.17502442469419,0.04161202784468785,101.17104269251506,0.0,0.0,0.0,1.126603835,380.0980644059256
2.8,280.37912038872,-0.109036328028,-254.14121163528003,780.4174954992,-2.4958208303518915e-08,0.00012818108179020576,9.811800359088839,-4.066617157146788e-12,0.00012821937431399451,2.4783675378319478e-08,7.289999999989351e-05,0.0,0.0,254.14121160480002,337.2855483384001,1.1365535690014041,92354.32160299129,283.0780672222222,-110.1049053863546,0.04267047772981747,99.81394645873809,0.0,0.0,0.0,1.12195156,378.4177195065176
2.9,279.6279839484,-0.1124343158472,-252.48612343416,805.748786772,-2.670353755551324e-08,0.0001325705848589715,9.811722254088902,-4.345869837465881e-12,0.00013261004675335907,2.652900463031381e-08,7.289999999989351e-05,0.0,0.0,252.48612342400003,337.1874576024,1.133682393606326,92067.4560328013,282.9134391666667,-109.04984375611154,0.043701063954749104,98.47687972173252,0.0,0.0,0.0,1.117332979,376.75033998490846
3.0,278.88402804744004,-0.115801249728,-250.84011495072002,830.9150242728001,-2.8448866807507573e-08,0.0001369483418618713,9.811644661152956,-4.6251225177849735e-12,0.00013698897312685774,2.8274333882308136e-08,7.289999999989351e-05,0.0,0.0,250.84011493040003,337.08997768560005,1.130830287227514,91782.72726280909,282.7498840555556,-108.00954933198683,0.044704400374065645,97.15945771032864,0.0,0.0,0.0,1.112747682,375.09576651779116
3.1,278.1471523152,-0.1191374460528,-249.2030530788,855.9171096,-3.0368728984701336e-08,0.00014131449242524535,9.811567574185023,-4.939281783143953e-12,0.00014135627560753813,3.01941960595019e-08,7.289999999989351e-05,0.0,0.0,249.2030530788,336.99310554000004,1.1279967344861501,91500.12777581396,282.5873951111111,-106.98377319149886,0.04568110973879323,95.8613355094224,0.0,0.0,0.0,1.108195272,373.4538426627456
3.2,277.41725824032,-0.1224432148032,-247.57480712016002,880.7559303312,-3.2114058236695665e-08,0.00014566910636226374,9.811490990137095,-5.2359877559829886e-12,0.0001457120414618628,3.193952531149623e-08,7.289999999989351e-05,0.0,0.0,247.57480711000002,336.8968384224,1.125181220003416,91219.62711997122,282.4259676111111,-105.9722442600224,0.046631788110628326,94.58215103377434,0.0,0.0,0.0,1.103675354,371.82441526979284
3.3,276.69424907928,-0.12571886016960002,-245.95524884544,905.4323621568,-3.4208453339088855e-08,0.00015001232329926658,9.811414909009153,-5.550147021341968e-12,0.00015005639286287944,3.403392041388943e-08,7.289999999989351e-05,0.0,0.0,245.95524885560002,336.80117298000005,1.1223847745369482,90941.22400251389,282.26559488888887,-104.97471819674415,0.04755702265482413,93.321568754028,0.0,0.0,0.0,1.099187546,370.20733417272925
3.4,275.97802970400005,-0.1289646799416,-244.34425225032,929.9472670512,-3.6128315516282624e-08,0.00015434424795600902,9.811339327753227,-5.881759579220891e-12,0.0001543894519836357,3.595378259108319e-08,7.289999999989351e-05,0.0,0.0,244.34425223000002,336.7061076888,1.1196063673291101,90664.89433967168,282.10627305555556,-103.99093558137949,0.04845737829552577,92.07924228716618,0.0,0.0,0.0,1.094731468,368.6024521891264
3.5,275.2685068152,-0.13218096703200002,-242.74169361648,954.3014951016,-3.822271061867582e-08,0.0001586649850522462,9.811264240273289,-6.213372137099813e-12,0.0001587112886373016,3.804817769347638e-08,7.289999999989351e-05,0.0,0.0,242.74169363680002,336.6116382816,1.116845998379902,90390.62472497209,281.94799461111114,-103.02066301574025,0.04933341550865679,90.85485096089268,0.0,0.0,0.0,1.090306754,367.009624965998
3.6,274.5655886376,-0.1353680085624,-241.14745154208,978.4958842032,-4.031710572106901e-08,0.00016297462185444066,9.81118964656937,-6.562437987498679e-12,0.00016302204245021736,4.0142572795869577e-08,7.289999999989351e-05,0.0,0.0,241.14745156240002,336.51776323440004,1.1141036676893241,90118.40898186169,281.79075566666666,-102.06365873898166,0.050185672529032624,89.64806916538524,0.0,0.0,0.0,1.085913041,365.428711031244
3.7,273.8691849504,-0.138526086168,-239.56140660648,1002.5312600592,-4.2411500823462206e-08,0.0001672732805356401,9.811115546641435,-6.911503837897545e-12,0.00016732180068884553,4.223696789826278e-08,7.289999999989351e-05,0.0,0.0,239.56140657600002,336.4244804136,1.111395352000734,89849.50425442029,281.6345523888889,-101.11976612922065,0.05101472317724164,88.45864824505556,0.0,0.0,0.0,1.08154997,363.8595716393176
3.8,273.17915161368,-0.14165544704160002,-237.98339305944,1026.408434352,-4.4680428851054836e-08,0.00017156106581559959,9.811041934393517,-7.260569688296411e-12,0.00017161065061964875,4.433136300065597e-08,7.289999999989351e-05,0.0,0.0,237.98339306960003,336.3317983536,1.1088380423058182,89593.35310428184,281.47939816666667,-100.20201069140211,0.051827938156500344,87.29782538631254,0.0,0.0,0.0,1.07721694,362.30199689706683
3.9,272.49536689032,-0.1447563417288,-236.41326606000004,1050.1282029144,-4.6949356878647466e-08,0.00017583804750748925,9.810968806777586,-7.62708883121522e-12,0.00017588871441567467,4.66002910282486e-08,7.289999999989351e-05,0.0,0.0,236.41326606000004,336.239702424,1.106297224733078,89339.11678146051,281.32526722222224,-99.29650983724031,0.05261908995654734,86.15330388084077,0.0,0.0,0.0,1.072913513,360.7558077779796
4.0,271.81774747848004,-0.1478290344912,-234.85091511816,1073.691348168,-4.9218284906240096e-08,0.00018010436523764926,9.81089616379366,-7.99360797413403e-12,0.00018015609679667837,4.886921905584122e-08,7.289999999989351e-05,0.0,0.0,234.850915108,336.1481895768,1.103773414661332,89086.78317225078,281.17215383333337,-98.40305650201907,0.053388658985317104,85.02480099967435,0.0,0.0,0.0,1.068639366,359.2208770600548
4.1,271.14621160032,-0.150873784104,-233.29623169464003,1097.0986427808002,-5.1487212933832726e-08,0.00018436007136595712,9.810823999345747,-8.377580409572782e-12,0.00018441286757582995,5.1312680008633286e-08,7.289999999989351e-05,0.0,0.0,233.29623170480002,336.0572573736,1.101266096711762,88836.33446519633,281.0200532777778,-97.52144762442164,0.054137116754300836,83.91203966308889,0.0,0.0,0.0,1.064394183,357.6970798362892
4.2,270.48067875816,-0.15389084446560003,-231.74910910944,1120.3508478384001,-5.393067388662478e-08,0.00018860528806546046,9.810752316481821,-8.761552845011534e-12,0.00018865913147288448,5.3581608036225915e-08,7.289999999989351e-05,0.0,0.0,231.7491091196,335.9669030712,1.0987752708843679,88587.76467526477,280.8689602777778,-96.65147809694933,0.05486492587854653,82.81474314721768,0.0,0.0,0.0,1.060177651,356.1842936690108
4.3,269.82106982592,-0.15688046551200002,-230.20944251136,1143.448714368,-5.6374134839416846e-08,0.00019284012005591446,9.810681109105913,-9.162978572970231e-12,0.00019289497575430465,5.602506898901798e-08,7.289999999989351e-05,0.0,0.0,230.2094425012,335.87712453600005,1.09630093717915,88341.06226331368,280.71887055555555,-95.79295980431009,0.055572531180215705,81.73265149798955,0.0,0.0,0.0,1.055989467,354.68239853843437
4.4,269.16730701864003,-0.15984289230239998,-228.67712887800002,1166.3929827288,-5.88175957922089e-08,0.00019706461969719668,9.810610377217989,-9.564404300928925e-12,0.00019712052259313807,5.8643062867009476e-08,7.289999999989351e-05,0.0,0.0,228.677128878,335.7879193296,1.093843610974926,88096.2036243754,280.5697788333334,-94.9456959571796,0.0562603774814699,80.66549929002069,0.0,0.0,0.0,1.051829331,353.191276636884
4.5,268.51931383152004,-0.1627783650192,-227.1520669548,1189.1843829168,-6.126105674500096e-08,0.00020127890916235471,9.81054011472207,-9.983283321407564e-12,0.00020133582434926221,6.108652381980154e-08,7.289999999989351e-05,0.0,0.0,227.15206695480003,335.6992847088,1.09140226151406,87853.18885421044,280.4216798888889,-94.10950644706467,0.05692889181158416,79.61303737841845,0.0,0.0,0.0,1.047696951,351.71081252312604
4.6,267.87701503992,-0.1656871201872,-225.63415716360004,1211.823635784,-6.387905062299246e-08,0.00020548307571785116,9.810470324666168,-1.0384709049366262e-11,0.00020554100319572486,6.370451769779303e-08,7.289999999989351e-05,0.0,0.0,225.6341571636,335.61121884479996,1.0889774041753701,87612.00660519743,280.2745698888889,-93.28420240247554,0.05757848785516873,78.57501110249535,0.0,0.0,0.0,1.043592039,350.2408928651472
4.7,267.24033666888005,-0.1685693894544,-224.12330163312,1234.3114509048,-6.649704450098395e-08,0.00020967720663014864,9.81040100095425,-1.0821041362364844e-11,0.000209736128945696,6.632251157578452e-08,7.289999999989351e-05,0.0,0.0,224.1233016128,335.5237192992,1.086568523580038,87372.63370329101,280.1284441111111,-92.46960509386768,0.0582095748486122,77.55117634384916,0.0,0.0,0.0,1.039514314,348.781406594488
4.8,266.60920593216,-0.1714254005064,-222.61940413800002,1256.6485290144,-6.911503837897546e-08,0.00021386137171241725,9.810332143586354,-1.1257373675363427e-11,0.00021392128886563822,6.894050545377602e-08,7.289999999989351e-05,0.0,0.0,222.61940413800002,335.4367833288,1.084175619728064,87135.07048365298,279.98329772222223,-91.66554562226638,0.058822562028303174,76.54129912602288,0.0,0.0,0.0,1.035463499,347.3322447004648
4.9,265.98355126272,-0.17425537737120003,-221.12237012928,1278.8355613992,-7.190756518216638e-08,0.0002180356756844121,9.81026374646644,-1.1693705988362007e-11,0.00021809657022201417,7.15584993317675e-08,7.289999999989351e-05,0.0,0.0,221.12237014960002,335.3504094096,1.0817992079982661,86899.29386799855,279.8391265,-90.8718401871545,0.05941783194130057,75.54513488579214,0.0,0.0,0.0,1.031439325,345.8933003845032
5.0,265.36330222128004,-0.1770595388952,-219.632106582,1300.8732298968,-7.47000919853573e-08,0.00022220020581259576,9.810195812642528,-1.213003830136059e-11,0.00022226207773457898,7.435102613495844e-08,7.289999999989351e-05,0.0,0.0,219.632106582,335.2645947984,1.079438773011826,86665.30438301055,279.69592561111114,-90.08833310077549,0.059995771582884896,74.5624643703135,0.0,0.0,0.0,1.027441527,344.4644687514716
5.1,264.74838949632,-0.17983810148640003,-218.14852202568,1322.7622065912,-7.749261878854823e-08,0.00022635504936343087,9.810128339066639,-1.2583823906879116e-11,0.00022641788121650268,7.714355293814936e-08,7.289999999989351e-05,0.0,0.0,218.1485219952,335.1793373616,1.0770943147687442,86433.08507907728,279.5536912777778,-89.31485368486595,0.06055674570722864,73.59305756204725,0.0,0.0,0.0,1.023469843,343.0456469640144
5.2,264.13874493456,-0.1825912763712,-216.67152648336,1344.503155032,-8.028514559173915e-08,0.0002305002761500875,9.810061319642728,-1.3055062804917585e-11,0.00023056405048095538,7.99360797413403e-08,7.289999999989351e-05,0.0,0.0,216.67152647320003,335.09463527040003,1.0747653178902021,86202.62480009843,279.41241872222224,-88.55124073587461,0.061101132413169064,72.636694185059,0.0,0.0,0.0,1.019524021,341.63673413966325
5.3,263.53430144952,-0.18531927203280002,-215.20103156304003,1366.0967296248,-8.325220532012952e-08,0.0002346359559857357,9.80999475741882,-1.3526301702956054e-11,0.0002347007077009847,8.290313946973066e-08,7.289999999989351e-05,0.0,0.0,215.2010315732,335.01048608639996,1.0724522977550182,85973.9124378539,279.2721036666667,-87.79734230255103,0.06162927866199217,71.69316312675087,0.0,0.0,0.0,1.01560381,340.2376314537256
5.4,262.93499308248005,-0.1880222926872,-213.73695024432,1387.5435762408001,-8.604473212332045e-08,0.00023876221104342314,9.809928646298937,-1.3997540600994524e-11,0.00023882788778317566,8.587019919812101e-08,7.289999999989351e-05,0.0,0.0,213.736950224,334.9268873712,1.0701552543631923,85746.9429649165,279.13274183333334,-87.05299753720163,0.06214153586320557,70.76224784769465,0.0,0.0,0.0,1.011708967,338.84824177917443
5.5,262.34075478912,-0.1907005388928,-212.27919696984003,1408.8443316072003,-8.901179185171082e-08,0.00024287907622973484,9.809862986283031,-1.4468779499032993e-11,0.00024294569544728345,8.883725892651138e-08,7.289999999989351e-05,0.0,0.0,212.27919698,334.84383760080004,1.0678736723359061,85521.693781804,278.9943293333334,-86.3180607160863,0.06263824652987364,69.84374573139577,0.0,0.0,0.0,1.00783925,337.4684698924252
5.6,261.75152268336,-0.1933542075504,-210.82768755384,1429.9996248312,-9.215338450530061e-08,0.0002469866737177184,9.809797777371127,-1.4957471689591406e-11,0.0002470542005064781,9.180431865490173e-08,7.289999999989351e-05,0.0,0.0,210.827687564,334.7613349464,1.06560755167316,85298.16594188208,278.85686244444446,-85.59237139185134,0.06311973983039589,68.93744384148549,0.0,0.0,0.0,1.003994424,336.0982225247808
5.7,261.16723382400005,-0.1959834931224,-209.38233924312001,1451.0100755712,-9.512044423369097e-08,0.00025108503841395904,9.809733013467227,-1.546361717266976e-11,0.00025115350768051476,9.477137838329209e-08,7.289999999989351e-05,0.0,0.0,209.38233927360002,334.67937666480003,1.0633568923749541,85076.34838481093,278.72033633333336,-84.8758014557143,0.06358634938139349,68.0431570874624,0.0,0.0,0.0,1.00017426,334.7374080023204
5.8,260.58782627568,-0.19858858519440004,-207.94307059512,1471.8762961704,-9.826203688728076e-08,0.00025517429249150415,9.809668694571352,-1.5952309363228173e-11,0.00025524365187597843,9.791297103688188e-08,7.289999999989351e-05,0.0,0.0,207.94307062560003,334.597961232,1.061121694441288,84856.22478342224,278.58474772222223,-84.16819633197397,0.06403839100660111,67.1606805397567,0.0,0.0,0.0,0.996378532,333.38593660601043
5.9,260.01323904792,-0.2011696709136,-206.50980147792004,1492.5988907424,-1.0140362954087055e-07,0.00025925447085693894,9.809604817635453,-1.6475908138826473e-11,0.0002593247378126242,1.0105456369047167e-07,7.289999999989351e-05,0.0,0.0,206.50980145760002,334.51708620960005,1.0589019578721621,84637.7901102888,278.4500917222222,-83.4694218622665,0.0644761716333102,66.28982719513168,0.0,0.0,0.0,0.992607019,332.0437201087048
6.0,259.44340316448,-0.203726927064,-205.08244596840004,1513.1784548664,-1.0454522219446034e-07,0.0002633256782300185,9.809541385707554,-1.6982053621904827e-11,0.0002633968353036223,1.0419615634406147e-07,7.289999999989351e-05,0.0,0.0,205.08244596840004,334.43676653280005,1.0567507666858302,84425.2713304339,278.31639233333334,-82.78283645391137,0.06490274274154884,65.43317226252705,0.0,0.0,0.0,0.988859421,330.7106607660436
6.1,258.87822727680003,-0.20626050787440003,-203.66090113560003,1533.6155743680001,-1.0768681484805013e-07,0.00026738796697062034,9.80947838964366,-1.7453292519943298e-11,0.00026746001416214267,1.0751228192285071e-07,7.289999999989351e-05,0.0,0.0,203.6609011356,334.35699214320005,1.054643898077846,84216.7530419773,278.1836327777778,-82.10765708645765,0.0653180109186631,64.58998174089409,0.0,0.0,0.0,0.985135426,329.38663269358
6.2,258.31765149168,-0.2087705883,-202.24508968224,1553.910827148,-1.1100294042683936e-07,0.00027144142434520706,9.809415835539793,-1.7976891295541594e-11,0.0002715143616546479,1.106538745764405e-07,7.289999999989351e-05,0.0,0.0,202.2450896924,334.27775298240005,1.052551460076766,84009.83936463989,278.0517948888889,-81.44075968490053,0.06571993887915319,63.75770003795039,0.0,0.0,0.0,0.981434846,328.0715509051652
6.3,257.76161954304,-0.21125734146720002,-200.83493760288002,1574.0647819632,-1.1431906600562858e-07,0.0002754861201669488,9.809353714251904,-1.8500490071139894e-11,0.0002755599126877231,1.1397000015522973e-07,7.289999999989351e-05,0.0,0.0,200.83493762320003,334.1990469168,1.05047345268259,83804.520004166,277.920875,-80.78201213705802,0.0661088157574241,62.93614926931356,0.0,0.0,0.0,0.977757481,326.7653353018684
6.4,257.2100759268,-0.21372093806400003,-199.43037211128,1594.0780017792001,-1.176351915844178e-07,0.0002795221067957231,9.80929202578001,-1.902408884673819e-11,0.0002795967894344159,1.1728612573401895e-07,7.289999999989351e-05,0.0,0.0,199.43037208080003,334.1208718128,1.048410391274136,83600.79060345206,277.7908691666667,-80.13130176947662,0.06648491734321599,62.12516800902119,0.0,0.0,0.0,0.974103136,325.46790727664643
6.5,256.66296608376,-0.21616154573040003,-198.03132145752002,1613.951041332,-1.2095131716320704e-07,0.0002835494889512851,9.809230773172121,-1.9722220547535924e-11,0.00028362502680131136,1.2060225131280818e-07,7.289999999989351e-05,0.0,0.0,198.0313214372,334.0432261464,1.046361245093768,83398.64086824238,277.66177361111113,-79.48849571377666,0.06684851052982578,61.32458055231947,0.0,0.0,0.0,0.970471619,324.1791898172324
6.6,256.12023618624,-0.218579329668,-196.63771514136002,1633.6844483472003,-1.2444197566719572e-07,0.00028756831899351225,9.809169950332235,-2.024581932313422e-11,0.00028764469460157953,1.2409290981679682e-07,7.289999999989351e-05,0.0,0.0,196.63771513120003,333.9661083936,1.044327044899122,83198.06093520361,277.53358544444444,-78.85348036237811,0.06719985776232874,60.5342274749457,0.0,0.0,0.0,0.966862742,322.89910740324717
6.7,255.58183322952002,-0.22097445142080002,-195.24948369888,1653.2787641496,-1.2793263417118436e-07,0.0002915786492822822,9.809109557260376,-2.0769418098732523e-11,0.0002916558801016829,1.275835683207855e-07,7.289999999989351e-05,0.0,0.0,195.24948371920001,333.8895164208,1.0423067599325622,82999.04065372088,277.40630094444447,-78.22614410940064,0.06753922593402181,59.75395219949904,0.0,0.0,0.0,0.963276319,321.6275859033104
6.8,255.04770500136,-0.2233470700944,-193.86655879392003,1672.7345230536,-1.3124875974997357e-07,0.00029558056708405754,9.809049590908492,-2.129301687433082e-11,0.00029565863566149926,1.3089969389957473e-07,7.289999999989351e-05,0.0,0.0,193.86655877360002,333.81344870400005,1.040300905572906,82801.5757624511,277.2799161666667,-77.60636663044953,0.06786685969709381,58.983592766230466,0.0,0.0,0.0,0.959712172,320.3645525750404
6.9,254.51780008200004,-0.22569734296560004,-192.48887306568,1692.0522514488002,-1.3491395117916168e-07,0.0002995741422120084,9.80899005127661,-2.181661564992912e-11,0.00029965304854749105,1.345648853287628e-07,7.289999999989351e-05,0.0,0.0,192.488873086,333.7379037192,1.038309481820154,82605.65649382146,277.1544283888889,-76.99404610573204,0.06818301704839845,58.22300251727333,0.0,0.0,0.0,0.956170123,319.1099361679432
7.0,253.99206772224002,-0.228025423044,-191.11636028112002,1711.2324708480003,-1.3840460968315035e-07,0.0003035594270260122,9.808930932268728,-2.2514747350726853e-11,0.00030363915366624333,1.3805554383275148e-07,7.289999999989351e-05,0.0,0.0,191.1163603116,333.66287933280006,1.036331973295488,82411.27284085781,277.02983372222224,-76.3890664811462,0.06848793819190295,57.47202527556671,0.0,0.0,0.0,0.95265,317.86366671763477
7.1,253.47045802632,-0.23033146212,-189.74895521304,1730.2756948392002,-1.4206980111233843e-07,0.00030753649133923917,9.80887223998085,-2.303834612632515e-11,0.0003076170382842187,1.4172073526193956e-07,7.289999999989351e-05,0.0,0.0,189.74895522320003,333.58837432560006,1.034368895377726,82218.42078161844,276.9061287777778,-75.79131926456684,0.06878185443513128,56.73051180327543,0.0,0.0,0.0,0.949151632,316.62567564873
7.2,252.95292173856,-0.2326156086312,-188.38659357912002,1749.1824309144,-1.4556045961632707e-07,0.00031150538751156684,9.808813968316972,-2.3736477827122883e-11,0.0003115867547612948,1.452113937659282e-07,7.289999999989351e-05,0.0,0.0,188.3865935588,333.514386564,1.03241973268805,82027.08475501914,276.7833107777778,-75.2007032589522,0.06906500153382908,55.998319579378915,0.0,0.0,0.0,0.945674854,315.39589572339804
7.3,252.43941036528003,-0.2348780085768,-187.02921213336,1767.9531801648002,-1.4922565104551518e-07,0.00031546622026275024,9.808756114229096,-2.426007660272118e-11,0.0003155483729106416,1.488765851951163e-07,7.289999999989351e-05,0.0,0.0,187.02921212319998,333.4409148288,1.03048448522646,81837.26078699842,276.6613758888889,-74.6171138421299,0.06933761524374193,55.27530479287237,0.0,0.0,0.0,0.942219503,314.1742610413624
7.4,251.92987614432002,-0.23711880612720002,-185.67674860512003,1786.5884378904002,-1.5306537539990272e-07,0.0003194189895927894,9.808698677717251,-2.478367537831948e-11,0.0003195019625454292,1.525417766243044e-07,7.289999999989351e-05,0.0,0.0,185.67674858480004,333.367957596,1.028563152992956,81648.94499925531,276.5403212777778,-74.04044843810946,0.06959990907950737,54.56132612375506,0.0,0.0,0.0,0.93878542,312.9607068341236
7.5,251.42427186216003,-0.2393381424048,-184.32914163816002,1805.0886926856,-1.567305668290908e-07,0.00032336381767473203,9.808641661829379,-2.548180707911721e-11,0.00032344757602553525,1.5638150097869193e-07,7.289999999989351e-05,0.0,0.0,184.329141628,333.295512732,1.0266557359875381,81462.12197434643,276.42014350000005,-73.4706167035099,0.06985211434864942,53.85625252741821,0.0,0.0,0.0,0.935372448,311.7551697221808
7.6,250.92255112824,-0.24153615609360002,-182.98633082112002,1823.4544270488002,-1.605702911834783e-07,0.00032730073941516315,9.808585057421508,-2.600540585471551e-11,0.00032738528316412975,1.6004669240788003e-07,7.289999999989351e-05,0.0,0.0,182.9863308008,333.2235793224,1.024762234210206,81276.78792973132,276.3008398333333,-72.9075092120795,0.07009443566936235,53.15994005941034,0.0,0.0,0.0,0.931980435,310.55758756069883
7.7,250.42466813112,-0.2437129840488,-181.64825665704,1841.6861173824002,-1.642354826126664e-07,0.00033122980717396026,9.808528867541638,-2.6703537555513243e-11,0.00033131511886779776,1.6388641676226754e-07,7.289999999989351e-05,0.0,0.0,181.6482566672,333.1521555384,1.02288264766096,81092.93328935816,276.18240683333335,-72.35103406355965,0.07032708210806209,52.47225874269586,0.0,0.0,0.0,0.928609232,309.3678993880636
7.8,249.93057772992,-0.2458687603824,-180.31486056336,1859.7842349072002,-1.6807520696705392e-07,0.0003351510907642935,9.80847308914177,-2.722713633111154e-11,0.0003352371878562944,1.6772614111665506e-07,7.289999999989351e-05,0.0,0.0,180.31486055320002,333.081239856,1.0210169763398,80910.55431856676,276.0648413888889,-71.80110100353382,0.07055026273116456,51.793080913314405,0.0,0.0,0.0,0.925258692,308.186045374438
7.9,249.44023542384002,-0.24800361737760002,-178.98608481096002,1877.7492444432,-1.720894642466409e-07,0.0003390646425460404,9.808417719173901,-2.7925268031909274e-11,0.0003391515075829121,1.715658654710426e-07,7.289999999989351e-05,0.0,0.0,178.9860848008,333.01083075120005,1.019164704867908,80729.6415849461,275.9481407777778,-71.25762142342738,0.07076418660508565,51.122281086934215,0.0,0.0,0.0,0.921928671,307.01196692465044
8.0,248.95359732168004,-0.25011768457440003,-177.66187255463998,1895.5816050192,-1.7627825445142727e-07,0.000342970532332371,9.808362760686038,-2.8623399732707004e-11,0.0003430581653141136,1.7627825445142727e-07,7.289999999989351e-05,0.0,0.0,177.6618725648,332.9409270048001,1.017326348624102,80550.19144959652,275.8323017777778,-70.72049314758988,0.07096903610691165,50.45972497174472,0.0,0.0,0.0,0.91861903,305.8456066267504
8.1,248.47062017232,-0.25221108998880004,-176.34216777216,1913.2817698728002,-1.7976891295541595e-07,0.0003468688124831629,9.808308210630173,-2.914699850830531e-11,0.00034695719595648395,1.7976891295541595e-07,7.289999999989351e-05,0.0,0.0,176.34216776200003,332.87152678800004,1.015501392229564,80372.18294096456,275.7173212777778,-70.18963597458557,0.07116501585483678,49.80529535710637,0.0,0.0,0.0,0.915329632,304.6869082005644
8.2,247.99126127328,-0.2542839591984,-175.0269153252,1930.8501876696002,-1.832595714594046e-07,0.00035075953535829374,9.808254065958309,-2.984513020910304e-11,0.0003508486867764856,1.832595714594046e-07,7.289999999989351e-05,0.0,0.0,175.0269153252,332.8026288816,1.013690351063112,80195.62419869426,275.603197,-69.66496614440143,0.07135231712239055,49.15887320860872,0.0,0.0,0.0,0.912060341,303.5358163948068
8.3,247.51547859264002,-0.25633641534240004,-173.71606083744,1948.2873003696002,-1.884955592153876e-07,0.00035464277077093347,9.808200326670447,-3.054326190990077e-11,0.00035473265522741114,1.8675022996339324e-07,7.289999999989351e-05,0.0,0.0,173.7160608476,332.73423176160003,1.011892709745928,80020.50574249432,275.4899252777778,-69.1463914454034,0.07153111783843759,48.520334643279796,0.0,0.0,0.0,0.908811028,302.3922770899688
8.4,247.04323058616,-0.258368580036,-172.40955081648002,1965.5935453608001,-1.9198621771937624e-07,0.0003585185536276672,9.808146989718589,-3.12413936106985e-11,0.00035860918857572326,1.9198621771937624e-07,7.289999999989351e-05,0.0,0.0,172.4095508368,332.666333904,1.010108468278012,79846.81277736476,275.377504,-68.63382629380757,0.07170160038006405,47.88956142738907,0.0,0.0,0.0,0.905581562,301.2562373497628
8.5,246.57447634968003,-0.2603805727608,-171.10733250144,1982.76935424,-1.954768762233649e-07,0.0003623869711949575,9.808094058150731,-3.17649923862968e-11,0.00036247833918129943,1.954768762233649e-07,7.289999999989351e-05,0.0,0.0,171.1073325116,332.59893439440003,1.008337626659364,79674.54180804663,275.26593005555554,-68.1271964487952,0.07186394712435622,47.266444357095885,0.0,0.0,0.0,0.902371818,300.1276451639004
8.6,246.10917549720003,-0.26237251116960003,-169.80935389344,1999.8151537272,-2.007128639793479e-07,0.00036624804092609694,9.808041525870873,-3.246312408709453e-11,0.0003663401419507247,1.9896753472735356e-07,7.289999999989351e-05,0.0,0.0,169.8093539036,332.532031404,1.006580184889984,79503.68943504157,275.1552006111111,-67.62641917344425,0.07201833600017868,46.650869068622505,0.0,0.0,0.0,0.899181674,299.00644960242556
8.7,245.64727356096,-0.2643444943224,-168.51555375816002,2016.7313650560002,-2.0420352248333654e-07,0.0003701018326342555,9.80798939287902,-3.316125578789226e-11,0.0003701946666971691,2.0420352248333654e-07,7.289999999989351e-05,0.0,0.0,168.515553748,332.4656237136,1.004901596079758,79339.3886615135,275.0453127777778,-67.13531838146628,0.07216913071293601,46.04540156308991,0.0,0.0,0.0,0.896010955,297.8925830673968
8.8,245.18871604272002,-0.2662966197552,-167.22587131848002,2033.5184024496,-2.076941809873252e-07,0.0003739484161326034,9.807937656127168,-3.385938748868999e-11,0.0003740419657805103,2.076941809873252e-07,7.289999999989351e-05,0.0,0.0,167.2258713388,332.399710104,1.0032364071188,79176.5072982629,274.9362642777778,-66.6503052921443,0.07231281271933053,45.44749216435046,0.0,0.0,0.0,0.892859489,296.78597821809444
8.9,244.73346499488,-0.2682289984152,-165.94025765400002,2050.1766755592002,-2.129301687433082e-07,0.00037778782632772557,9.807886318663316,-3.455751918948773e-11,0.00037788209156062574,2.129301687433082e-07,7.289999999989351e-05,0.0,0.0,165.94025765400002,332.33428905119996,1.001583587249474,79014.97869596927,274.8280520555556,-66.17081280170459,0.0724490128169682,44.85669631713591,0.0,0.0,0.0,0.889727164,295.6865882915588
9.0,244.28148277464,-0.2701417403352,-164.65866445391998,2066.7065888544,-2.1642082724729686e-07,0.0003816200981262071,9.807835377439465,-3.525565089028546e-11,0.0003817150789441006,2.1642082724729686e-07,7.289999999989351e-05,0.0,0.0,164.65866443360002,332.26935933600004,0.9999436518505981,78854.79399678469,274.72067383333336,-65.69677049479897,0.07257790003827036,44.27291275323298,0.0,0.0,0.0,0.886613869,294.59436729649644
9.1,243.83273231832,-0.2720349537192,-163.381044078,2083.1085416232,-2.2165681500327987e-07,0.0003854453187945105,9.807784829407614,-3.595378259108319e-11,0.00038554099774410486,2.199114857512855e-07,7.289999999989351e-05,0.0,0.0,163.381044078,332.20491973919997,0.998316600922172,78695.95008849233,274.61412672222224,-65.22810430853755,0.07269963007099359,43.696038758756345,0.0,0.0,0.0,0.883519499,293.5092702190572
9.2,243.38717704992,-0.2739087443328,-162.10734961752001,2099.3829291912,-2.2514747350726852e-07,0.000389263523239221,9.807734674567769,-3.6651914291880926e-11,0.0003893599003205161,2.2514747350726852e-07,7.289999999989351e-05,0.0,0.0,162.1073495972,332.14096904160004,0.996702434464196,78538.43816112453,274.50840833333336,-64.76474155897915,0.07281434525822954,43.125973314593125,0.0,0.0,0.0,0.880443948,292.4312528685016
9.3,242.94478082016002,-0.2757632170272,-160.83753480384001,2115.5301413976,-2.3038346126325152e-07,0.00039307474636692344,9.807684912919925,-3.7350045992678656e-11,0.0003931718215799194,2.2863813201125716e-07,7.289999999989351e-05,0.0,0.0,160.837534814,332.0775057192,0.9951006370978521,78382.25515034472,274.40351594444445,-64.3066107187202,0.07292220128773476,42.56261713198865,0.0,0.0,0.0,0.877387114,291.3602720315336
9.4,242.50550799792,-0.2775984748248,-159.57155409984,2131.550564424,-2.3387411976724017e-07,0.00039687905799078795,9.80763554141608,-3.804817769347638e-11,0.00039697681388219217,2.3387411976724017e-07,7.289999999989351e-05,0.0,0.0,159.57155411,332.01452916240004,0.99351120882314,78227.39808757685,274.2994473333334,-63.85365574016831,0.0730233582954874,42.00588186481341,0.0,0.0,0.0,0.874348896,290.2962854723008
9.5,242.06932340928003,-0.2794146180048,-158.30936248656002,2147.4445792704,-2.3911010752322315e-07,0.0004006764930173996,9.807586563104238,-3.874630939427412e-11,0.0004007749470405047,2.3736477827122881e-07,7.289999999989351e-05,0.0,0.0,158.30936247640003,331.9520372376,0.9919346650188781,78073.85256086294,274.1961997777778,-63.40579330813266,0.07311794083169268,41.45566205907758,0.0,0.0,0.0,0.871329197,289.23925172661677
9.6,241.63619224608,-0.28121174684640005,-157.05091570704,2163.2125623648,-2.426007660272118e-07,0.0004044671212599286,9.807537968840395,-3.944444109507185e-11,0.00040456623850814935,2.426007660272118e-07,7.289999999989351e-05,0.0,0.0,157.0509157172,331.8900293352,0.990370490306248,77921.6155537467,274.093771,-62.962974225282174,0.07320611348055038,40.9118754271295,0.0,0.0,0.0,0.868327923,288.1891301534056
9.7,241.20608030976,-0.2829899591904,-155.79617011392,2178.8548864776003,-2.478367537831948e-07,0.00040825096017166725,9.807489764720556,-4.014257279586958e-11,0.0004083507580982963,2.460914245312005e-07,7.289999999989351e-05,0.0,0.0,155.7961701444,331.828504236,0.98881868468525,77770.68424129287,273.99215844444444,-62.52512238254503,0.0732880007922657,40.374422813661134,0.0,0.0,0.0,0.865344978,287.1458811404792
9.8,240.77895370656,-0.2847493510488,-154.54508263896,2194.3719188928003,-2.5132741228718345e-07,0.0004120280795657857,9.807441944648717,-4.0840704496667316e-11,0.0004121285581708231,2.5132741228718345e-07,7.289999999989351e-05,0.0,0.0,154.5450826288,331.7674607208,0.9872792481558841,77621.05005293504,273.89135983333335,-62.09217666135621,0.07336374066170874,39.8432157301999,0.0,0.0,0.0,0.862380274,286.10946579587124
9.9,240.3547790304,-0.28649001721440004,-153.29761088448,2209.7640241512,-2.5656340004316645e-07,0.0004157985143488691,9.80739451167288,-4.171336912266447e-11,0.00041589965617902215,2.548180707911721e-07,7.289999999989351e-05,0.0,0.0,153.297610854,331.70689757040003,0.9857521807181501,77472.71006797744,273.7913726666667,-61.66407709968835,0.07343347543197119,39.3181670672219,0.0,0.0,0.0,0.85943372,285.0798459992812
10.0,239.93352327144004,-0.28821205095600005,-152.05371294048,2225.0315610024004,-2.6005405854715507e-07,0.00041956231688079483,9.807347462745046,-4.241150082346221e-11,0.00041966412193606366,2.6005405854715507e-07,7.289999999989351e-05,0.0,0.0,152.0537129608,331.64681356560004,0.984237997750866,77325.66155724533,273.69219483333336,-61.240760176936796,0.07349732965325825,38.799188180566794,0.0,0.0,0.0,0.856505231,284.0569846078524
10.1,239.51515387704,-0.2899155440184,-150.81334762848002,2240.1748848432,-2.652900463031381e-07,0.0004233195395214406,9.80730079481721,-4.310963252425994e-11,0.00042342199034853267,2.652900463031381e-07,7.289999999989351e-05,0.0,0.0,150.8133476488,331.5872074872,0.982735668496396,77179.8902524215,273.5938237222222,-60.822167888291666,0.07355543232399678,38.28619474974563,0.0,0.0,0.0,0.853594723,283.0408451475052
10.2,239.09963859936002,-0.2916005866224,-149.57647425768,2255.1943474128,-2.687807048071268e-07,0.00042707019972409885,9.807254510937378,-4.380776422505767e-11,0.00042717331377630673,2.687807048071268e-07,7.289999999989351e-05,0.0,0.0,149.576474278,331.52807842080006,0.9812457083335581,77035.3935200917,273.49625744444444,-60.40824329651629,0.07360792133905686,37.7791037353573,0.0,0.0,0.0,0.850702111,282.0313920187148
10.3,238.68694576968,-0.2932672677696,-148.34305277736001,2270.0902955736,-2.740166925631097e-07,0.0004308143847552322,9.807208605009507,-4.468042885105483e-11,0.0004309181271259708,2.740166925631097e-07,7.289999999989351e-05,0.0,0.0,148.34305276720002,331.46942545200005,0.979768117262352,76892.16848744043,273.39949333333334,-59.99892141309288,0.07365490345575725,37.277827827707945,0.0,0.0,0.0,0.847827318,281.028590342178
10.4,238.27704396312,-0.29491567463280005,-147.113043594,2284.8630722256003,-2.792526803190927e-07,0.0004345520946148407,9.807163080081677,-4.537856055185257e-11,0.00043465650021069503,2.775073510670984e-07,7.289999999989351e-05,0.0,0.0,147.113043594,331.41124675200007,0.97830237990396,76750.20687118285,273.3035291666667,-59.59415179518831,0.073696516568968,36.78228944536437,0.0,0.0,0.0,0.844970264,280.0324060102576
10.5,237.86990218152002,-0.2965458931656,-145.88640778464003,2299.5130172208,-2.827433388230814e-07,0.0004382833991160943,9.80711793615385,-4.60766922526503e-11,0.0004383884330304793,2.827433388230814e-07,7.289999999989351e-05,0.0,0.0,145.88640779480002,331.353542016,0.976849527016018,76609.51178353583,273.20836333333335,-59.193871455984514,0.07373286743600792,36.29240396980678,0.0,0.0,0.0,0.842130872,279.04280568698243
10.6,237.46548982296002,-0.2981580081024,-144.663106914,2314.0404655344,-2.879793265790644e-07,0.00044200833316557816,9.807073167130024,-4.694935687864747e-11,0.00044211401285178644,2.879793265790644e-07,7.289999999989351e-05,0.0,0.0,144.663106914,331.29631002480005,0.9754080124620721,76470.06344995237,273.11399305555557,-58.79803609119419,0.07376408950352543,35.808098948401515,0.0,0.0,0.0,0.839309069,278.05975675660284
10.7,237.06377668176,-0.2997521023488,-143.44310306496,2328.4457490936,-2.9321531433504735e-07,0.00044572694912316984,9.8070287760582,-4.76474885794452e-11,0.0004458332571279088,2.91469985083053e-07,7.289999999989351e-05,0.0,0.0,143.44310305480002,331.23954925440006,0.9739788669997581,76331.87058463963,273.0204161666667,-58.406580267477395,0.07379028508061769,35.32928960694103,0.0,0.0,0.0,0.836504784,277.08322737503516
10.8,236.66473285704004,-0.3013282585056,-142.22635889952,2342.7291952536,-2.96705972839036e-07,0.0004494392818954543,9.806984759890373,-4.852015320544236e-11,0.00044954620076543146,2.96705972839036e-07,7.289999999989351e-05,0.0,0.0,142.22635893,331.1832590952,0.9725620906290761,76194.91939808303,272.9276310555556,-58.01945265235668,0.0738115653728251,34.85590054362072,0.0,0.0,0.0,0.833717943,276.1131863669732
10.9,236.26832887464002,-0.3028865564304,-141.01283756736,2356.8911286264,-3.01941960595019e-07,0.0004531453663890166,9.806941115578553,-4.9218284906240096e-11,0.0004532529135775245,3.01941960595019e-07,7.289999999989351e-05,0.0,0.0,141.01283755720002,331.12743802320006,0.9711571679712081,76059.21295461911,272.8356351111111,-57.636607206738326,0.07382805493035287,34.38786007090105,0.0,0.0,0.0,0.830948481,275.149603277332
11.0,235.87453559568002,-0.3044270759808,-139.80250273632,2370.9318695568004,-3.0717794835100203e-07,0.0004568452549637343,9.806897849218732,-5.009094953223725e-11,0.0004569534130174804,3.0717794835100203e-07,7.289999999989351e-05,0.0,0.0,139.80250276680002,331.0720857336,0.9697646144049721,75924.73736897281,272.74442638888894,-57.25798988472971,0.07383985606229816,33.92509235994812,0.0,0.0,0.0,0.828196329,274.1924484226928
11.1,235.48332418608,-0.3059498948808,-138.5953185924,2384.8517347320003,-3.1241393610698504e-07,0.00046053898252619254,9.806854954714867,-5.078908123303499e-11,0.0004606477688984693,3.1066860685499065e-07,7.289999999989351e-05,0.0,0.0,138.59531859240002,331.0172007024,0.9683833991727321,75791.49024713115,272.65400305555556,-56.88354766352918,0.07384707552597973,33.46752278739613,0.0,0.0,0.0,0.825461422,273.24169263408083
11.2,235.09466623848,-0.30745508994,-137.39124977880002,2398.6510377912,-3.1590459461097366e-07,0.0004642265839829762,9.80681242901905,-5.166174585903216e-11,0.00046433598122049127,3.1590459461097366e-07,7.289999999989351e-05,0.0,0.0,137.39124977880002,330.9627820152,0.9670145530321241,75659.46900356015,272.5643626666667,-56.51322827653274,0.0738498111822731,33.0150779131062,0.0,0.0,0.0,0.822743698,272.2973075656316
11.3,234.70853361984,-0.3089427367488,-136.19026145688002,2412.3300881064,-3.211405823669566e-07,0.00046790811169396295,9.806770275179234,-5.235987755982989e-11,0.0004680181197967162,3.211405823669566e-07,7.289999999989351e-05,0.0,0.0,136.1902614772,330.9088287576,0.9656575606043301,75528.66569013684,272.47550361111115,-56.14698888736626,0.07384817423671869,32.567690377658415,0.0,0.0,0.0,0.820043096,271.3592654888136
11.4,234.32489853240003,-0.3104129096784,-134.99231927568,2425.8891920016003,-3.263765701229396e-07,0.00047158360056573785,9.80672849319542,-5.323254218582705e-11,0.00047169420208043674,3.263765701229396e-07,7.289999999989351e-05,0.0,0.0,134.992319296,330.8553400152,0.9643124218893501,75399.077864968,272.3874236666667,-55.78477891974997,0.07384226699841363,32.125288844922736,0.0,0.0,0.0,0.817359555,270.427539292428
11.5,233.94373354416,-0.3118656821856,-133.79738934144,2439.3286527528,-3.3161255787892263e-07,0.00047525308550488586,9.806687076971606,-5.410520681182422e-11,0.0004753642804315304,3.2986722862692824e-07,7.289999999989351e-05,0.0,0.0,133.7973893516,330.80231487360004,0.9629796522660021,75270.70313404065,272.30012100000005,-55.42655269044786,0.07383218732823345,31.68780549731241,0.0,0.0,0.0,0.814693018,269.5021025854976
11.6,233.56501152792,-0.31330112589840003,-132.60543824808002,2452.6487696736003,-3.3684854563490563e-07,0.00047891660141799203,9.806646029555747,-5.480333851262195e-11,0.0004790284072098748,3.3510321638291125e-07,7.289999999989351e-05,0.0,0.0,132.6054382684,330.74975180880006,0.9616582209766501,75143.53350135159,272.2135933888889,-55.07226126902219,0.07381803308705369,31.255171124947335,0.0,0.0,0.0,0.812043428,268.582929594378
11.7,233.18870566128,-0.3147193118352,-131.41643301624,2465.8498390296004,-3.4033920413889425e-07,0.000482574200664934,9.806605350947937,-5.567600313861911e-11,0.00048268659986876243,3.4033920413889425e-07,7.289999999989351e-05,0.0,0.0,131.4164330264,330.697650516,0.9603486434001121,75017.56671652861,272.12783922222224,-54.7218563477862,0.07379989323930666,30.827317576624132,0.0,0.0,0.0,0.809410731,267.66999505986877
11.8,232.81478942664,-0.3161203097952,-130.23034115424002,2478.9321540384003,-3.4557519189487726e-07,0.00048622591815229666,9.80656503505213,-5.654866776461628e-11,0.0004863388933147782,3.4557519189487726e-07,7.289999999989351e-05,0.0,0.0,130.2303411644,330.646009776,0.9590509195363881,74892.79478356849,272.0428566111111,-54.375298782389685,0.07377787009408951,30.404182403759552,0.0,0.0,0.0,0.806794873,266.7632744429912
11.9,232.44323664168002,-0.3175041883584,-129.04713056664,2491.8960039552003,-3.5081117965086027e-07,0.0004898717887866651,9.80652508796432,-5.724679946541401e-11,0.0004899853399077999,3.5081117965086027e-07,7.289999999989351e-05,0.0,0.0,129.0471305768,330.59482867440005,0.9577645340066601,74769.21540421878,271.9586433333333,-54.03254182202346,0.07375205706405615,29.98569936343729,0.0,0.0,0.0,0.804195804,265.8627438220992
12.0,232.07402020968001,-0.3188710133616,-127.8667690056,2504.7416755968,-3.560471674068433e-07,0.0004935118474746245,9.806485500540514,-5.811946409141117e-11,0.0004936259745544125,3.560471674068433e-07,7.289999999989351e-05,0.0,0.0,127.8667690056,330.54411208799996,0.956508555827194,74648.23084762423,271.87520744444447,-53.69428094613708,0.07372355285994556,29.572211631506757,0.0,0.0,0.0,0.801613456,264.9683783495476
12.1,231.70710075048,-0.32022083204880003,-126.68921773104002,2517.4694518176,-3.612831551628262e-07,0.0004971461116694673,9.806446278876662,-5.899212871740834e-11,0.0004972608321612009,3.595378259108319e-07,7.289999999989351e-05,0.0,0.0,126.68921774120001,330.4938630648,0.955294323331986,74530.80207058258,271.79255322222224,-53.36168536978211,0.07369413677040385,29.164309429149412,0.0,0.0,0.0,0.799047722,264.080139647814
12.2,231.34244973480003,-0.32155370538000005,-125.51444434272,2530.0796121192,-3.665191429188092e-07,0.0005007746511843635,9.806407419924858,-5.98647933434055e-11,0.0005008899476347502,3.6477381366681485e-07,7.289999999989351e-05,0.0,0.0,125.51444432240001,330.44407063200003,0.954090913791956,74414.51715292795,271.7106628888889,-53.032703439702935,0.0736611621035699,28.7608161795069,0.0,0.0,0.0,0.79649857,263.1980018403652
12.3,230.98004253480002,-0.32286969766800006,-124.34241884832001,2542.5724326504,-3.717551306747922e-07,0.0005043974834726057,9.806368923685056,-6.073745796940266e-11,0.0005045133384283531,3.7000980142279785e-07,7.289999999989351e-05,0.0,0.0,124.342418828,330.39473448480004,0.95289935796474,74299.3624966668,271.6295343888889,-52.70729627844266,0.07362470447921124,28.361672819092625,0.0,0.0,0.0,0.793965956,262.3219438349972
12.4,230.61985479696,-0.324168872616,-123.17311171272,2554.9481868168,-3.7524578917878086e-07,0.0005080146434407788,9.806330787109257,-6.14355896702004e-11,0.0005081310743551794,3.7524578917878086e-07,7.289999999989351e-05,0.0,0.0,123.17311169240001,330.34585309920004,0.951718625092702,74185.34762997068,271.54916633333335,-52.385417446567615,0.0735848484135385,27.96681680146245,0.0,0.0,0.0,0.791449836,261.4519450025056
12.5,230.26186247256,-0.3254512920984,-122.00649376656,2567.207144976,-3.8048177693476387e-07,0.0005116261834487607,9.806293010197457,-6.230825429619756e-11,0.0005117431554152293,3.8048177693476387e-07,7.289999999989351e-05,0.0,0.0,122.0064937564,330.2974261704,0.95054923055466,74072.46465259684,271.46955661111116,-52.06703344896902,0.07354167397454078,27.576192941979023,0.0,0.0,0.0,0.788950172,260.5879853824632
12.6,229.90604169576,-0.32671701829440003,-120.84253623672,2579.3495747424004,-3.857177646907468e-07,0.0005152321034965511,9.806255589901609,-6.318091892219472e-11,0.0005153496514216728,3.857177646907468e-07,7.289999999989351e-05,0.0,0.0,120.8425362672,330.2494524792,0.9493906589717961,73960.70030171356,271.39070355555555,-51.75210723196084,0.07349527012665039,27.189744628125837,0.0,0.0,0.0,0.786466922,259.73004537455364
12.7,229.55236896648003,-0.32796611124960007,-119.68121074632,2591.3757406824,-3.909537524467298e-07,0.0005188324733973201,9.806218532317814,-6.40535835481919e-11,0.00051895056237451,3.909537524467298e-07,7.289999999989351e-05,0.0,0.0,119.68121077680001,330.2019311112,0.948243425722928,73850.06400973182,271.3126057777778,-51.44059440229134,0.07344570359319154,26.807411888979075,0.0,0.0,0.0,0.784000049,258.8781060472376
12.8,229.20082096752003,-0.32919863100960006,-118.52248931472,2603.2859043144003,-3.961897402027128e-07,0.0005224272931510678,9.80618182830202,-6.492624817418906e-11,0.0005225459406336183,3.961897402027128e-07,7.289999999989351e-05,0.0,0.0,118.52248929440002,330.1548614568,0.947107015429238,73740.54227441865,271.23526111111113,-51.13246311069376,0.07339306333859655,26.429141817390853,0.0,0.0,0.0,0.781549516,258.0321488805312
12.9,228.85137468648003,-0.330414636096,-117.36634429656,2615.0803247184003,-4.014257279586958e-07,0.0005260166325709642,9.806145483950173,-6.579891280018622e-11,0.0005261358211055828,4.014257279586958e-07,7.289999999989351e-05,0.0,0.0,117.36634428640001,330.1082429064,0.945981943469544,73632.13337208469,271.15866816666664,-50.827674123853456,0.07333742053441127,26.054878112220184,0.0,0.0,0.0,0.779115288,257.19215592033885
13.0,228.50400729384003,-0.3316141838112,-116.21274844272001,2626.7592585360003,-4.066617157146788e-07,0.0005296004916570093,9.806109493166382,-6.667157742618338e-11,0.0005297202212436961,4.066617157146788e-07,7.289999999989351e-05,0.0,0.0,116.21274847320001,330.06207393600005,0.944867694465028,73524.83524387878,271.0828251111111,-50.52619670455906,0.07327885969684635,25.684569263060762,0.0,0.0,0.0,0.77669733,256.35810962412
13.1,228.15869626488004,-0.3327973317624,-115.06167493080001,2638.3229587512,-4.118977034706618e-07,0.0005331789053157883,9.806073858998591,-6.754424205218056e-11,0.0005332991934078357,4.118977034706618e-07,7.289999999989351e-05,0.0,0.0,115.06167493080001,330.01635424080007,0.94376426841569,73418.64607035113,271.0077303888889,-50.227984991645734,0.07321743420456121,25.318156526697937,0.0,0.0,0.0,0.77429561,255.52999306666723
13.2,227.81541925776,-0.3339641351184,-113.91309718224001,2649.7716771288,-4.171336912266448e-07,0.000536751943360471,9.806038578398804,-6.841690667817772e-11,0.0005368727550512941,4.171336912266448e-07,7.289999999989351e-05,0.0,0.0,113.9130971924,329.9710829064,0.942672180700348,73313.5582864208,270.9333823888889,-49.933013185428095,0.07315323302198817,24.955591826752485,0.0,0.0,0.0,0.771910096,254.7077896828836
13.3,227.47415426592002,-0.3351146496576,-112.76698907568002,2661.1056611664003,-4.223696789826277e-07,0.0005403195883377652,9.80600365136696,-6.928957130417488e-11,0.0005404409585339488,4.223696789826277e-07,7.289999999989351e-05,0.0,0.0,112.7669890452,329.92625932320004,0.9415909159401841,73209.57016839844,270.85977972222224,-49.64124432118453,0.07308632732067304,24.596821824599026,0.0,0.0,0.0,0.769540757,253.891483370672
13.4,227.13487940472,-0.33624892902479997,-111.62332479456,2672.3251568376004,-4.276056667386107e-07,0.0005438819100608407,9.805969074855176,-7.016223593017204e-11,0.0005440038038558,4.276056667386107e-07,7.289999999989351e-05,0.0,0.0,111.62332478440001,329.881882272,0.940520474135198,73106.67965743295,270.78692022222225,-49.35264592689723,0.07301678382394004,24.241795846096917,0.0,0.0,0.0,0.767187564,253.08105854237922
13.5,226.79757309432,-0.33736702656,-110.48207888808,2683.430407068,-4.3284165449459373e-07,0.0005474389259829903,9.80593485495939,-7.103490055616922e-11,0.0005475613433767251,4.3284165449459373e-07,7.289999999989351e-05,0.0,0.0,110.4820789084,329.837951448,0.93946085528539,73004.87377797414,270.7148026666667,-49.067182105417785,0.07294466480689182,23.890461989396346,0.0,0.0,0.0,0.764850489,252.2765000733516
13.6,226.46221390728,-0.33846899529839997,-109.34322627120001,2694.4216526496,-4.3807764225057674e-07,0.0005509906535575061,9.805900982535555,-7.190756518216638e-11,0.0005511135945500166,4.3807764225057674e-07,7.289999999989351e-05,0.0,0.0,109.34322627120001,329.794465632,0.9384125747695781,72904.1621060738,270.6434256111111,-48.78482136333714,0.07287005033751744,23.54277094596072,0.0,0.0,0.0,0.762529506,251.4777931990464
13.7,226.12878075144002,-0.33955488644640003,-108.20674213320001,2705.2991316312,-4.4331363000655974e-07,0.0005545371276909736,9.805867460631772,-7.278022980816355e-11,0.0005546606097355522,4.4331363000655974e-07,7.289999999989351e-05,0.0,0.0,108.2067421332,329.75142451920004,0.937374601830126,72804.5314746607,270.57278716666667,-48.505528915562266,0.07279298934625468,23.198672210681803,0.0,0.0,0.0,0.760224588,250.68492366936482
13.8,225.79725265656,-0.34062475121040003,-107.07260202912,2716.0630796232,-4.485496177625427e-07,0.0005580784007432701,9.805834292295993,-7.382742735936014e-11,0.0005582023889333318,4.485496177625427e-07,7.289999999989351e-05,0.0,0.0,107.0726020596,329.7088268904,0.936347451845852,72705.98590567661,270.50288622222223,-48.22927807276347,0.07271356190109259,22.858119562088795,0.0,0.0,0.0,0.757935711,249.8978776972076
13.9,225.46760889624,-0.34167863957760003,-105.94078191024,2726.7137297976,-4.5378560551852565e-07,0.0005616144727143956,9.80580146838421,-7.470009198535731e-11,0.000561738984503233,4.5378560551852565e-07,7.289999999989351e-05,0.0,0.0,105.9407819204,329.66667244079997,0.935331640195574,72608.51792980114,270.43372072222223,-47.95603493949206,0.0726318302771338,22.52106376281665,0.0,0.0,0.0,0.755662851,249.1166417012532
14.0,225.13982895744002,-0.34271660062080006,-104.81125794120001,2737.251312888,-4.5902159327450866e-07,0.0005651453959642278,9.80576899499238,-7.557275661135446e-11,0.0005652704313518406,4.5902159327450866e-07,7.289999999989351e-05,0.0,0.0,104.81125794120001,329.6249599512,0.934326136121656,72512.12022135462,270.3652896111111,-47.6857699795565,0.07254785230125928,22.187458004229295,0.0,0.0,0.0,0.753405986,248.3412027689572
