time,eiPosition_m_X,eiPosition_m_Y,eiPosition_m_Z,gePosition_m_X,gePosition_m_Y,gePosition_m_Z,eiVelocity_m_s_X,eiVelocity_m_s_Y,eiVelocity_m_s_Z,feVelocity_m_s_X,feVelocity_m_s_Y,feVelocity_m_s_Z,altitudeMsl_m,longitude_rad,latitude_rad,localGravity_m_s2,eulerAngle_rad_Yaw,eulerAngle_rad_Pitch,eulerAngle_rad_Roll,bodyAngularRateWrtEi_rad_s_Roll,bodyAngularRateWrtEi_rad_s_Pitch,bodyAngularRateWrtEi_rad_s_Yaw,altitudeRateWrtMsl_m_s,speedOfSound_m_s,airDensity_kg_m3,ambientPressure_Pa,ambientTemperature_K,aero_bodyForce_N_X,aero_bodyForce_N_Y,aero_bodyForce_N_Z,aero_bodyMoment_Nm_L,aero_bodyMoment_Nm_M,aero_bodyMoment_Nm_N,mach,dynamicPressure_Pa,trueAirspeed_m_s
0.0,6378137.000000209,0.0,0.0,6378137.000000209,0.0,0.0,304.80000000000007,465.1010848975652,304.79999999999995,304.79999999999995,0.0,-304.80000000000007,0.0,0.0,0.0,9.814197353250055,0.0,2.220446049250313e-16,0.0,7.292114999989522e-05,0.0,1.6191747942405682e-20,304.80000000000007,340.2938020346913,1.2250033106982612,101325.16165865559,288.15,-146.79522038190274,0.0,146.7952203819027,0.0,0.0,0.0,1.266706273326059,113806.5316599627,431.04670248758106
0.1,6378167.380374097,46.510108492047515,30.429390281818634,6378167.380543674,-0.00022153571342230902,30.429390281818634,302.8148921390046,465.1010849595731,303.79470124989075,303.7932565405813,-0.004423485024397952,-302.8197330461611,30.38061605220437,-3.473344304166337e-11,4.769315017966743e-06,9.814103707522698,2.8061114279735655e-23,4.7708673145633465e-06,3.4733443057343846e-11,7.292114999989522e-05,0.0,1.6191747942405682e-20,302.81973304616105,340.1771780963264,1.2214345018783528,100960.7333188828,287.9525269391881,-145.1701665025779,0.0021137945519126276,144.7035793638608,0.0,0.0,0.0,1.2609332386529757,112365.94859232575,428.93514695914206
0.2000000000000001,6378197.563451478,93.02021699248922,60.75930623413208,6378197.564129786,-0.0008832649219942837,60.75930623413208,300.8489995492603,465.1010850389563,302.8054366248642,302.80257063081547,-0.008803923391355512,-300.8586671332994,60.56441897571981,-1.3848190074287884e-10,9.539590797744268e-06,9.814010669781348,5.618557204596321e-23,9.526093480556222e-06,1.384819007083942e-10,7.292114999989522e-05,0.0,1.6191747942405682e-20,300.8586671332994,340.0612711727806,1.217896728655073,100599.72103183807,287.75633502682894,-143.57684499741023,0.004174447922972343,142.65240593284003,0.0,0.0,0.0,1.2552301722768522,110953.6404673488,426.84963111748175
0.3000000000000002,6378227.5506388135,139.53032549518244,90.99083835640755,6378227.552164998,-0.001980913355099489,90.99083835640755,298.89705144913756,465.10108497878053,301.8269946217483,301.82273042534734,-0.013141880252482828,-298.91153173321703,90.55281382082106,-3.1057426830547884e-10,1.4308889602821911e-05,9.813918235669322,1.5664932997661555e-21,1.426585012954132e-05,3.1057426837756375e-10,7.292114999989522e-05,0.0,1.6191747942405682e-20,298.91153173321703,339.9460765777922,1.21438966037436,100242.08516067655,287.56141509388357,-142.00981900547413,0.006183307830261713,140.63606573384132,0.0,0.0,0.0,1.24957541148057,109565.31042690299,424.78274845006234
0.4000000000000003,6378257.343318707,186.04043397848992,121.1250599687757,6378257.346031913,-0.0035102625672657926,121.1250599687757,296.9588117388436,465.10108462606564,300.8591970571796,300.853557406549,-0.017437908165587535,-296.97809099365827,120.34718180543483,-5.503482184596461e-10,1.9078490922657034e-05,9.813826400903778,0.0,1.8990306189295543e-05,5.503482186844832e-10,7.292114999989522e-05,0.0,1.6191747942405682e-20,296.97809099365827,339.8315897061822,1.2109129720978575,99887.78677268833,287.36775812679855,-140.46851245974526,0.008141682229802969,138.6537906655567,0.0,0.0,0.0,1.243968212300005,108200.43233085073,422.73421163163283
0.5000000000000003,6378286.942850412,232.55054240566903,151.1630267685539,6378286.947089776,-0.00546714869635068,151.1630267685539,295.0340495091777,465.10108383166585,299.9018696400759,299.8948769568063,-0.021692547440527826,-295.0581142471955,149.94888082042337,-8.571500062168276e-10,2.384794801694274e-05,9.813735161274211,2.0462458143130733e-21,2.3699627814688408e-05,8.57150006298976e-10,7.292114999989522e-05,0.0,1.6191747942405682e-20,295.0581142471955,339.71780603213807,1.207466344476183,99536.78762335262,287.175355264209,-138.95236521728538,0.010050840695101822,136.70483381536621,0.0,0.0,0.0,1.2384078478525098,106858.4945743524,420.7037398854721
0.6000000000000004,6378316.350570336,279.0606507252491,181.1057772140803,6378316.356674992,-0.007847461253079713,181.1057772140803,293.1225388987594,465.101082450156,298.95484186434715,298.9465182510075,-0.025906326474022325,-293.1513758686227,179.35924593940973,-1.2303342785541314e-09,2.8573774195823422e-05,9.81364451264082,6.521573226758323e-21,2.8393978448079947e-05,1.2303342784244206e-09,7.292114999989522e-05,0.0,1.6191747942405682e-20,293.1513758686227,339.60472110747344,1.2040494636237946,99189.05014062866,286.984197793612,-137.46083253156917,0.01191201574085221,134.78846875656075,0.0,0.0,0.0,1.2328936078755246,105538.99960612436,418.6910588052891
0.7000000000000005,6378345.567792547,325.5707588713992,210.95433289799584,6378345.576101624,-0.010647141949511886,210.95433289799584,291.22405895597706,465.101080339726,298.0179469051445,298.00831415257994,-0.03007976206887781,-291.2576551370627,208.57958991611304,-1.6692638902170167e-09,3.3273866372148764e-05,9.813554450932985,7.33061025444185e-21,3.3073518878026984e-05,1.6692638898796837e-09,7.292114999989522e-05,0.0,1.6191747942405682e-20,291.2576551370627,339.4923305599295,1.200662020996793,98844.53740968004,286.79427714812266,-135.9933845451846,0.013726404091996615,132.90398887270058,0.0,0.0,0.0,1.2274247982804491,104241.46346529944,416.6959001830227
0.8000000000000006,6378374.595809272,372.0808667642836,240.70969891032468,6378374.6066618925,-0.013862183558166463,240.70969891032468,289.3383935054791,465.10107736207203,297.0910215185255,297.0801011129477,-0.034213359750339546,-289.3767361026121,237.6112036839545,-2.173309724343898e-09,3.79913537901755e-05,9.813464972147726,2.0328628773347152e-20,3.7738407296528607e-05,2.1733097237738645e-09,7.292114999989522e-05,0.0,1.6191747942405682e-20,289.3767361026121,339.38063009146197,1.1973037132726865,98503.21315784662,286.60558490321444,-134.54950580182745,0.015495167906164965,131.05070670773443,0.0,0.0,0.0,1.222000740721413,102965.41533593094,414.7180018423229
0.9000000000000007,6378403.435891346,418.5909743104062,270.37286419168436,6378403.449626632,-0.017488628797974456,270.37286419168436,287.46533101903105,465.10107338229744,296.17390594439485,296.16171907427463,-0.038307614065023615,-287.50840745734695,266.4553568147868,-2.7418505173105954e-09,4.2661507919884195e-05,9.813376072348282,1.3552300115143085e-20,4.238879935473007e-05,2.74185051694754e-09,7.292114999989522e-05,0.0,1.6191747942405682e-20,287.50840745734695,339.2696154766785,1.1939742422366437,98165.04174036584,286.4181127737263,-133.12869477730862,0.01721943594487405,129.22795334130402,0.0,0.0,0.0,1.216620772177763,101710.39711879971,412.75710747749366
1.0000000000000009,6378432.089288665,465.101081402949,299.94480187694944,6378432.106245733,-0.021522569254289005,299.94480187694944,285.6046644905706,465.1010682688145,295.26644381259587,295.2530113753647,-0.04236300887165265,-285.6524624105235,295.1132979537785,-3.3742726889283995e-09,4.732473534848728e-05,9.81328774766273,2.0328666558319066e-20,4.702484821656203e-05,3.374272689054367e-09,7.292114999989522e-05,0.0,1.6191747942405682e-20,285.6524624105236,339.15928256136345,1.190673314672081,97829.98812662723,286.23185261102515,-131.7304634285207,0.018900304699742933,127.4350777879115,0.0,0.0,0.0,1.2112842445499574,100475.96301959612,410.8129664976822
1.0999999999999897,6378460.557230678,511.6111879220963,329.4264696296769,6378460.577748639,-0.025960144328504308,329.4264696296769,283.75619131530493,465.1010618932485,294.36848205203825,294.35382466060094,-0.046380017629686174,-283.8086985678123,323.58625532583295,-4.0699701772974365e-09,5.198310893105731e-05,9.813199994282476,2.0328262868118828e-20,5.1646704611765364e-05,4.069970177791797e-09,7.292114999989522e-05,0.0,1.6191747942405682e-20,283.80869856781226,339.0496272607207,1.1874006422448036,97498.0178858398,286.0467963997031,-130.35433675839067,0.02053883947806499,125.67144641775742,0.0,0.0,0.0,1.205990524269673,99261.67915185528,408.88533387612216
1.1999999999999786,6378488.84092676,558.1212937353508,358.81880996759276,6378488.86534472,-0.0307975402063775,358.81880996759276,281.91971317269645,465.10105413034677,293.4798708027453,293.46400879181203,-0.05035910366656613,-281.97691781441614,351.8754371000738,-4.828344276605255e-09,5.663769910142417e-05,9.81311280846107,2.0328788873003e-20,5.625451688700143e-05,4.828344277680042e-09,7.292114999989522e-05,0.0,1.6191747942405682e-20,281.9769178144162,338.9406455581579,1.1841559414051885,97169.09717459958,285.86293625519863,-128.99985239882284,0.022136075441228337,123.93644240092942,0.0,0.0,0.0,1.2007389919206848,98067.12315606714,406.9739700042399
1.2999999999999676,6378516.9415666675,604.6313986978436,388.12275057941997,6378516.97022373,-0.036030988861146834,388.12275057941997,280.09503591318986,465.1010448578902,292.600463330709,292.58341676296,-0.05430072044628664,-280.1569262019341,379.9820318519801,-5.6488034803931916e-09,6.124828728046592e-05,9.813026186512786,2.0328625653683118e-20,6.084843105572133e-05,5.64880348183443e-09,7.292114999989522e-05,0.0,1.6191747942405682e-20,280.15692620193414,338.83233350368937,1.1809389332803657,96843.19272354733,285.6802644207816,-127.6665602078666,0.023693018607450406,122.22946517103486,0.0,0.0,0.0,1.1955290418733533,96891.8838319803,405.0786405504419
1.3999999999999566,6378544.860320961,651.1415026526313,417.33920463333465,6378544.893556225,-0.041656767083494466,417.33920463333465,278.2819694485451,465.10103395660923,291.73011594545176,291.71190461752605,-0.05820531182477067,-278.34853383881284,407.907208974427,-6.5307633290434715e-09,6.58624090134696e-05,9.81294012481138,2.032879544767255e-20,6.542859084670001e-05,6.530763330885574e-09,7.292114999989522e-05,0.0,1.6191747942405682e-20,278.3485338388129,338.7246872125316,1.1777493435744413,96520.27182485012,285.4987732648726,-126.35402188235518,0.02521064681416181,120.54992990924835,0.0,0.0,0.0,1.1903600819301805,95735.56078495417,403.1991163234023
1.4999999999999456,6378572.598341379,697.6516054309878,446.46907107730385,6378572.636493941,-0.04767119553273775,446.46907107730385,276.4803276456381,465.1010213100981,290.8686879201932,290.8493313685182,-0.062073312300195464,-276.55155478427133,435.65211906374395,-7.473646260606168e-09,7.046144222283424e-05,9.81285461978885,2.0328738630729542e-20,6.999513775131555e-05,7.47364626286994e-09,7.292114999989522e-05,0.0,1.6191747942405682e-20,276.5515547842714,338.61770286378834,1.1745869024723279,96200.30232018865,285.31845527852374,-125.0618105850417,0.02668991064514073,118.89726704759347,0.0,0.0,0.0,1.1852315329824066,94597.76408551745,401.3351731396925
1.5999999999999346,6378600.156761235,744.1617068526854,475.51323493156946,6378600.200170182,-0.05407063781341541,475.51323493156946,274.68992822360264,465.1010068047374,290.01604141452395,289.99555892098755,-0.06590514725101299,-274.76580694556134,463.21789430350367,-8.476881465618869e-09,7.504808739951773e-05,9.812769667934274,1.3552888933785168e-20,7.454821106956991e-05,8.476881468427567e-09,7.292114999989522e-05,0.0,1.6191747942405682e-20,274.76580694556145,338.51137669914146,1.1714513445456374,95883.25258898054,285.1393030729144,-123.78951058534511,0.0281317343206452,117.27092179038307,0.0,0.0,0.0,1.1801428286775095,93478.11394136708,399.4865916955869
1.6999999999999236,6378627.536695817,790.6718067262728,504.4725675735206,6378627.585700235,-0.06085149957607841,504.4725675735206,272.9105926541949,465.1009903296173,289.17204139949826,289.1504519969681,-0.06970123317103884,-272.9911119784448,490.6056488778323,-9.53990474573195e-09,7.962471698252093e-05,9.812685265792519,2.7104437697004184e-20,7.908794795492479e-05,9.539904749037281e-09,7.292114999989522e-05,0.0,1.6191747942405682e-20,272.99111197844485,338.40570502142293,1.1683424086567662,95569.09153646916,284.96130937665623,-122.53671691276415,0.029537016555885632,115.67035365270831,0.0,0.0,0.0,1.1750934150976513,92376.24038100714,397.6531574428948
1.7999999999999126,6378654.7392427325,837.1819048493378,533.3479270151909,6378654.794181711,-0.0680102276437447,533.3479270151909,271.1421460652556,465.1009717764593,288.3365555850536,288.313878062749,-0.07346197789704448,-271.22729519076586,517.8164793075085,-1.0662158376368046e-08,8.417776284318043e-05,9.812601409963209,2.710643275515403e-20,8.361448345797491e-05,1.0662158380162064e-08,7.292114999989522e-05,0.0,1.6191747942405682e-20,271.22729519076586,338.3006841934788,1.1652598378726762,95257.78858289967,284.7844670335995,-121.30303502370202,0.030906631387422983,114.09503601647098,0.0,0.0,0.0,1.1700827504472275,91291.78294950195,395.83466046866664
1.899999999999901,6378681.765482289,883.6920010087706,562.1401581736116,6378681.826694898,-0.07554330915420801,562.1401581736116,269.38441714716635,465.1009510395479,287.50945434967525,287.4857072583948,-0.07718778082477154,-269.47418544901325,544.8514648212612,-1.1843090971877273e-08,8.872522220530166e-05,9.812518097099558,4.065830722666505e-20,8.812795056899403e-05,1.184309097617715e-08,7.292114999989522e-05,0.0,1.6191747942405682e-20,269.47418544901325,338.19631063689525,1.1622033793764006,94949.31365247992,284.60876900041103,-120.08808047981992,0.03224142896675552,112.54445570197161,0.0,0.0,0.0,1.1651103047506954,90224.39041483925,394.0308953786408
1.9999999999998903,6378708.616477823,930.2020949810128,590.8500931342412,6378708.684303144,-0.08344727073073288,590.8500931342412,267.63723806218326,465.1009280156574,286.690610672224,286.6658123294373,-0.08087903312424483,-267.73161508775826,571.7116677089006,-1.3082157355152715e-08,9.325427945121538e-05,9.812435323907284,2.7104620441323095e-20,9.262848025939337e-05,1.3082157359959517e-08,7.292114999989522e-05,0.0,1.6191747942405682e-20,267.73161508775826,338.0925808307888,1.1591727843814936,94643.63716273688,284.43420834427053,-118.89147863807608,0.03354223632702853,111.01811255501201,0.0,0.0,0.0,1.1601755595595886,89173.720484943,392.24166118429014
2.09999999999988,6378735.2932760725,976.7121865323072,619.4785514076812,6378735.368053176,-0.09171867766834897,619.4785514076812,265.90044435655153,465.1009026039866,285.8799000658487,285.8540685606531,-0.08453611794439836,-265.99941982186954,598.3981336687714,-1.4378818429701059e-08,9.776759340240362e-05,9.812353087143546,2.7104122246178398e-20,9.711620152212075e-05,1.4378818434976941e-08,7.292114999989522e-05,0.0,1.6191747942405682e-20,265.9994198218695,337.98949131061505,1.1561678080485898,94340.730014118,284.26077824060434,-117.71286435182625,0.034809858119726096,109.51551904874074,0.0,0.0,0.0,1.1552780076685565,88139.43953479112,390.46676119334165
2.1999999999998687,6378761.796907496,1023.222275418934,648.0263401798841,6378761.878975446,-0.10035413314598345,648.0263401798841,264.17387487529885,465.1008747060919,285.0772005139109,285.0503537118577,-0.08815941061372355,-264.27743866140116,624.9118921381744,-1.5732541055773396e-08,0.00010226718676395017,9.812271383615878,2.710350843608935e-20,0.00010159124141103535,1.5732541061465894e-08,7.292114999989522e-05,0.0,1.6191747942405682e-20,264.27743866140116,337.88703866703923,1.153188209405158,94040.56357996124,284.0884719709296,-116.55188168266864,0.03604507732531053,108.03619989976349,0.0,0.0,0.0,1.1504171528399474,87121.22234332531,388.7060029036438
2.2999999999998577,6378788.128386593,1069.7323613874444,676.494254556051,6378788.218084455,-0.10935027745090191,676.494254556051,262.45737167961187,465.10084422582406,284.2823924078475,284.2545479556416,-0.09174927883373549,-262.56551382906304,651.2539566147029,-1.714279792843471e-08,0.000106766563061109,9.812190210181257,2.7104241723261116e-20,0.00010605372507929613,1.7142797934673932e-08,7.292114999989522e-05,0.0,1.6191747942405682e-20,262.565513829063,337.7852195448373,1.150233751267116,93743.10969673742,283.91728292075777,-115.4081836225067,0.03724865593745983,106.57969169785338,0.0,0.0,0.0,1.1455925095367376,86118.7518396879,386.9591979002624
2.3999999999998467,6378814.28871222,1116.2424441748872,704.8830777984141,6378814.386379054,-0.11870378722653037,704.8830777984141,260.7507799667053,465.1008110692665,283.495358486905,283.46653381698735,-0.09530608286655155,-260.8634906801846,677.425324966228,-1.8609067459307715e-08,0.00011124311483698867,9.81210956374508,1.3553494167719878e-20,0.00011050377581677991,1.8609067465973553e-08,7.292114999989522e-05,0.0,1.6191747942405682e-20,260.8634906801846,337.68403064183866,1.1473042001630136,93448.34065458292,283.7472045775726,-114.2814318254471,0.03842133562245159,105.14554254873988,0.0,0.0,0.0,1.140803602663484,85131.71885843058,385.2261617556944
2.499999999999836,6378840.278867909,1162.7525235090284,733.1935815580758,6378840.384842769,-0.1284113747407751,733.1935815580758,259.0539479920964,465.1007751446774,282.71598377967916,282.68619611468546,-0.09883017571696798,-259.17121762507236,703.4269797522337,-2.0130833661538667e-08,0.00011571050567434444,9.812029441260208,1.3551839005470184e-20,0.0001149415150865658,2.0130833668662562e-08,7.292114999989522e-05,0.0,1.6191747942405682e-20,259.17121762507236,337.5834687078197,1.1443993262581729,93156.229187865,283.5782305287338,-113.17129634888393,0.03956383835470357,103.73331172921613,0.0,0.0,0.0,1.1360499673152866,84159.82190314597,383.5067139330813
2.5999999999998247,6378866.099822179,1209.2625991085656,761.4265261010954,6378866.2144441195,-0.13846978717195774,761.4265261010954,257.3667269942018,465.1007363624298,281.94415554739624,281.9134219045046,-0.1023219033122647,-257.4885460536938,729.2598885360718,-2.1707586037532935e-08,0.00012016955396719759,9.811949839725981,1.3552332776317746e-20,0.00011936706256051376,2.170758604514811e-08,7.292114999989522e-05,0.0,1.6191747942405682e-20,257.4885460536939,337.4835305434297,1.1415189032805229,92866.7484660043,283.41035445944067,-112.07745540363763,0.0406768670307119,102.34256935429273,0.0,0.0,0.0,1.131331148534247,83202.76691836193,381.8006776923275
2.6999999999998137,6378891.752528811,1255.772670683338,789.5826605289875,6378891.87613688,-0.1488758059038109,789.5826605289875,255.68897112117236,465.1006946349566,281.1797632288766,281.14810042404304,-0.1057816046711761,-255.81533026259584,754.9250041540682,-2.333881946811921e-08,0.00012461116273333007,9.811870756187396,4.065732591106219e-20,0.00012378053615396862,2.3338819476236863e-08,7.292114999989522e-05,0.0,1.6191747942405682e-20,255.81533026259584,337.38421299928035,1.1386627084527245,92579.87208493169,283.2435701509757,-110.99959511315728,0.041761106058947034,100.97289605625431,0.0,0.0,0.0,1.1266467010726984,82260.26706964291,380.1078799990152
2.799999999999802,6378917.23792714,1302.282737934527,817.6627229937939,6378917.370860381,-0.15962624584992724,817.6627229937939,254.0205373598925,465.10064987669796,280.42269838712014,280.3901230392073,-0.10920961207078811,-254.1514273839836,780.4232650175571,-2.50240341063388e-08,0.00012904686391993265,9.811792187734152,4.065550193571788e-20,0.00012818205205960556,2.5024034115087168e-08,7.292114999989522e-05,0.0,1.6191747942405682e-20,254.1514273839836,337.28551297490384,1.1358305224212044,92295.5740583196,283.07787147873483,-109.93740928060298,0.04281722192977738,99.62388267438976,0.0,0.0,0.0,1.1219961891639474,81332.04253096036,378.42815143602127
2.899999999999792,6378942.556942345,1348.7928005548608,845.6674409079016,6378942.699539801,-0.17071795478221952,845.6674409079016,252.36128546706652,465.1006020040465,279.6728546574589,279.63938319225986,-0.11260625121104342,-252.496697316884,805.7555953899354,-2.676273527187126e-08,0.00013345845010991698,9.811714131499803,4.0657349584837723e-20,0.00013257172478044486,2.6762735280906666e-08,7.292114999989522e-05,0.0,1.6191747942405682e-20,252.496697316884,337.1874274178051,1.1330221291892566,92013.82880923507,282.9132524104199,-108.89059916412671,0.043845863766234186,98.29512995555437,0.0,0.0,0.0,1.1173791862995306,80417.82027951386,376.76132611774136
2.9999999999997806,6378967.710485701,1395.3028582287984,873.5975311487418,6378967.863086413,-0.18214781268692917,873.5975311487418,250.71107790232313,465.10055093529786,278.9301276972249,278.8957763513851,-0.11597184136848795,-250.8510026603251,830.9229056512266,-2.855443334978621e-08,0.00013786640130313764,9.81163658466095,4.0660254838415287e-20,0.00013694966716207047,2.8554433359428847e-08,7.292114999989522e-05,0.0,1.6191747942405682e-20,250.8510026603251,337.0899533225588,1.1302373160521575,91734.61116206755,282.74970700431277,-107.8588732598973,0.04484766385304261,96.9862482650152,0.0,0.0,0.0,1.1127952750129166,79517.33389761129,375.107241606833
3.0999999999997696,6378992.699454899,1441.81291063272,901.4537002585369,6378992.862397898,-0.19391273113619503,901.4537002585369,249.06977976326715,465.1004965906014,278.1944151368786,278.1591999617209,-0.11930669555327954,-249.2142086484623,855.926092604658,-3.039864369174135e-08,0.00014226223406712147,9.811559544436268,4.0657544715672203e-20,0.00014131599042406358,3.0398643701774203e-08,7.292114999989522e-05,0.0,1.6191747942405682e-20,249.2142086484623,336.99308772974075,1.1274758735289296,91457.89633412383,282.58722940727614,-106.84194709199808,0.045823238149890866,95.69685730666586,0.0,0.0,0.0,1.108244046670131,78630.32338091268,373.4657388333941
3.1999999999997586,6379017.524734221,1488.322957435116,929.2366446392297,6379017.698358541,-0.20600965264937743,929.2366446392297,247.4372587224138,465.1004388919126,277.465616532549,277.42955339780457,-0.1226111206517301,-247.5861830875837,880.7660396606059,-3.229488651558188e-08,0.000146647046626199,9.811483008085943,4.065462254781913e-20,0.0001456708041906732,3.229488652603818e-08,7.292114999989522e-05,0.0,1.6191747942405682e-20,247.5861830875837,336.8968277253309,1.1247375953081242,91183.65992871152,282.425813853552,-105.83954301064878,0.04677318678342712,94.42658585379387,0.0,0.0,0.0,1.1037251012649731,77756.5349540588,371.8366620164881
3.299999999999748,6379042.187194879,1534.832998296757,956.9470507427318,6379042.371839548,-0.2184355501138568,956.9470507427318,245.81338496594068,465.1003777629463,276.74363331994005,276.7067379173832,-0.1258854175767759,-245.96679629492854,905.4436171738297,-3.424268681426953e-08,0.00015102180700581592,9.811406972910655,4.0658502810367595e-20,0.00015001421652076425,3.424268682502156e-08,7.292114999989522e-05,0.0,1.6191747942405682e-20,245.96679629492854,336.8011704395205,1.1220222781776248,90911.87792664909,282.2654546625637,-104.85138999557076,0.047698094526099875,93.17507148742092,0.0,0.0,0.0,1.099238047222135,76895.72089128982,370.2198585879381
3.399999999999737,6379066.687695214,1581.343032870874,984.585595256634,6379066.883699254,-0.23118742618407617,984.585595256634,244.19803113419863,465.1003131291327,276.0283687695542,275.99065661654924,-0.12912988140289516,-244.3559210392654,929.9596826387734,-3.6241574261408156e-08,0.00015538731786682427,9.811331436250914,5.421295795404107e-20,0.00015434633393703094,3.6241574271342417e-08,7.292114999989522e-05,0.0,1.6191747942405682e-20,244.3559210392654,336.7061130460651,1.119329721971463,90642.52667946853,282.10614623764053,-103.87722346734431,0.04859853125469798,91.94196034466292,0.0,0.0,0.0,1.0947825012042829,76047.63934410889,368.6151791183183
3.4999999999997256,6379091.027080939,1627.8530608033238,1012.1529452854999,6379091.234783376,-0.24426231269591547,1012.1529452854999,242.5910722639197,465.1002449175725,275.31972794319125,275.28121438615517,-0.13234480150474331,-242.75343248316787,954.3150809393675,-3.829108311917883e-08,0.00015973648797278648,9.811256395486351,5.42079044340844e-20,0.00015866726145453985,3.829108312692409e-08,7.292114999989522e-05,0.0,1.6191747942405682e-20,242.75343248316784,336.61165276142475,1.1166597295104954,90375.58290213176,281.94788306438875,-102.91678510443984,0.04947505239573862,90.72690687491674,0.0,0.0,0.0,1.0903580879253876,75212.05417423678,367.0224772450644
3.5999999999997145,6379115.206185411,1674.3630817327532,1039.6497585278692,6379115.425925259,-0.2576572701083312,1039.6497585278692,240.99238573206924,465.10017305699597,274.61761765167955,274.5783178694564,-0.13553046168945596,-241.15920812692605,978.510644606781,-4.03907521505553e-08,0.0001640706200031134,9.811181848034867,5.42090099371679e-20,0.0001629771026085749,4.0390752156214866e-08,7.292114999989522e-05,0.0,1.6191747942405682e-20,241.15920812692607,336.5177868438701,1.1140121065438078,90111.02366577562,281.7906597090103,-101.96982266618512,0.05032819935459085,89.52957360401223,0.0,0.0,0.0,1.0859644399695283,74388.7347920112,365.4416096026312
3.699999999999704,6379139.225829814,1720.873095290765,1067.0766834491026,6379139.457946091,-0.2713693869594469,1067.0766834491026,239.40185120128427,465.10009747772233,273.92194641379865,273.8818754209525,-0.1386871403224863,-239.57312775404642,1002.5471940260768,-4.2540124533791e-08,0.00016839833878374338,9.811107791352017,2.7107586720325246e-20,0.00016727595948183831,4.2540124537155e-08,7.292114999989522e-05,0.0,1.6191747942405682e-20,239.57312775404642,336.4245125927841,1.111386661696144,89848.82639112938,281.6344708169545,-101.0360898220386,0.051158499929161445,88.34963090654925,0.0,0.0,0.0,1.0816011976142514,73577.4560004586,363.8724357546326
3.799999999999693,6379163.086823441,1767.383101102068,1094.4343594501668,6379163.331655155,-0.28539577933627897,1094.4343594501668,237.81935056684927,465.10001811161845,273.2326244163534,273.1917970663827,-0.1418151104570899,-237.99507337828803,1026.4255376848787,-4.4738747779049127e-08,0.00017272013652008206,9.811034222930243,2.7101325128091717e-20,0.00017156393273101285,4.473874778019696e-08,7.292114999989522e-05,0.0,1.6191747942405682e-20,237.99507337828803,336.33182734779797,1.1087832064114735,89588.96884157966,281.4793111112963,-100.11534598600335,0.051966468711968895,87.18675678529439,0.0,0.0,0.0,1.0772680086594864,72777.99784414664,362.3148181278972
3.8999999999996815,6379186.789963857,1813.8930987846381,1121.7234170324866,6379187.047850021,-0.2997335903305123,1121.7234170324866,236.2447679051563,465.0999348920619,272.54956347536324,272.5079944638379,-0.14491463995116685,-236.4249291921803,1050.146472372079,-4.698617364285177e-08,0.00017702221200902485,9.810961140298263,5.421431725912153e-20,0.00017584112161270955,4.698617364179512e-08,7.292114999989522e-05,0.0,1.6191747942405682e-20,236.4249291921803,336.23972848811945,1.1062015549026902,89331.42911688633,281.3251753914398,-99.20735615690002,0.05275260747550382,86.04063665817186,0.0,0.0,0.0,1.072964528260695,71990.1454633028,360.7686219483769
3.9999999999996714,6379210.336037159,1860.4030879498578,1148.9444779589762,6379210.607316777,-0.3143799895462478,1148.9444779589762,234.67798942360264,465.09984775390274,271.8726769983289,271.8303808659517,-0.1479859915887764,-234.86258151697498,1073.7107834060669,-4.928195805068145e-08,0.00018131987974664198,9.810888541020331,2.7104808374722825e-20,0.00018010762400879412,4.928195804738217e-08,7.292114999989522e-05,0.0,1.6191747942405682e-20,234.86258151697496,336.1482134317431,1.1036415240990436,89076.18564667832,281.1720585316298,-98.31189076350059,0.05351740554737252,84.91096315188253,0.0,0.0,0.0,1.0686904187670914,71213.68895243475,359.2337151788451
4.099999999999704,6379233.725818156,1906.9130682026707,1176.098155411339,6379234.010830231,-0.3293321725794011,1176.098155411339,233.11890341187848,465.09975663342755,271.2018799475429,271.15887108313615,-0.15102942319252724,-233.30791875398805,1097.119244836843,-5.162566101514429e-08,0.00018560659231902298,9.810816422695638,5.42139134455451e-20,0.00018436353645115864,5.162566100975612e-08,7.292114999989522e-05,0.0,1.6191747942405682e-20,233.30791875398805,336.05727963475954,1.1011029335968678,88823.21718433223,281.0199554796327,-97.42872551488627,0.054261340170866215,83.79743590238009,0.0,0.0,0.0,1.064445349564083,70448.42322368063,357.7099684583281
4.199999999999737,6379256.960070602,1953.423039141719,1203.1850541437568,6379257.25915413,-0.3445873605416842,1203.1850541437568,231.5674001946012,465.0996614683247,270.5370888044078,270.4933814478321,-0.15404518773687942,-231.76083133728883,1120.3726196685702,-5.401684656112694e-08,0.00018987652799915,9.810744782957629,5.421107247844145e-20,0.00018860895414589057,5.401684655365093e-08,7.292114999989522e-05,0.0,1.6191747942405682e-20,231.76083133728883,335.9669245905844,1.0985856056087155,88572.50280072719,280.868861255286,-96.55764125539132,0.0549848768548346,82.6997613615651,0.0,0.0,0.0,1.0602289969203722,69694.14787439253,356.1972550432164
4.299999999999771,6379280.039547363,1999.9330003594812,1230.2057706330572,6379280.353041343,-0.3601427995747304,1230.2057706330572,230.0233720852499,465.0995621976487,269.87822153473223,269.83382977973537,-0.1570335334563806,-230.22121168768416,1143.4716600287584,-5.645508264941369e-08,0.0001941437390346308,9.810673619473445,5.4208739614364625e-20,0.00019284397099691527,5.645508263977797e-08,7.292114999989522e-05,0.0,1.6191747942405682e-20,230.22121168768416,335.87714582939077,1.096089364919188,88324.02187866908,280.7187709493934,-95.69842382466335,0.05568846971149086,81.6176526105696,0.0,0.0,0.0,1.0560410438386465,68950.66705930213,354.69545074999314
4.399999999999804,6379302.9649906615,2046.4429514424082,1257.1608932254583,6379303.293234087,-0.37599576038875976,1257.1608932254583,228.4867133413632,465.0994587617886,269.2251975549734,269.18013535197014,-0.15999470395242743,-228.68895416796562,1166.4171074078502,-5.8939941104155044e-08,0.00019839574133872153,9.810602929943231,8.131466287557849e-20,0.00019706867962907608,5.8939941091983524e-08,7.292114999989522e-05,0.0,1.6191747942405682e-20,228.68895416796565,335.78794091726644,1.093614038833451,88077.75410664722,280.5696797221632,-94.8508639214896,0.05637256178317588,80.55082917839249,0.0,0.0,0.0,1.0518811799112655,68217.78936626106,353.2044338995367
4.4999999999998375,6379325.737132217,2092.952891971054,1284.0510022799847,6379326.080464077,-0.39214353779563377,1284.0510022799847,226.9573201209567,465.0993511024352,268.5779376993934,268.5322188581813,-0.1629289382935444,-227.1639550393748,1189.2096928079636,-6.147099753946205e-08,0.0002026396174562544,9.810532712099608,5.42109102458753e-20,0.00020128317141071707,6.147099752519104e-08,7.292114999989522e-05,0.0,1.6191747942405682e-20,227.1639550393748,335.699307455723,1.0911594571364656,87833.67947365806,280.4215828022371,-94.0147569727625,0.0570375853575694,79.49901686698456,0.0,0.0,0.0,1.047749101178818,67495.32769651587,351.7240852629409
4.599999999999871,6379348.356693466,2139.462821520209,1310.8766703086415,6379348.715452748,-0.4085834502670425,1310.8766703086415,225.4350904401202,465.0992391625503,267.93636418810115,267.89000238051557,-0.1658364711174759,-225.64611241925067,1211.8501369620415,-6.404783128994454e-08,0.00020686988013825976,9.810462963707069,5.42100265660505e-20,0.00020548753647572847,6.404783127338989e-08,7.292114999989522e-05,0.0,1.6191747942405682e-20,225.64611241925067,335.61124308092775,1.0887254520448533,87591.77826335761,280.27447548526123,-93.18990300589722,0.057683962273776195,78.46194758126592,0.0,0.0,0.0,1.0436445099934015,66783.09914827073,350.25428800880667
4.699999999999904,6379370.824385745,2185.9727396590183,1337.6384621134378,6379371.198911434,-0.42531283949617643,1337.6384621134378,223.91992413176328,465.09912288633467,267.30040059595547,267.2534093584589,-0.16871753272959267,-224.1353262398171,1234.3391505030334,-6.667002534180023e-08,0.00021109326160778056,9.810393682561399,5.4209811740156443e-20,0.00020968186374511712,6.667002532309567e-08,7.292114999989522e-05,0.0,1.6191747942405682e-20,224.1353262398171,335.52374546312893,1.0863118581653062,87352.03104883453,280.1283531327827,-92.37610652569234,0.05831210421832761,77.43935916485002,0.0,0.0,0.0,1.039567114885029,66080.92490422323,348.794927651957
4.799999999999938,6379393.140910451,2232.482645951111,1364.3369349203422,6379393.531541526,-0.442329069964989,1364.3369349203422,222.41172280546658,465.0990022192012,266.6699718222973,266.62236455851126,-0.17157234919447434,-222.63149820808042,1256.6774341398955,-6.933716626478492e-08,0.0002153043385518181,9.810324866489147,5.421004847171457e-20,0.00021386624094808297,6.933716624389632e-08,7.292114999989522e-05,0.0,1.6191747942405682e-20,222.63149820808042,335.43681230605205,1.0839185124521689,87114.41868739093,279.98321117110106,-91.57317639495146,0.0589224130100697,76.43099524082211,0.0,0.0,0.0,1.0355166304317418,65388.630122553615,347.34589200353156
4.899999999999971,6379415.306959244,2278.9925399547137,1390.9726385102501,6379415.714034689,-0.4596295285386277,1390.9726385102501,220.91038980840978,465.0988771077436,266.04500406148776,265.9967940446649,-0.17440114243276927,-221.1345317667997,1278.8656788574308,-7.204884414844512e-08,0.00021950950612994116,9.810256513347014,2.7099502183337584e-20,0.0002180407546426246,7.204884412539823e-08,7.292114999989522e-05,0.0,1.6191747942405682e-20,221.1345317667997,335.3504413462015,1.081545254163323,86878.92231514958,279.8390450899656,-90.78092571858112,0.05951528087834656,75.43660505727023,0.0,0.0,0.0,1.031492777133514,64706.043831138566,345.90707112241665
5.000000000000004,6379437.323214193,2325.502421222772,1417.5461153470471,6379437.747072978,-0.4772116240383525,1417.5461153470471,219.41583018733775,465.09874749971004,265.4254247742269,265.37662514966854,-0.1772041303069505,-219.64433205649604,1300.9045660525471,-7.480465253498342e-08,0.00022370349070383166,9.810188621021423,2.7102644525234186e-20,0.0002222054902356959,7.480465250959222e-08,7.292114999989522e-05,0.0,1.6191747942405682e-20,219.644332056496,335.26463035240795,1.0791919248235449,86645.52334241432,279.6958504416856,-89.99917173182581,0.06009109072962852,74.45594333805249,0.0,0.0,0.0,1.027495281288786,64032.99882543388,344.4783572679686
5.100000000000038,6379459.190347956,2372.012289303065,1444.0579007028382,6379459.631329057,-0.4950727868491199,1444.0579007028382,217.92795065153734,465.0986133439759,264.81116265962817,264.7617864470458,-0.17998152671118445,-218.16080587846963,1322.7947677250147,-7.760418835756133e-08,0.0002278869450776773,9.81012118742794,5.4208216544944146e-20,0.00022636053200291445,7.760418833006832e-08,7.292114999989522e-05,0.0,1.6191747942405682e-20,218.16080587846963,335.179377125162,1.0768583681823969,86414.20344852669,279.5536228398869,-89.22773569144096,0.06065021640745509,73.48877013773715,0.0,0.0,0.0,1.023523874874941,63369.331569144895,343.059644853988
5.200000000000071,6379480.9090239415,2418.52214373831,1470.5085227804236,6379481.367466328,-0.5132104685271879,1470.5085227804236,216.4466595367899,465.09847459051804,264.2021476280248,264.15220772384487,-0.18273354165523453,-216.6838616587902,1344.5369466318907,-8.044705187860957e-08,0.00023206041156746478,9.810054210510758,2.71057416567742e-20,0.00023050596310782276,8.044705184914539e-08,7.292114999989522e-05,0.0,1.6191747942405682e-20,216.6838616587902,335.09467949608677,1.0745444301763492,86184.94457718047,279.412357958504,-88.46644277050356,0.06119302294303707,72.53485070123818,0.0,0.0,0.0,1.019578295431524,62714.882098160204,341.6508304039075
5.300000000000105,6379502.479896474,2465.031984066279,1496.8985028330926,6379502.956139111,-0.5316221414182423,1496.8985028330926,214.97186677027352,465.09833119038746,263.59831077448825,263.54781995411037,-0.1854603813495807,-215.21340941324107,1366.131756454432,-8.333284662979133e-08,0.00023621910415804197,9.809987688242236,5.421321365956264e-20,0.0002346418656207538,8.333284659833276e-08,7.292114999989522e-05,0.0,1.6191747942405682e-20,215.21340941324107,335.0105353273615,1.0722499588902803,85957.72893167644,279.2720515306918,-87.71512195631173,0.06171986679895417,71.5939553276309,0.0,0.0,0.0,1.0156582859467165,62069.493927333,340.2518125071595
5.400000000000138,6379523.903610958,2511.541809819902,1523.2283552817987,6379524.397992812,-0.55030529828087,1523.2283552817987,213.50348383638118,465.0981830956861,262.99958435303404,262.9485552730348,-0.1881622482854777,-213.74936071317302,1387.5798419661462,-8.626117935280743e-08,0.00024037424004075633,9.809921618622338,5.421284212746414e-20,0.00023876832053725973,8.626117931884625e-08,7.292114999989522e-05,0.0,1.6191747942405682e-20,213.74936071317305,334.92694251113664,1.0699748045194926,85732.53897023488,279.13269934772967,-86.97360595135642,0.062231096104138996,70.66585923807891,0.0,0.0,0.0,1.011763594746791,61433.01396007693,338.86249177667764
5.500000000000171,6379545.180804007,2558.0516205273684,1549.4985878297975,6379545.693664043,-0.5692574519148341,1549.4985878297975,212.04142374343309,465.09803025954284,262.4059017514945,262.3543469517818,-0.19083934131214197,-212.29162865225283,1408.8818391576917,-8.923165994095796e-08,0.0002445208730326324,9.80985599967826,2.7107604508218696e-20,0.00024288540779615007,8.923165990469688e-08,7.292114999989522e-05,0.0,1.6191747942405682e-20,212.29162865225283,334.84389896911875,1.0677188193362654,85509.3574018295,278.9942972582061,-86.2417310776454,0.06272705088145206,69.75034244804463,0.0,0.0,0.0,1.0078939753879652,60805.29240095168,337.48277080750466
5.600000000000205,6379566.312103618,2604.5614157122322,1575.7097015747947,6379566.843780789,-0.588476134802917,1575.7097015747947,210.585600991249,465.0978726360894,261.8171974670406,261.7651293729601,-0.19349185571491095,-210.8401278140713,1430.0383754037916,-9.224390138283445e-08,0.00024865431108137594,9.8097908294639,2.7101890203626456e-20,0.00024699320629714716,9.224390134471618e-08,7.292114999989522e-05,0.0,1.6191747942405682e-20,210.8401278140713,334.7614026519871,1.0654818576529026,85288.16718164421,278.85684116693,-85.51933718353182,0.06320806326882597,68.8471896430341,0.0,0.0,0.0,1.00404918655156,60186.18267061618,336.11255413647035
5.700000000000238,6379587.298129316,2651.0711948935113,1601.8621911186838,6379587.848962581,-0.6079588987638334,1601.8621911186838,209.13593153956083,465.09771018043676,261.2334070823298,261.18083800672656,-0.1961199832921241,-209.3947742405925,1451.0500696278782,-9.529751970774962e-08,0.00025278027271032674,9.809726106059372,2.7105955048646975e-20,0.000251091793918146,9.529751966733262e-08,7.292114999989522e-05,0.0,1.6191747942405682e-20,209.3947742405925,334.67945153881897,1.0632637757850878,85068.95150662039,278.720327033858,-84.80626755334318,0.06367445773370718,67.95619005807336,0.0,0.0,0.0,1.000228991941851,59575.541323340534,334.7517482029066
5.800000000000272,6379608.1394922845,2697.5809575857816,1627.956544674927,6379608.709820597,-0.6277033145999241,1627.956544674927,207.69233277723774,465.09754284865454,260.654467242263,260.6014093874949,-0.1987239124244453,-207.95548540140993,1471.9175324122311,-9.839213393035415e-08,0.0002568990254688387,9.809661827570645,2.7104840321548106e-20,0.000255181247532116,9.839213388766605e-08,7.292114999989522e-05,0.0,1.6191747942405682e-20,207.95548540140993,334.5980436367261,1.0610644320218907,84851.69381163568,278.5847508733746,-84.10236882014978,0.06412655127931903,67.07713736113416,0.0,0.0,0.0,0.9964331601859144,58973.22796729361,333.40026131036626
5.900000000000305,6379628.83679552,2744.090703299269,1653.9932441736444,6379629.426957833,-0.6477069717663544,1653.9932441736444,206.25472349229887,465.0973705977489,260.0803156313352,260.02678109124304,-0.20130382814796022,-206.52218016379308,1492.641366160351,-1.0152736599862598e-07,0.00026100612705252636,9.809597992129044,0.0,0.00025926164302363764,1.0152736595379803e-07,7.292114999989522e-05,0.0,1.6191747942405682e-20,206.52218016379308,334.517176980285,1.0588836865901017,84636.3777651976,278.4501087532339,-83.4074908806754,0.0645646536460052,66.20982953965543,0.0,0.0,0.0,0.9926614647366544,58379.10518688496,332.05800358931987
6.000000000000338,6379649.390633963,2790.600431539954,1679.9727653644616,6379650.000969226,-0.6679674780305679,1679.9727653644616,204.8230238426911,465.09719338564076,259.5108909515533,259.4568917133863,-0.20385991222379887,-205.09477876349655,1513.2221652320802,-1.0470284074033605e-07,0.0002651069001722524,9.809534597890835,4.943696801120047e-25,0.0002633330553050787,1.0470284069352347e-07,7.292114999989522e-05,0.0,1.6191747942405682e-20,205.09477876349652,334.43684963107347,1.0567214016223314,84422.98726548116,278.31639679367805,-82.72148681293622,0.06498906750596264,65.3540687905898,0.0,0.0,0.0,0.9889136837779726,57793.03846755542,330.724886960791
6.100000000000372,6379669.801594655,2837.1101418096478,1705.8955779171797,6379670.432441808,-0.6884824591669135,1705.8955779171797,203.3971553278104,465.0970111711469,258.94613290091604,258.8916808472183,-0.2063923432057701,-203.6732027763147,1533.6605160878064,-1.0791818581503045e-07,0.0002691969022008066,9.809471643036783,2.710252527160643e-20,0.0002673955583324448,1.0791818576577504e-07,7.292114999989522e-05,0.0,1.6191747942405682e-20,203.6732027763147,334.3570596771686,1.0545774411243851,84211.50643633046,278.18361116649703,-82.04421279622188,0.06540008865184258,64.50966141361738,0.0,0.0,0.0,0.9851896001324706,57214.89612272709,329.4008251009174
6.200000000000405,6379690.070256824,2883.619833606094,1731.762145520324,6379690.721954816,-0.7092495586105403,1731.762145520324,201.9770407607432,465.09682391395864,258.38598215243064,258.3310890628838,-0.20890129650443792,-202.2573750903506,1553.9569973951966,-1.1117303165963107e-07,0.00027327662164818977,9.809409125771799,5.421620461639613e-20,0.0002714492251208837,1.1117303160810198e-07,7.292114999989522e-05,0.0,1.6191747942405682e-20,202.2573750903506,334.2778052327913,1.052451670946713,84001.91962370402,278.0517480943319,-81.37552803371229,0.0657980061792028,63.67641770771463,0.0,0.0,0.0,0.981489001171034,56644.54922309984,328.0857334063931
6.300000000000439,6379710.197192066,2930.1295064230335,1757.5729259776185,6379710.870079837,-0.7302664371819372,1757.5729259776185,200.56260424120595,465.0966315746237,257.8303803336521,257.77505788687694,-0.21138694445362835,-200.84721987898544,1574.1121801813513,-1.1446701144511198e-07,0.00027735107353418423,9.8093470443245,5.421045964830215e-20,0.00027549412775986225,1.1446701139137694e-07,7.292114999989522e-05,0.0,1.6191747942405682e-20,200.84721987898544,334.19908443777086,1.0503439587521461,83794.21139170496,277.92080384968284,-80.71529467697297,0.06618310266437644,62.85415187043847,0.0,0.0,0.0,0.977811678725198,56081.871527749005,326.7795289607716
6.400000000000472,6379730.182964443,2976.639159750323,1783.3283713024334,6379730.87738093,-0.7515307727509652,1783.3283713024334,199.15377112916576,465.09643411452686,257.2792700067351,257.22352978205816,-0.21384945637205435,-199.44266257452983,1594.1266279577048,-1.1779976102369503e-07,0.000281411565514615,9.809285396946802,2.7102942183040617e-20,0.0002795303374280298,1.1779976096836978e-07,7.292114999989522e-05,0.0,1.6191747942405682e-20,199.4426625745298,334.1208954571155,1.0482541739858495,83588.36651894682,277.79077475409457,-80.06337775285859,0.06655565433605905,62.04268190030172,0.0,0.0,0.0,0.9741574290014168,55526.739417377124,325.482130501614
6.500000000000505,6379750.028130615,3023.1487930739863,1809.0289278102734,6379750.744414755,-0.7730402599573987,1809.0289278102734,197.75046801911907,465.09623149587156,256.73259464897575,256.67644812815513,-0.2162889986249913,-198.043629842529,1614.0008968381137,-1.211709188849054e-07,0.000285467431883101,9.80922418191355,2.7102315365940663e-20,0.00028355792440777427,1.211709188270773e-07,7.292114999989522e-05,0.0,1.6191747942405682e-20,198.043629842529,334.04323648060796,1.046182187847545,83384.36999504168,277.6616571773858,-79.4196450925691,0.06691593124223168,61.24182950199937,0.0,0.0,0.0,0.9705260524973524,54979.03182952706,324.1934583884377
6.600000000000539,6379769.733239968,3069.658405876315,1834.6750362093396,6379770.471730692,-0.7947926099142681,1834.6750362093396,196.35262271501196,465.0960236816632,256.19029863383395,256.1337572027475,-0.21870573468340368,-196.65004955670966,1633.7355356683017,-1.2458012610893416e-07,0.00028951459365827943,9.809163397522136,5.42097877484369e-20,0.0002875769580994709,1.245801260487766e-07,7.292114999989522e-05,0.0,1.6191747942405682e-20,196.65004955670966,333.9661057223549,1.0441278732617199,83182.20701702223,277.53344753680534,-78.78396726265264,0.06726419741164012,60.45141999428464,0.0,0.0,0.0,0.96691735392037,54438.63019559596,322.9134345714568
6.700000000000572,6379789.2988347225,3116.1679976359287,1860.2671316892101,6379790.059870964,-0.8167855499245327,1860.2671316892101,194.96016420577982,465.0958106356898,255.6523272124225,255.5954021627215,-0.22109982518317822,-195.26185077454758,1653.331086137134,-1.2802702632209315e-07,0.00029354907317375963,9.809103042092138,5.421904835724045e-20,0.0002915875070354294,1.2802702626013692e-07,7.292114999989522e-05,0.0,1.6191747942405682e-20,195.26185077454758,333.88950142040704,1.042091104850984,82981.86298599985,277.4061422963062,-78.15621749812067,0.06760071101100858,59.67128222058603,0.0,0.0,0.0,0.9633311421078292,53905.418379751274,321.6419825610854
6.800000000000606,6379808.725450048,3162.6775678278777,1885.805644007704,6379809.509370736,-0.8390168231569016,1885.805644007704,193.5730226414949,465.09559232250785,255.11862649544602,255.06132902617378,-0.22347142797942812,-193.878963713441,1672.7880828890295,-1.315112656458691e-07,0.00029757988836507873,9.809043113964984,4.53656887015786e-24,0.0002955896388935768,1.3151126558681744e-07,7.292114999989522e-05,0.0,1.6191747942405682e-20,193.87896371344098,333.81342183637383,1.0400717589092172,82783.3235038588,277.27973796581205,-77.53627163745344,0.06792572449646317,58.901248462157724,0.0,0.0,0.0,0.9597672299493262,53379.28261958069,320.37902739818037
6.900000000000639,6379828.013614193,3209.187115923698,1911.2909975759542,6379828.8207582515,-0.8614841884771168,1911.2909975759542,192.1911293100958,465.09536870742363,254.58914343558035,254.531484654755,-0.22582069820454698,-192.50131972746405,1692.1070536488623,-1.3503249267034772e-07,0.00030160297034598915,9.808983611503548,5.421337777429142e-20,0.0002995834205108293,1.3503249261460793e-07,7.292114999989522e-05,0.0,1.6191747942405682e-20,192.50131972746405,333.7378652549859,1.0380697133736365,82586.57436986959,277.15423110040297,-76.9240080593474,0.06823948476189359,58.141154353612755,0.0,0.0,0.0,0.9562254343109546,52860.111468358766,319.1244956250008
7.000000000000672,6379847.163848596,3255.6966413914993,1936.7236115417422,6379847.994554951,-0.8841854200839502,1936.7236115417422,190.8144166146915,465.0951397564784,254.0638258102795,254.00581673644461,-0.22814778832221294,-191.12885128469685,1711.288519351405,-1.3859035839703012e-07,0.00030561451291307855,9.808924533091762,5.421359432813804e-20,0.0003035689178962146,1.3859035834441776e-07,7.292114999989522e-05,0.0,1.6191747942405682e-20,191.12885128469685,333.6628299836418,1.036084847797223,82391.60157730435,277.0296182994717,-76.31930762121497,0.06854223328204928,57.39083880081765,0.0,0.0,0.0,0.9527055759614546,52347.79573892577,317.87831525686823
7.100000000000706,6379866.176667991,3302.2061436960244,1962.1038998711335,6379867.031275562,-0.9071183072769256,1962.1038998711335,189.44281805141745,465.09490543643216,253.54262220499567,253.4842737687364,-0.23045284817943398,-189.76149194510367,1730.3329942151338,-1.4218451620229997e-07,0.0003096190523220452,9.808865877134396,5.4204592342087387e-20,0.00030754619624371254,1.4218451615282925e-07,7.292114999989522e-05,0.0,1.6191747942405682e-20,189.76149194510367,333.58831435216905,1.0341170433265605,82198.39131066203,276.9058962062414,-75.72205359982969,0.06883420625156227,56.65014390140786,0.0,0.0,0.0,0.9492074794994988,51842.228449434624,316.6404157545004
7.200000000000739,6379885.052580505,3348.715622298732,1987.4322714284513,6379885.931428212,-0.9302806541870668,1987.4322714284513,188.0762681878297,465.0946657147496,253.0254819968023,252.96680504223295,-0.2327360250571479,-188.39917633895305,1749.2409858716728,-1.458146217950963e-07,0.0003136128290375265,9.808807642056632,5.421726830594888e-20,0.00031151531994483744,1.4581462174968365e-07,7.292114999989522e-05,0.0,1.6191747942405682e-20,188.39917633895308,333.51431671236725,1.032166182674727,82006.92994237156,276.78306150692185,-75.13213163321029,0.06911563471943571,55.91891486720635,0.0,0.0,0.0,0.9457309732833314,51343.30477032973,315.41072799700254
7.300000000000771,6379903.792087775,3395.2250766578563,2012.7091300546435,6379904.695514531,-0.9536702795355125,2012.7091300546435,186.71470264182335,465.0944205595855,252.51235533840887,252.4533606246266,-0.23499746372077288,-187.04184014575682,1768.0129954634428,-1.4948033317895718e-07,0.00031760020182827,9.808749826303783,5.422214744666123e-20,0.00031547635260097714,1.4948033313643475e-07,7.292114999989522e-05,0.0,1.6191747942405682e-20,187.04184014575682,333.44083543767374,1.0302321500975862,81817.20402985997,276.6611109300723,-74.54942966435932,0.06938674472013781,55.19699994898057,0.0,0.0,0.0,0.9422758893617122,50850.921972969416,314.1891842554953
7.400000000000806,6379922.3956850665,3441.7345062284944,2037.9348746440576,6379923.324029792,-0.9772850163762874,2037.9348746440576,185.35805806105927,465.0941699397687,252.00319314255756,251.9438913450655,-0.2372373064725361,-185.68942007371894,1786.6495177731067,-1.5318131061158139e-07,0.00032158143882298466,9.808692428340876,5.421423113734428e-20,0.0003194293570354623,1.5318131057217635e-07,7.292114999989522e-05,0.0,1.6191747942405682e-20,185.68942007371894,333.3678689227053,1.0283148313671444,81629.2003123424,276.54004124575823,-73.97383788632641,0.06964775740149487,54.48425036310985,0.0,0.0,0.0,0.9388420634068372,50364.97937951666,312.97571816736104
7.500000000000839,6379940.863861342,3488.2439104626415,2063.109899219682,6379941.817462945,-1.0011227118589565,2063.109899219682,184.00627210288516,465.0939138247896,251.49794706678625,251.43834877888975,-0.23945569319471988,-184.3418538396803,1805.1510412757993,-1.569172165675103e-07,0.00032555285720225894,9.808635446652518,1.0840791860510092e-19,0.00032337439530541706,1.5691721653142227e-07,7.292114999989522e-05,0.0,1.6191747942405682e-20,184.34185383968034,333.29541558309995,1.026414113752892,81442.90570843095,276.4198492652089,-73.40524868935574,0.06989888914705919,53.780520220698214,0.0,0.0,0.0,0.9354293346479726,49885.378314605485,311.7702647110906
7.600000000000873,6379959.1970994,3534.7532888092856,2088.2345930068727,6379960.17629679,-1.025181226991968,2088.2345930068727,182.65928341473818,465.09365218478604,250.99656949855512,250.93668523272694,-0.24165276140067568,-182.99908014954036,1823.5180482958228,-1.606877157009183e-07,0.0003295148392051317,9.808578879742361,5.422040604988533e-20,0.00032731152871335147,1.6068771566840626e-07,7.292114999989522e-05,0.0,1.6191747942405682e-20,182.99908014954036,333.2234738549485,1.0245298859932,81258.30731273023,276.30053183979743,-72.84355660872005,0.07014035169678358,53.08566645806699,0.0,0.0,0.0,0.9320375458077724,49412.02205781758,310.5727601817125
7.700000000000906,6379977.395875932,3581.2626407144567,2113.3093405056256,6379978.401008019,-1.0494584363917479,2113.3093405056256,181.3170316150143,465.0933849905307,250.49901354072023,250.4388537299383,-0.24382864627727419,-181.66103867914796,1841.7510150577427,-1.6449247480617283e-07,0.00033347149127214363,9.808522726133,5.421636715198052e-20,0.0003312408178185358,1.6449247477681742e-07,7.292114999989522e-05,0.0,1.6191747942405682e-20,181.66103867914796,333.15204219464005,1.0226620382771288,81075.39239353547,276.1820858607061,-72.28865827475123,0.07037235226275379,52.39954876971704,0.0,0.0,0.0,0.9286665430389024,48944.815797988726,309.38314216678674
7.8000000000009395,6379995.46066164,3627.7719656212957,2138.3345215614013,6379996.492067329,-1.073952228065154,2138.3345215614013,179.9794572743923,465.09311221341784,250.00523299734806,249.94480799640465,-0.24598348073030976,-180.32767005564477,1859.8504117965285,-1.6833116278362528e-07,0.00033741925154578224,9.808466984365586,5.422097810876155e-20,0.00033516232244814296,1.6833116275781696e-07,7.292114999989522e-05,0.0,1.6191747942405682e-20,180.32767005564475,333.0811190784733,1.0208104622212342,80894.14838997314,276.06450825820826,-71.74045236380368,0.07059509364232734,51.72202954279968,0.0,0.0,0.0,0.925316175862756,48483.66658847228,308.20134952294734
7.900000000000973,6380013.391921349,3674.281262970112,2163.3105114345453,6380014.449939541,-1.098660503190907,2163.3105114345453,178.64650189760178,465.0928338254506,249.51518235986,249.45450244664656,-0.24811739543079903,-178.9989158392539,1877.8167028779121,-1.7220345060524235e-07,0.0003413584301004691,9.80841165299949,5.420717783421024e-20,0.00033907610170818073,1.7220345058235494e-07,7.292114999989522e-05,0.0,1.6191747942405682e-20,178.99891583925387,333.0107030022292,1.018975050844779,80714.5629090778,275.94779600088447,-71.19883955047733,0.07080877432848044,51.05297379331746,0.0,0.0,0.0,0.9219862971096752,48028.483303575034,307.0273223529796
8.000000000001005,6380031.190114063,3720.7905321984445,2188.2376808683453,6380032.27508366,-1.123581175881685,2188.2376808683453,177.3181079056201,465.09254979922895,249.0288167935001,248.96789217026378,-0.2502305188546998,-177.67471850549546,1895.6503468562992,-1.7610901127721016e-07,0.0003452929877760135,9.808356730612097,5.421757582582482e-20,0.0003429822139941843,1.7610901125704381e-07,7.292114999989522e-05,0.0,1.6191747942405682e-20,177.67471850549546,332.94079248098524,1.017155698552364,80536.62372353094,275.8319460952433,-70.66372246157674,0.07101358861583812,50.392249104369434,0.0,0.0,0.0,0.9186767628598366,47579.176596475816,305.86100198341325
8.10000000000095,6380048.855693079,3767.2997727411234,2213.1163961557577,6380049.967952979,-1.148712172976458,2213.1163961557577,175.99421861828785,465.0922601079376,248.54609212411407,248.48493291868883,-0.2523229773255623,-176.35502142782008,1913.3517965780945,-1.8004751980727926e-07,0.0003492158628952024,9.808302215798493,1.0843660582597216e-19,0.00034688071700173125,1.8004751979016448e-07,7.292114999989522e-05,0.0,1.6191747942405682e-20,176.35502142782005,332.8713860487526,1.0153523011114578,80360.31876897888,275.71695558504865,-70.13500563098549,0.07120972670445606,49.73972556582256,0.0,0.0,0.0,0.9153874323859442,47135.65885806229,304.7023309426164
8.200000000000895,6380066.389106074,3813.8089840303232,2237.947019204813,6380067.528995176,-1.1740514338341475,2237.947019204813,174.6747782373324,465.0919647253352,248.0669648252326,248.0055810922456,-0.25439489505583235,-175.03976886065075,1930.9214992827594,-1.8401865317231852e-07,0.0003531345839603016,9.808248107171158,5.4197219573180384e-20,0.00035077166773672035,1.8401865315871302e-07,7.292114999989522e-05,0.0,1.6191747942405682e-20,175.03976886065072,332.8024822581198,1.0135647556309055,80185.63614140936,275.6028215506601,-69.61259545576748,0.07139737480054133,49.095275715613866,0.0,0.0,0.0,0.9121181680971712,46697.844176888415,303.55125293937806
8.30000000000084,6380083.790795184,3860.318165495624,2262.72990760275,6380084.95865238,-1.199596910105732,2262.72990760275,173.3597318297873,465.0916636257417,247.59139200545272,247.52979372750787,-0.2564463941857116,-173.72890592282158,1948.3598966641277,-1.880220902824937e-07,0.00035704220613834496,9.808194403359773,5.421610909337428e-20,0.00035465512252547306,1.8802209027221315e-07,7.292114999989522e-05,0.0,1.6191747942405682e-20,173.7289059228216,332.7340796800529,1.011792960543509,80012.56409495685,275.4895411086332,-69.09640015371755,0.07157671521416677,48.45877448281484,0.0,0.0,0.0,0.9088688354839136,46265.64830039214,302.4077128419661
8.400000000000784,6380101.061197098,3906.827316564064,2287.4654146789053,6380102.257361283,-1.2253465655514306,2287.4654146789053,172.04902531179823,465.0913567840293,247.1193313961045,247.05752848494026,-0.2584775948224234,-172.4223785813989,1965.6674249839516,-1.9205751195251233e-07,0.00036094607289857515,9.808141103010865,1.0842985311690312e-19,0.0003585311370246229,1.9205751194518618e-07,7.292114999989522e-05,0.0,1.6191747942405682e-20,172.42237858139893,332.66617690348835,1.0100368155835047,79841.09103922169,275.37711141097907,-68.58632972167645,0.07174792645420462,47.830099131950746,0.0,0.0,0.0,0.9056393030642914,45838.988596904484,301.27165665763874
8.500000000000728,6380118.200743136,3953.336436660204,2312.1538895663857,6380119.425553195,-1.25129837581161,2312.1538895663857,170.74260543280397,465.0910441756092,246.65074133920066,246.58874363682318,-0.26048861507872967,-171.12013363587945,1982.8445151275398,-1.9612460086561767e-07,0.00036483942384980296,9.808088204787637,5.421841630249306e-20,0.0003623997662308176,1.9612460086165578e-07,7.292114999989522e-05,0.0,1.6191747942405682e-20,171.12013363587945,332.59877253515407,1.0082962217702771,79671.2055371954,275.26552964480106,-68.08229589534864,0.07191118332102428,47.20912920907449,0.0,0.0,0.0,0.9024294423312,45417.78401893723,300.1430315126067
8.600000000000673,6380135.209859328,3999.8455252061585,2336.795677262538,6380136.463654153,-1.2774503282453573,2336.795677262538,169.44041976008154,465.09072577642354,246.18558077565785,246.1233980554563,-0.26247957110918074,-169.8221187027538,1999.8915927138985,-2.0022304154818884e-07,0.00036872938045928434,9.808035707369633,5.420813478155718e-20,0.0003662610644902415,2.0022304154751685e-07,7.292114999989522e-05,0.0,1.6191747942405682e-20,169.8221187027538,332.5318651991737,1.0065710813864566,79502.89630267787,275.15479303157736,-67.5842121098077,0.0720666569958002,46.59574648899934,0.0,0.0,0.0,0.8992391277010758,45001.955067194445,299.02178563242745
8.700000000000617,6380152.0889665,4046.3545816216742,2361.3911186882647,6380153.372084977,-1.3038004216945884,2361.3911186882647,168.14241666365035,465.0904015629346,245.72380923378378,245.661451201619,-0.26445057714570525,-168.52828220042466,2016.8090781445565,-2.043525203326735e-07,0.0003726093549391732,9.807983609452565,5.42056662411691e-20,0.000370115085507941,2.0435252033531648e-07,7.292114999989522e-05,0.0,1.6191747942405682e-20,168.52828220042466,332.46545353691334,1.0048612979630236,79336.1521983311,275.0448988268414,-67.09199346145255,0.07221451512779567,45.98983492420605,0.0,0.0,0.0,0.8960682364630925,44591.42375581086,297.907868322817
8.800000000000562,6380168.838480378,4092.863605324163,2385.940550746202,6380170.151261388,-1.3303466663423638,2385.940550746202,166.84854530152077,465.0900715121128,245.2653868180228,245.2028631132958,-0.26640174553802787,-167.23857333447188,2033.5973867318721,-2.0851272533528425e-07,0.00037647959012455137,9.80793190974795,1.0843965065075474e-19,0.0003739618823569825,2.085127253412348e-07,7.292114999989522e-05,0.0,1.6191747942405682e-20,167.23857333447188,332.39953620651306,1.003166776255911,79170.96223297859,274.93584431934676,-66.60555667042414,0.0723549219201647,45.39128059471476,0.0,0.0,0.0,0.8929166487302702,44186.113578148266,296.80122995087197
8.900000000000507,6380185.458811612,4139.372595728766,2410.4443063777767,6380186.801594041,-1.3570870834801252,2410.4443063777767,165.55875560527988,465.0897356014307,244.8102741979562,244.7475943946552,-0.26833318678132495,-165.95294208325316,2050.256928728557,-2.1270334641942563e-07,0.0003803470355133746,9.807880606982982,1.0842145283248484e-19,0.00037780150748742636,2.127033464288992e-07,7.292114999989522e-05,0.0,1.6191747942405682e-20,165.9529420832532,332.33411188280667,1.001487422233171,79007.31555990837,274.82762683087316,-66.12482004466352,0.07248803821082189,44.79997165971759,0.0,0.0,0.0,0.8897842473905698,43785.949473928726,295.70182192668756
