time,eiPosition_m_X,eiPosition_m_Y,eiPosition_m_Z,eiVelocity_m_s_X,eiVelocity_m_s_Y,eiVelocity_m_s_Z,feVelocity_m_s_X,feVelocity_m_s_Y,feVelocity_m_s_Z,altitudeMsl_m,longitude_rad,latitude_rad,localGravity_m_s2,eulerAngle_rad_Yaw,eulerAngle_rad_Pitch,eulerAngle_rad_Roll,bodyAngularRateWrtEi_rad_s_Roll,bodyAngularRateWrtEi_rad_s_Pitch,bodyAngularRateWrtEi_rad_s_Yaw,speedOfSound_m_s,airDensity_kg_m3,ambientPressure_Pa,ambientTemperature_K,aero_bodyForce_N_X,aero_bodyForce_N_Y,aero_bodyForce_N_Z,aero_bodyMoment_Nm_L,aero_bodyMoment_Nm_M,aero_bodyMoment_Nm_N,mach,dynamicPressure_Pa
0.0,6378137.000012401,0.0,0.0,304.8,465.10108489884004,304.8,304.8,0.0,-304.8,0.0,0.0,0.0,9.814197353257681,0.0,0.0,0.0,7.292114999999297e-05,0.0,0.0,340.29396092964004,1.225000214434414,101326.04347656727,288.15,-146.79487988857724,0.0,146.79487988857724,0.0,0.0,0.0,1.26670568186,113806.2440076365
0.1,6378167.38086096,46.5101084920176,30.42989251781232,302.8198909121184,465.1010849598,303.7996999734768,303.7982454791544,-0.0044235579265418405,-302.824741635564,30.38111795927832,-3.4733589650623463e-11,4.803100654266591e-06,9.81410370599511,0.0,4.803100654266591e-06,3.473401570940488e-11,7.292114999999297e-05,0.0,0.0,340.177335009984,1.2214312882779526,100961.60037737303,287.95252367722225,-145.17459598092844,0.002113859104618565,144.7080023065234,0.0,0.0,0.0,1.26095343821,112369.35674042536
0.2,6378197.564442961,93.0202169925696,60.7603068339312,300.8539682998008,465.10108503904803,302.81040525905524,302.8075198546152,-0.00880406831945832,-300.86365541926324,60.565420725964806,-1.3848394301517983e-10,9.590451670083912e-06,9.814010666700298,0.0,9.590451670083912e-06,1.3848418210870673e-10,7.292114999999297e-05,0.0,0.0,340.061426110992,1.2178933989245184,100600.5734920436,287.7563285161111,-143.58120177711723,0.004174574816837918,142.6567498850596,0.0,0.0,0.0,1.25525026357,110956.99010823088
0.3,6378227.552130001,139.53032549525523,90.99233433571919,298.9019907120696,465.101084981136,301.83193365887763,301.8276405828816,-0.013142096351863442,-298.91650015645683,90.5543134038888,-3.105794051329191e-10,1.4362229481843575e-05,9.813918231073355,0.0,1.4362229481843575e-05,3.1057938101421417e-10,7.292114999999297e-05,0.0,0.0,339.94622954788804,1.2143862157019085,100242.92318147015,287.5614053477778,-142.01410469217723,0.006183494929040437,140.6403325484106,0.0,0.0,0.0,1.24959539635,109568.60289463055
0.4,6378257.34529368,186.0404339787384,121.127048392104,296.9637220362144,465.101084627568,300.8641069789392,300.8584291331448,-0.017438194603845842,-296.983039983456,120.34917725493601,-5.503572499855779e-10,1.911860267770481e-05,9.813826394783941,0.0,1.911860267770481e-05,5.503572717760136e-10,7.292114999999297e-05,0.0,0.0,339.83174071514406,1.2109094136534704,99888.61050990489,287.3677451577778,-140.47272861379628,0.00814192747037721,138.65798214208206,0.0,0.0,0.0,1.24398809256,108203.66892239107
0.5,6378286.945336081,232.5505424061384,151.1655047479896,295.03893135148803,465.101083835088,299.9067509175312,299.8997108757312,-0.0216929034071976,-295.0630442224392,149.9513702057784,-8.571636804991248e-10,2.385973893413666e-05,9.813735153654159,0.0,2.385973893413666e-05,8.571640962190994e-10,7.292114999999297e-05,0.0,0.0,339.71795508648,1.2074626734041045,99537.59723107572,287.175339085,-138.9565133569645,0.010051142085027265,136.70895170290748,0.0,0.0,0.0,1.23842762527,106861.6765497682
0.6,6378316.35353736,279.060650725944,181.10874190818242,293.1273927840216,465.10108245434407,298.959694958256,298.9513149726792,-0.0259067511789264,-293.1562872378912,179.362227384048,-1.2303548206461544e-09,2.8585802223635538e-05,9.813644503506145,0.0,2.8585802223635538e-05,1.230354488899206e-09,7.292114999999297e-05,0.0,0.0,339.604868214864,1.2040456810520337,99189.84576951305,286.9841784166667,-137.46491413285682,0.011912371355005264,134.792514754005,0.0,0.0,0.0,1.23291328418,105542.12819074663
0.7,6378345.571238641,325.570758872928,210.95778151107604,291.2288853714936,465.101080345128,298.0227722660904,298.0130742753264,-0.03008025474288048,-291.2625482991384,208.58306158315682,-1.6692917549234457e-09,3.329695525015762e-05,9.813554440314482,0.0,3.329695525015762e-05,1.6692912924984605e-09,7.292114999999297e-05,0.0,0.0,339.49247572641605,1.2006581280348063,98845.31920905836,286.79425458555556,-135.9974010444043,0.013726812070867183,132.90796463176147,0.0,0.0,0.0,1.22744437515,104244.53985012238
0.8,6378374.599750561,372.080866766928,240.7136286913632,289.343192926884,465.101077367232,297.095819587716,297.0848252237256,-0.034213919643144006,-289.38161144623683,237.61516377558002,-2.173345488886622e-09,3.799335591206956e-05,9.813464960053775,0.0,3.799335591206956e-05,2.173345378215294e-09,7.292114999999297e-05,0.0,0.0,339.380773320408,1.1972997110107577,98503.98127323348,286.6055591666667,-134.55345859610046,0.015495626452747137,131.05461383372315,0.0,0.0,0.0,1.22202021979,102968.44067917432
0.9,6378403.44029232,418.590974313456,270.3772724329944,287.470103911068,465.101073389592,296.1786771533736,296.1664077478896,-0.038308240444783204,-287.5132653628704,266.4598035603024,-2.7418959569985363e-09,4.2675162679333296e-05,9.813376058759637,0.0,4.2675162679333296e-05,2.7418954710814192e-09,7.292114999999297e-05,0.0,0.0,339.26975677536,1.1939701317559346,98165.79631662197,286.4180838744445,-133.13258522738255,0.017219943322419298,129.2317933953999,0.0,0.0,0.0,1.21664015506,101713.37254665686
1.0,6378432.09417456,465.1010814058321,299.9496859139064,285.6094113075432,465.101068278096,295.27118858389923,295.25766517574164,-0.04236370102706401,-285.6573032483352,295.1182296386112,-3.374328054300334e-09,4.7342529040566585e-05,9.813287732620106,0.0,4.7342529040566585e-05,3.374327979565335e-09,7.292114999999297e-05,0.0,0.0,339.159421936848,1.1906690970249434,97830.72930475954,286.23182056055555,-131.73429285713382,0.01890085923052174,127.43885228708632,0.0,0.0,0.0,1.21130353282,100478.88962798736
1.1,6378460.562586,511.6111879251841,329.431826838864,283.7609125017288,465.10106190472806,294.373200799284,294.3584441410656,-0.046380774864782405,-283.8135226995816,323.591670256056,-4.070036596844877e-09,5.1995605605117506e-05,9.813199977762297,0.0,5.1995605605117506e-05,4.070036830404838e-09,7.292114999999297e-05,0.0,0.0,339.04976471750405,1.1873963184736431,97498.74580551556,286.0467612088889,-130.35810645443019,0.02053943953965391,125.67515683826184,0.0,0.0,0.0,1.20600971945,99264.5580059248
1.2,6378488.84674584,558.121293740448,358.82463776712007,281.92440916239843,465.10105414452005,293.4845639305872,293.4685944948096,-0.0503599253039256,-281.98172559386643,351.881333622768,-4.82842334543739e-09,5.663454362740782e-05,9.813112790496238,0.0,5.663454362740782e-05,4.828423306883067e-09,7.292114999999297e-05,0.0,0.0,338.94078110311204,1.184151512535454,97169.81197329254,285.862897935,-129.0035636168486,0.022136719465527387,123.94009017844931,0.0,0.0,0.0,1.20075809551,98069.95529327333
1.3,6378516.947873279,604.6313987053201,388.129046426664,280.099707130428,465.101044875552,292.6051312355064,292.5879692212656,-0.054301605825324,-280.1617179735384,379.98840835389603,-5.648896013485588e-09,6.125948764234167e-05,9.81302616710151,0.0,6.125948764234167e-05,5.648895892272473e-09,7.292114999999297e-05,0.0,0.0,338.832467140416,1.180934400318283,96843.89453657734,285.6802229816667,-127.67021416879282,0.02369370507848297,122.23305170164909,0.0,0.0,0.0,1.19554805533,96894.67026085264
1.4,6378544.86709608,651.141502661304,417.34596602572805,278.2866163087632,465.10103397590404,291.73475901516724,291.7164243527256,-0.058206260300988,-278.3533099396632,407.914063866456,-6.530870251247058e-09,6.587058553760072e-05,9.81294010397964,0.0,6.587058553760072e-05,6.530870116542547e-09,7.292114999999297e-05,0.0,0.0,338.724818946264,1.1777447075169074,96520.96078501342,285.49872871722226,-126.35761977627739,0.025211374266352747,120.5534565521246,0.0,0.0,0.0,1.19037900668,95738.30248797212
1.5,6378572.605572481,697.65160544076,446.47629555057597,276.48495055421523,465.10102133280003,290.8733065348752,290.8538188929768,-0.0620743232446536,-276.5563155432096,435.65945079264,-7.473768653731742e-09,7.046797666882454e-05,9.81285459753219,0.0,7.046797666882454e-05,7.473768407710131e-09,7.292114999999297e-05,0.0,0.0,338.61783270151204,1.1745821642944398,96200.97855886722,285.31840763222226,-125.06535357016323,0.02669067766089118,118.9007351244223,0.0,0.0,0.0,1.18525037043,94600.4620181717
1.6,6378600.1644607205,744.1617068669041,475.52092006116004,274.69452757779123,465.10100683041605,290.020635946392,290.0000147377488,-0.0659062200504408,-274.770552683856,463.225701360816,-8.477019768569532e-09,7.505180351177784e-05,9.812769644252196,0.0,7.505180351177784e-05,8.477019946575662e-09,7.292114999999297e-05,0.0,0.0,338.511504644928,1.17144650520502,95883.91623514294,285.13925233833334,-123.79299979029989,0.028132539529376686,117.27433258785669,0.0,0.0,0.0,1.18016158017,93480.76903411499
1.7,6378627.5448276,790.671806741616,504.48071096544004,272.9151688419768,465.100990355976,289.1766122132592,289.1548765988184,-0.0697023672275496,-272.9958430106256,490.61392976433604,-9.540060080205276e-09,7.962220505976983e-05,9.812685240693673,0.0,7.962220505976983e-05,9.540060525403864e-09,7.292114999999297e-05,0.0,0.0,338.405831079288,1.168337469106201,95569.74271704874,284.9612555633334,-122.54015343722986,0.02953785863213976,115.67370842345056,0.0,0.0,0.0,1.17511208198,92378.85354014311
1.8,6378654.74783136,837.181904866776,533.356526318088,271.146699466248,465.100971805848,288.3411030376464,288.3182719345152,-0.0734631726267264,-271.2320118231312,517.825232573016,-1.0662332025756136e-08,8.417931410425681e-05,9.812601383441153,0.0,8.417931410425681e-05,1.0662332410234717e-08,7.292114999999297e-05,0.0,0.0,338.300808371376,1.1652547990455653,95258.42742346319,284.7844101511111,-121.30641993946156,0.030907509049087057,114.0983359791127,0.0,0.0,0.0,1.17010133401,91294.3550567987
1.9,6378681.7745388,883.692001032072,562.149211070424,269.3889481331928,465.100951073352,287.5139787908568,287.4900708753504,-0.07718903565850081,-269.47888798074484,544.860689037936,-1.184328399492431e-08,8.872326567752331e-05,9.812518069201108,0.0,8.872326567752331e-05,1.1843284206545482e-08,7.292114999999297e-05,0.0,0.0,338.19643293674403,1.1621982421885722,94949.94027600766,284.6087090577778,-120.09141483052844,0.03224234097379791,112.54770204394322,0.0,0.0,0.0,1.16512880627,90226.92232971381
2.0,6378708.625986241,930.202095005856,590.85959733864,267.6417469964616,465.100928051808,286.695112445052,286.67014615878963,-0.08088034750624079,-267.73630381176724,571.72136148768,-1.3082370330066845e-08,9.325419219211457e-05,9.81243529461909,0.0,9.325419219211457e-05,1.3082370728246262e-08,7.292114999999297e-05,0.0,0.0,338.092701258,1.1591675497360978,94644.25169042769,284.4341453505556,-118.89476344161693,0.03354318147964155,111.02130643187984,0.0,0.0,0.0,1.16019398027,89176.21304376489
2.1,6378735.303240481,976.7121865625761,619.488504668976,265.9049315948136,465.10090264368,285.8843795058912,285.858373060368,-0.0845374913325024,-266.0040950244264,598.408295645328,-1.4379053310373212e-08,9.777222363893159e-05,9.812353056462584,0.0,9.777222363893159e-05,1.4379052870410613e-08,7.292114999999297e-05,0.0,0.0,337.989609869568,1.1561624768368193,94341.33256558067,284.260712205,-117.71610059997688,0.03481083525733669,109.5186615858064,0.0,0.0,0.0,1.15529634879,88141.8935530281
2.2,6378761.80730736,1023.222275452296,648.03674028156,264.1783407652488,465.10087474838406,285.0816579506568,285.05462933212084,-0.0881608424783688,-264.2821006221432,624.922520969832,-1.5732797199227884e-08,0.00010227748914650813,9.81227135156007,0.0,0.00010227748914650813,1.573279748455431e-08,7.292114999999297e-05,0.0,0.0,337.887155363784,1.1531827825047551,94041.15427338098,284.08840290222224,-116.55507034290106,0.03604608532484327,108.03929219367109,0.0,0.0,0.0,1.15043541556,87123.63861552264
2.3,6378788.1392232,1069.7323614250802,676.505099314248,262.46181656223604,465.10084427143204,284.2868281639416,284.25879513888003,-0.091750768657608,-262.5701628212352,651.2650509852,-1.7143077173210093e-08,0.00010677011139316464,9.812190176740053,0.0,0.00010677011139316464,1.7143077257509495e-08,7.292114999999297e-05,0.0,0.0,337.78533438175197,1.1502282295419577,93743.68864778745,283.9172108272222,-115.41132563793194,0.03724969371207717,106.58273481617046,0.0,0.0,0.0,1.14561069501,86121.13113944538
2.4,6378814.29999384,1116.2424442188,704.894365063416,260.7552041754168,465.100811118336,283.4997728785176,283.47075299731443,-0.09530763014442961,-260.8681269707544,677.4368835944401,-1.860937039309407e-08,0.00011125021695593807,9.812109528952977,0.0,0.00011125021695593807,1.8609370593108802e-08,7.292114999999297e-05,0.0,0.0,337.68414362248797,1.147298584461208,93448.9079776214,283.74712946777777,-114.28452811596837,0.038422402120270115,105.14853753222613,0.0,0.0,0.0,1.14082171203,85134.06193993914
2.5,6378840.29059464,1162.7525235560881,733.205309206464,259.0583518531008,465.10077519765605,282.7203771171192,282.6903877186272,-0.09883177995727921,-259.175841475068,703.43900138436,-2.0131161956469023e-08,0.00011571792735180679,9.812029405088355,0.0,0.00011571792735180679,2.0131161496749296e-08,7.292114999999297e-05,0.0,0.0,337.583579839872,1.1443936174190141,93156.78499555418,283.5781524111111,-113.17434781104473,0.039564932558376745,103.73625959113382,0.0,0.0,0.0,1.13606800168,84162.1295016067
2.6,6378866.112000961,1209.2625991626242,761.4386920426081,257.37111082698004,465.10073642099997,281.9485281345312,281.91758635155844,-0.1023235640334888,-257.49315771826804,729.272371939512,-2.1707939937111945e-08,0.00012017336236777883,9.811949802218606,0.0,0.00012017336236777883,2.1707939462905983e-08,7.292114999999297e-05,0.0,0.0,337.483639827408,1.1415131021279985,92867.29286948858,283.41027334166665,-112.08046291256483,0.04067798795506092,102.34547108295013,0.0,0.0,0.0,1.13134910898,83205.0397501218
2.7,6378891.765127201,1255.772670742752,789.595262703192,255.69333523836724,465.10069469692803,281.18411536363925,281.152238125692,-0.1057833214033176,-255.8199299919336,754.9379481256561,-2.3339199353848902e-08,0.00012461664348836942,9.81187071732473,0.0,0.00012461664348836942,2.3339199365019007e-08,7.292114999999297e-05,0.0,0.0,337.38432043956,1.138656815800206,92580.40519346182,283.2434860411111,-111.00255952242914,0.04176225275053166,100.97575261377239,0.0,0.0,0.0,1.12666458865,82262.5058334165
2.8,6378917.2509792,1302.2827380008162,817.6757593711441,254.024882068092,465.100649943144,280.4270303620896,280.3942344005544,-0.1092113843557632,-254.15601542197922,780.436668373224,-2.5024441177951376e-08,0.00012904788537106393,9.811792147540153,0.0,0.00012904788537106393,2.5024441348819108e-08,7.292114999999297e-05,0.0,0.0,337.28561857651204,1.135824539069796,92296.09597950574,283.07778438444444,-109.94033142283755,0.042818393465915434,99.62669499970102,0.0,0.0,0.0,1.12201400491,81334.24790717755
2.9,6378942.5704104,1348.792800628968,845.6809094882401,252.36561106609201,465.10060207430405,279.6771667589496,279.6434686110552,-0.1126080786004104,-252.501273902208,805.7694569729761,-2.6763170349045963e-08,0.00013346720315366228,9.811714089967836,0.0,0.00013346720315366228,2.6763170727084278e-08,7.292114999999297e-05,0.0,0.0,337.18753118721605,1.1330160559311986,92014.33964950718,282.91316233944445,-108.89347985209902,0.04384705925332333,98.29789896347081,0.0,0.0,0.0,1.11739693123,80419.99293279169
3.0,6378967.72439616,1395.302858310216,873.611429956272,250.71538468618562,465.10055101116006,278.9344202068536,278.8998362187192,-0.1159737234244032,-250.85556802634161,830.9372243381281,-2.8554897759379215e-08,0.00013787471140708156,9.81163654180221,0.0,0.00013787471140708156,2.8554897878061604e-08,7.292114999999297e-05,0.0,0.0,337.090055260248,1.130231153661807,91735.11102611077,282.74961396388886,-107.86171328622392,0.04484888242647934,96.98897484709575,0.0,0.0,0.0,1.11281295012,79519.47447576982
3.1,6378992.71378992,1441.812910721472,901.4680273504081,249.07406801962563,465.100496668368,278.1986883301872,278.163234662004,-0.119308631847588,-249.21876302401202,855.940867275624,-3.0399138269901865e-08,0.00014227052200675217,9.811559500237726,0.0,0.00014227052200675217,3.039913814580895e-08,7.292114999999297e-05,0.0,0.0,336.993187839048,1.1274696227755925,91458.38532505801,282.58713340500003,-106.84474723119203,0.045824478971598644,95.69954233296559,0.0,0.0,0.0,1.10826165291,78632.43251518351
3.2,6379017.539506081,1488.322957530504,929.251398095976,247.44152873292003,465.10043897582403,277.46987067997685,277.433563309056,-0.12261311076698882,-247.59072669522962,880.781269229976,-3.2295411701790376e-08,0.000146654743330814,9.811482962560296,0.0,0.000146654743330814,3.229541174263108e-08,7.292114999999297e-05,0.0,0.0,336.896926009728,1.1247312569406454,91184.13814800538,282.4257148961111,-105.84230401788959,0.046774449042875026,94.42923017250438,0.0,0.0,0.0,1.10374263959,77758.61326076242
3.3,6379042.20239808,1534.8329984020322,956.9622286726801,245.81763700687202,465.100377851232,276.7478686872552,276.710723411076,-0.12588746110372082,-245.9713293539952,905.4593005728241,-3.424324382884116e-08,0.00015102748795230563,9.811406926086327,0.0,0.00015102748795230563,3.4243243653784636e-08,7.292114999999297e-05,0.0,0.0,336.80126690412004,1.122015852943098,90912.34547438454,282.2653527566667,-104.85411260861159,0.04769937743777333,93.17767592550447,0.0,0.0,0.0,1.09925551855,76897.76897190693
3.4,6379066.7033193605,1581.3430329855362,984.6011957944321,244.2022654759248,465.10031322144,276.03258561703683,275.99461805873284,-0.1291319779425888,-244.360443762768,929.9758188193441,-3.6242163401335146e-08,0.00015538885884443118,9.811331388101781,0.0,0.00015538885884443118,3.624216354584841e-08,7.292114999999297e-05,0.0,0.0,336.70620769368,1.1193232106046633,90642.98365517797,282.10604139055556,-103.87990840623311,0.048599834058443515,91.94452570880229,0.0,0.0,0.0,1.09479990644,76049.65778484047
3.5,6379091.043123361,1627.853060927448,1012.168966592232,242.5952891714688,465.10024501329605,275.3239265262552,275.28515213552885,-0.1323469506671136,-242.75794508095439,954.3316688873281,-3.8291706114392873e-08,0.0001597389656585481,9.81125634604502,0.0,0.0001597389656585481,3.8291705675268024e-08,7.292114999999297e-05,0.0,0.0,336.611745595584,1.116653132736252,90376.0294023853,281.9477752827778,-102.9194330727219,0.049476374355208304,90.7294339525155,0.0,0.0,0.0,1.09037542796,75214.04354742247
3.6,6379115.22266352,1674.363081865056,1039.6661987909522,240.99658546545362,465.100173159744,274.621798221396,274.5822322797,-0.1355326630927296,-241.1637108036432,978.5276833135921,-4.0391408654830966e-08,0.00016407791114410932,9.811181797293486,0.0,0.00016407791114410932,4.0391408799693293e-08,7.292114999999297e-05,0.0,0.0,336.51787786968004,1.1140054250709723,90111.45978710812,281.79054899944447,-101.97243435031977,0.050329539756261456,89.53206316295305,0.0,0.0,0.0,1.08598171565,74390.69565587681
3.7,6379139.242701841,1720.8730954326002,1067.0935408800242,239.4060340149144,465.10009758458403,273.9261092161296,273.8857668397152,-0.138689393594496,-239.5776207103992,1002.5646825161041,-4.254081564652537e-08,0.0001684057980252605,9.811107739316062,0.0,0.0001684057980252605,4.2540816091584324e-08,7.292114999999297e-05,0.0,0.0,336.424601812392,1.1113798962229005,89849.2522280587,281.6343571855556,-101.03866589295508,0.0511598580826868,88.35208369620051,0.0,0.0,0.0,1.0816184098,73579.38890061738
3.8,6379163.10412224,1767.3831012551761,1094.45163228108,237.823516710156,465.10001822380804,273.2367696932112,273.1956658364808,-0.14181741523297922,-237.99955680948483,1026.443474992104,-4.473947468983651e-08,0.00017272272520509798,9.811034169612148,0.0,0.00017272272520509798,4.473947505513393e-08,7.292114999999297e-05,0.0,0.0,336.33191476281604,1.1087763576355416,89589.38448725073,281.479194565,-100.11788709854481,0.051967843947908515,87.18917353659869,0.0,0.0,0.0,1.07728515817,72779.9033120736
3.9,6379186.80768672,1813.893098948736,1121.741103524736,236.248917622632,465.099935007312,272.5536914639424,272.5118409215832,-0.144916995874344,-236.42940329031123,1050.1648575558481,-4.6986937353305435e-08,0.00017702879597238138,9.810961085711623,0.0,0.00017702879597238138,4.698693744179363e-08,7.292114999999297e-05,0.0,0.0,336.23981410272,1.106194623499371,89331.834663775,281.32505593555555,-99.2098629515274,0.05275399914602095,86.04301808500834,0.0,0.0,0.0,1.0729816159,71992.02401896479
4.0,6379210.35415728,1860.403088126184,1148.962576396896,234.6821229549576,465.099847874136,271.87678793129044,271.8342053422368,-0.1479883983104448,-234.8670464704032,1073.729615536728,-4.928275917400281e-08,0.00018132410842281778,9.8108884851444,0.0,0.00018132410842281778,4.9282759170337616e-08,7.292114999999297e-05,0.0,0.0,336.1482972474,1.1036345107466783,89076.58118518077,281.1719361727778,-98.3143638653958,0.05351881302454953,84.91330995063329,0.0,0.0,0.0,1.06870744532,71215.54110274438
4.1,6379233.744356881,1906.9130683912801,1176.116664097248,233.12302099214162,465.09975676027204,271.2059740536168,271.1626739040984,-0.15103188037251603,-233.3123747463264,1097.138523017016,-5.162650064939959e-08,0.00018560875908969535,9.81081636556232,0.0,0.00018560875908969535,5.162650024902105e-08,7.292114999999297e-05,0.0,0.0,336.05736165787204,1.101095838953647,88823.60280412433,281.0198302238889,-97.4311655350165,0.054262762846536014,83.79974875351948,0.0,0.0,0.0,1.06446231581,70450.24946353496
4.2,6379256.979017041,1953.423039344736,1203.2039714099521,231.57150205403764,465.099661598664,270.5411663077968,270.4971629343864,-0.1540476950415096,-231.7652785488816,1120.392343002552,-5.401772426140607e-08,0.0001898828442383944,9.81074472455629,0.0,0.0001898828442383944,5.401772469738932e-08,7.292114999999297e-05,0.0,0.0,335.96700481953604,1.0985784303300463,88572.87859022927,280.8687331077778,-96.56004879072782,0.05498631414016873,82.70204092838843,0.0,0.0,0.0,1.0602459036,69695.94868750013
4.3,6379280.05889976,1999.9330005750721,1230.225094828608,230.027458449624,465.099562334448,269.8822826563008,269.8375902474384,-0.1570360905605664,-230.2256502946416,1143.4918276574401,-5.645600042846829e-08,0.0001941464577047968,9.810673559808667,0.0,0.0001941464577047968,5.645600047087978e-08,7.292114999999297e-05,0.0,0.0,335.877224269608,1.096082109647078,88324.3879243409,280.7186399161111,-95.70079945866578,0.05568992103551294,81.61989954137029,0.0,0.0,0.0,1.0560578917,68952.44291804652
4.4,6379302.98476704,2046.442951670808,1257.1806227238962,228.4907844325032,465.09945890361604,269.2292425109232,269.1838751120976,-0.15999731053651442,-228.69338434266962,1166.437718471688,-5.894089956955584e-08,0.00019839969235438136,9.810602869032305,0.0,0.00019839969235438136,5.89408993885652e-08,7.292114999999297e-05,0.0,0.0,335.788017572736,1.0936067042064543,88078.11049517451,280.5695458088889,-94.85320822509333,0.05637402659278958,80.55304410629257,0.0,0.0,0.0,1.05189796967,68219.54073181393
4.5,6379325.757319921,2092.952892214368,1284.07113547464,226.9613761557912,465.09935124825597,268.58196670260725,268.5359382166608,-0.1629315940456344,-227.1683769509328,1189.2307464745682,-6.147199706334047e-08,0.00020264264042954447,9.810532649940079,0.0,0.00020264264042954447,6.147199705932623e-08,7.292114999999297e-05,0.0,0.0,335.69938232709603,1.0911520437785514,87834.02628926066,280.4214460144445,-94.01707050295374,0.057039063116864554,79.5012004098649,0.0,0.0,0.0,1.04776583354,67497.05501897472
4.6,6379348.37728992,2139.4628217790323,1310.8972056141122,225.43913163157922,465.09923931350403,267.94037744730724,267.8937016383984,-0.1658391757333296,-225.65052623363042,1211.871632414448,-6.404887324976689e-08,0.00020687539515181202,9.810462900275354,0.0,0.00020687539515181202,6.404887281308551e-08,7.292114999999297e-05,0.0,0.0,335.611316173536,1.0887179605714874,87592.11558950871,280.2743358277778,-93.19218630776517,0.057685452464176015,78.46410034309136,0.0,0.0,0.0,1.04366118565,66784.8028678423
4.7,6379370.84537808,2185.972739931984,1337.659397964144,223.92395068917602,465.0991230444961,267.3043983161184,267.2570888127696,-0.1687202859098328,-224.1397321185216,1234.361086941672,-6.667110946065036e-08,0.0002110980417735367,9.810393617903443,0.0,0.0002110980417735367,6.667110963151809e-08,7.292114999999297e-05,0.0,0.0,335.52381677728806,1.086304289184738,87352.35896754598,280.1282106111111,-92.37836013262563,0.058313606335872153,77.44148173535193,0.0,0.0,0.0,1.0395837345,66082.60545091623
4.8,6379393.16228544,2232.482646240408,1364.358269775336,222.41573493335042,465.09900238027205,266.6739542054064,266.62602450141844,-0.1715751506480472,-222.6358963100448,1256.699810782296,-6.933829397229676e-08,0.00021531067229625938,9.810324800598213,0.0,0.00021531067229625938,6.93382940801581e-08,7.292114999999297e-05,0.0,0.0,335.436881843208,1.0839108665679071,87114.73728036611,279.9830657905556,-91.57540082766623,0.0589239265682801,76.43308819560092,0.0,0.0,0.0,1.03553319467,65390.28791667277
4.9,6379415.32874352,2278.9925402623444,1390.994370845928,220.91438770806002,465.098877275112,266.048971305108,266.00043476382723,-0.1744039918728528,-221.13892224756,1278.888494927064,-7.205001605340613e-08,0.00021951337194091677,9.810256446225013,0.0,0.00021951337194091677,7.205001624277438e-08,7.292114999999297e-05,0.0,0.0,335.350509112728,1.0815375319640337,86879.23166266829,279.83889685555556,-90.7831214866215,0.05951680540424742,75.43866895934818,0.0,0.0,0.0,1.03150928663,64707.679282791876
5.0,6379437.3453924,2325.502421546688,1417.56824365896,219.41981405591284,465.09874767110404,265.4293770734328,265.38024692866566,-0.1772070274534608,-219.64871506846802,1300.9278207929522,-7.480586993307885e-08,0.00022370622692153796,9.810188552649185,0.0,0.00022370622692153796,7.480586965749137e-08,7.292114999999297e-05,0.0,0.0,335.26469634861604,1.0791841268941313,86645.82352350552,279.69569935833334,-90.00133933339974,0.06009262576537328,74.45797873786434,0.0,0.0,0.0,1.02751173668,64034.6123360875
5.1,6379459.21293312,2372.012289645384,1444.0804235041921,217.93192068250562,465.098613522528,264.815100205164,264.76538956513923,-0.1799844712905864,-218.16518157102482,1322.818460390808,-7.760545083246037e-08,0.00022788932282906944,9.810121117827533,0.0,0.00022788932282906944,7.760545125378286e-08,7.292114999999297e-05,0.0,0.0,335.179441353264,1.0768504951004956,86414.49454101794,279.55346891222223,-89.22987561399123,0.060651761509115686,73.49077757227923,0.0,0.0,0.0,1.02354027677,63370.92353100144
5.2,6379480.93200576,2418.522144098184,1470.53143860612,216.45061591984802,465.09847477452,264.20607060788404,264.1557924561672,-0.18273653339965923,-216.6882301780704,1344.561076508232,-8.044836091771033e-08,0.00023206274309723075,9.810054139686398,0.0,0.00023206274309723075,8.044836128964e-08,7.292114999999297e-05,0.0,0.0,335.094741956496,1.0745364825054755,86185.22665860225,279.41220119166667,-88.46855549104536,0.06119457768145041,72.53683069524205,0.0,0.0,0.0,1.01959464443,62716.452894321636
5.3,6379502.503280881,2465.03198444484,1496.921810236752,214.97580969192,465.098331378312,263.60221937362803,263.55138657156,-0.1854634199967768,-215.21777090228161,1366.156322831496,-8.333420334685899e-08,0.00023622656988216048,9.809987616213098,0.0,0.00023622656988216048,8.33342032927538e-08,7.292114999999297e-05,0.0,0.0,335.0105960247121,1.072241937190857,85958.002077251,279.27189192888886,-87.7172079411168,0.06172143075707502,71.59590839480589,0.0,0.0,0.0,1.01567458263,62071.0439322944
5.4,6379523.927368081,2511.54181021596,1523.25205283448,213.5074134793152,465.098183291232,263.00347875267124,262.9521040427208,-0.18816533357764803,-213.75371531294883,1387.6048441436642,-8.62625842542466e-08,0.00024038088615157527,9.809921545394955,0.0,0.00024038088615157527,8.626258399995213e-08,7.292114999999297e-05,0.0,0.0,334.92700144869605,1.069966709341171,85732.80325507368,279.1325369155556,-86.97566565680447,0.06223266887783352,70.66778588009143,0.0,0.0,0.0,1.01177983969,61434.54354013082
5.5,6379545.2049684,2558.0516209452003,1549.5226741199042,212.04534028723683,465.098030461464,262.4097821300592,262.3578781373472,-0.19084247299806,-212.2959764994,1408.907276452608,-8.923311374274302e-08,0.00024452576848179604,9.80985592521931,0.0,0.00024452576848179604,8.923311330082565e-08,7.292114999999297e-05,0.0,0.0,334.843956149712,1.0677106512282337,85509.61290011481,278.99413200055557,-86.24376495022528,0.06272863207957566,69.75224315540227,0.0,0.0,0.0,1.00791016915,60806.80191438582
5.6,6379566.33666096,2604.5614161509757,1575.7341752086081,210.5895046119696,465.097872843288,261.8210640000048,261.7686432335232,-0.19349503354885922,-210.84446904387363,1430.0642471556002,-9.224540389930843e-08,0.0002486613009523142,9.809790753825917,0.0,0.0002486613009523142,9.224540418030643e-08,7.292114999999297e-05,0.0,0.0,334.761458073408,1.065473617144145,85288.41396652332,278.8566730877778,-85.52134565960138,0.06320965251189911,68.84906489478502,0.0,0.0,0.0,1.00406532968,60187.6724672525
5.7,6379587.323085841,2651.0711953517043,1601.887050720888,209.1398224100952,465.09771039098405,261.2372599421136,261.18433479777366,-0.19612320703276082,-209.399108985552,1451.076375176472,-9.529907276352296e-08,0.00025278756103480453,9.80972602920214,0.0,0.00025278756103480453,9.529907266369012e-08,7.292114999999297e-05,0.0,0.0,334.67950520810405,1.0632554634115987,85069.18964976478,278.7201561377778,-84.80825106074063,0.06367605465388816,67.95804032326183,0.0,0.0,0.0,1.00024508498,59577.01174516577
5.8,6379608.16482216,2697.5809580658,1627.981788885384,207.6962110670976,465.09754306492806,260.658306598524,260.6048893609848,-0.1987271818353672,-207.95981379069121,1471.94427111192,-9.839373738292157e-08,0.0002569046242601358,9.809661749518252,0.0,0.0002569046242601358,9.839373776218162e-08,7.292114999999297e-05,0.0,0.0,334.598095554312,1.0610560483065734,84851.92338422715,278.58457716444445,-84.10432777762722,0.06412815552051125,67.07896309806289,0.0,0.0,0.0,0.996449203641,58974.6793497998
5.9,6379628.86251,2744.090703799488,1654.018871651856,206.2585893684072,465.09737081940006,260.0841416504376,260.0302444961544,-0.2013071429980152,-206.5265023239696,1492.66853739,-1.0152902175005341e-07,0.0002610125665606024,9.809597912883552,0.0,0.0002610125665606024,1.0152902141931353e-07,7.292114999999297e-05,0.0,0.0,334.517227146072,1.058875232042872,84636.59883699652,278.44993223555554,-83.40942569746082,0.06456626486279092,66.2116311965312,0.0,0.0,0.0,0.992677459123,58380.537857150484
6.0,6379649.41672848,2790.6004320650877,1679.998774785672,204.8268774683112,465.097193614776,259.5147037976976,259.460338794312,-0.2038632722869656,-205.09909481983684,1513.24976837376,-1.0470454886472434e-07,0.0002651114678164336,9.809534517468332,0.0,0.0002651114678164336,1.0470454846085515e-07,7.292114999999297e-05,0.0,0.0,334.436898047904,1.056712876756661,84423.19990594176,278.31621747111114,-82.72339788969876,0.06499068536352554,65.35584680625155,0.0,0.0,0.0,0.988929629593,57794.452745714996
6.1,6379669.8280872,2837.110142356632,1705.92196797144,203.400996863436,465.09701140533605,258.9499327353192,258.8951118459264,-0.20639574825924004,-203.6775128499,1533.688550538024,-1.0791994668783862e-07,0.0002692013968878497,9.809471561412405,0.0,0.0002692013968878497,1.0791994654070735e-07,7.292114999999297e-05,0.0,0.0,334.357106348712,1.0545688464343164,84211.710713969,278.1834290427778,-82.04610052554334,0.06540171282544913,64.51141621651384,0.0,0.0,0.0,0.98520549786,57216.29232227744
6.2,6379690.097134801,2883.619834177296,1731.7889149135922,201.980870364096,465.096824154504,258.38976913337285,258.334504217436,-0.20890474633120082,-202.26167930097841,1553.985462557784,-1.1117484615643592e-07,0.00027328243034942625,9.809409042977528,0.0,0.00027328243034942625,1.1117484609447673e-07,7.292114999999297e-05,0.0,0.0,334.277850158736,1.0524430069330395,84002.11560566997,278.0515631738889,-81.37739279965308,0.06579963635405325,63.67814971733851,0.0,0.0,0.0,0.981504851286,56645.9276505672
6.3,6379710.2244504,2930.129507018064,1757.600073430872,200.5664220671664,465.09663181960804,257.83415461717203,257.7784574320464,-0.21139043884042563,-200.8515183443184,1574.141075481936,-1.1446888019147172e-07,0.0002773546410913488,9.809346960364495,0.0,0.0002773546410913488,1.1446888028816296e-07,7.292114999999297e-05,0.0,0.0,334.199127621744,1.0503352258983962,83794.39914444918,277.9206161361111,-80.71713685585745,0.06618473853596067,62.85586149716744,0.0,0.0,0.0,0.977827481691,56083.23248279023
6.4,6379730.21061312,2976.63916036992,1783.3558955569201,199.1575773298704,465.09643436711997,257.28303174624244,257.2269139499184,-0.21385299511062963,-199.4469554087712,1594.1559528277683,-1.1780168469073503e-07,0.00028141809858993886,9.809285311804599,0.0,0.00028141809858993886,1.1780168497155852e-07,7.292114999999297e-05,0.0,0.0,334.12093690284,1.0482453727797778,83588.54610869348,277.7905842511111,-80.0651977128715,0.06655729560840264,62.04436954544786,0.0,0.0,0.0,0.974173185268,55528.083193075414
6.5,6379750.05614112,3023.1487937208003,1809.0568276164722,197.7542627438712,465.09623175436803,256.736343995424,256.679817146832,-0.2162925815101872,-198.0479171588472,1614.0306507181201,-1.2117289852815034e-07,0.00028547287614378913,9.809224095590109,0.0,0.00028547287614378913,1.2117289863060118e-07,7.292114999999297e-05,0.0,0.0,334.043276185416,1.0461733187582491,83384.54148602649,277.66146388833334,-79.42144319401407,0.06691757762869609,61.24349555833008,0.0,0.0,0.0,0.970541762506,54980.35871331513
6.6,6379769.761644001,3069.65840655864,1834.7033103381361,196.3564061102784,465.09602394477605,256.1940357356688,256.1371112977272,-0.21870936151492082,-196.65433146576,1633.7657180094,-1.2458216256138334e-07,0.000289519043112284,9.809163310043774,0.0,0.000289519043112284,1.245821623426936e-07,7.292114999999297e-05,0.0,0.0,333.966143692488,1.0441189367568546,83182.37047330852,277.53325146555557,-78.78574385914992,0.0672658486348245,60.453064846589285,0.0,0.0,0.0,0.966933018102,54439.94046804801
6.7,6379789.327609441,3116.1679983348004,1860.295778921448,194.9639364158736,465.095810904816,255.65605221575282,255.59874155628242,-0.2211034957635744,-195.2661273842616,1653.361696398264,-1.280291196330627e-07,0.00029355666646719756,9.809102953457886,0.0,0.00029355666646719756,1.280291197299285e-07,7.292114999999297e-05,0.0,0.0,333.889537653168,1.0420821013942356,82982.01847089102,277.4059434466667,-78.15797293574228,0.0676023668011256,59.67290624443701,0.0,0.0,0.0,0.963346760881,53906.71231604506
6.8,6379808.754586081,3162.6775685616,1885.834663140504,193.576783807812,465.095592597912,255.122339543988,255.0646539381504,-0.22347514211664,-193.88323513039202,1672.819120546584,-1.3151341655382312e-07,0.0002975858158140057,9.80904302415522,0.0,0.0002975858158140057,1.3151341691685162e-07,7.292114999999297e-05,0.0,0.0,333.8134563361921,1.040062688958861,82783.4710802225,277.2795363405556,-77.53800625479853,0.06792738459219981,58.902852026339396,0.0,0.0,0.0,0.959782803723,53380.5604885441
6.9,6379828.04315304,3209.1871166904,1911.320387423208,192.19487957137198,465.09536899053603,254.592844670544,254.5347953011464,-0.2258244557103072,-192.505586055876,1692.138518194224,-1.3503470211838958e-07,0.00030160655923800264,9.808983520550001,0.0,0.00030160655923800264,1.3503470248525779e-07,7.292114999999297e-05,0.0,0.0,333.73789802553597,1.038060577378103,82586.71409858175,277.15402670333333,-76.92572218815022,0.06824114891103616,58.14273781805272,0.0,0.0,0.0,0.956240963485,52861.37353322992
7.0,6379847.193737039,3255.69664217256,1936.7533709274721,190.8181561077048,465.09514004306396,254.06751537098881,254.0091133312272,-0.22815158901132723,-191.1331126264824,1711.320410274864,-1.3859262710592647e-07,0.0003056189615013754,9.80892444096503,0.0,0.0003056189615013754,1.3859262743387383e-07,7.292114999999297e-05,0.0,0.0,333.662861023464,1.036075646197625,82391.7335190778,277.0294111338889,-76.32100158662281,0.06854390123868628,57.392402518334755,0.0,0.0,0.0,0.952721060925,52349.04225773548
7.1,6379866.206947681,3302.2061445204004,1962.1340276357041,189.44654691036482,465.0949057311121,253.54630022861042,253.4875565226792,-0.2304566918703528,-189.765748400688,1730.365311025728,-1.4218684527190813e-07,0.0003096230891779631,9.808865783875511,0.0,0.0003096230891779631,1.4218684513577247e-07,7.292114999999297e-05,0.0,0.0,333.58834366272004,1.0341077765607642,82198.5155258619,276.9056862755556,-75.72372772042947,0.06883587777794205,56.65168821709745,0.0,0.0,0.0,0.949222920631,51843.45967410091
7.2,6379885.083242161,3348.7156231548006,1987.4627664249122,188.0799865445832,465.094666015056,253.0291486176528,252.9700741631832,-0.23273991157131602,-188.4034280068176,1749.2737280851202,-1.4581701136385402e-07,0.0003136190077577553,9.808807547634748,0.0,0.0003136190077577553,1.4581701129700792e-07,7.292114999999297e-05,0.0,0.0,333.514344297384,1.0321568511776087,82007.04649029716,276.7828488138889,-75.13378622089947,0.06911730958544776,55.92044011934234,0.0,0.0,0.0,0.945746370954,51344.52094802036
7.3,6379903.82310816,3395.22507752712,2012.7399911459522,186.71841062593202,465.094420864416,252.51601068960002,252.45661631826962,-0.235001392884768,-187.04608712231763,1768.046162608248,-1.4948278409763878e-07,0.0003176067799731212,9.808749730748444,0.0,0.0003176067799731212,1.49482783918568e-07,7.292114999999297e-05,0.0,0.0,333.44086129677606,1.030222754294076,81817.31296856447,276.6608954777778,-74.55106502532007,0.069388422702033,55.19850646820633,0.0,0.0,0.0,0.942291243931,50852.12334521616
7.4,6379922.42706384,3441.7345071192,2037.9661007149682,185.36175579990243,465.09417025176003,252.0068373545832,251.9471338142496,-0.2372412781148184,-185.6936624533344,1786.68310938,-1.5318382318135666e-07,0.0003215864687152551,9.808692331630878,0.0,0.0003215864687152551,1.5318382325588222e-07,7.292114999999297e-05,0.0,0.0,333.367893057648,1.0283053716764514,81629.30170022609,276.5398230377778,-73.97545431955467,0.06964943828260078,54.48573847379016,0.0,0.0,0.0,0.938857375226,50366.16618355853
7.5,6379940.895627361,3488.2439113824003,2063.141489159112,184.00995972117843,465.09391414356,251.5015802679696,251.4415782235848,-0.239459707148208,-184.346091715512,1805.1850568972402,-1.5691979129941195e-07,0.000325558138835356,9.808635348818257,0.0,0.000325558138835356,1.5691979178042467e-07,7.292114999999297e-05,0.0,0.0,333.29543799504,1.0264045905907722,81442.99960200125,276.4196283038889,-73.40684648911216,0.0699005727175639,53.78199024020753,0.0,0.0,0.0,0.93544460406,49886.55078183371
7.6,6379959.22922544,3534.75328976808,2088.266545720176,182.6629610356536,465.09365250933604,251.00019181573202,250.93990185056163,-0.24165681750002882,-183.003313612656,1823.5524874785362,-1.6069035411251883e-07,0.0003295218498578781,9.808578780785837,0.0,0.0003295218498578781,1.606903541435857e-07,7.292114999999297e-05,0.0,0.0,333.22349454837604,1.0245202997719047,81258.39376824496,276.3003081283333,-72.84513606220983,0.07014203775294696,53.08711869752734,0.0,0.0,0.0,0.932052773145,49413.180415215305
7.7,6379977.428376241,3581.2626417276,2113.341654912504,181.3206993594,465.09338532165606,250.5026250985992,250.442057716356,-0.2438327443606632,-181.6652678184456,1841.785877364744,-1.6449517728121705e-07,0.00033347766241206893,9.808522626039366,0.0,0.00033347766241206893,1.6449517713722738e-07,7.292114999999297e-05,0.0,0.0,333.152061166224,1.0226523893977777,81075.47146663873,276.18185940166666,-72.29021966395663,0.07037404060737464,52.40098353327106,0.0,0.0,0.0,0.928681728626,48945.960267862894
7.8,6379995.49350648,3627.7719666513603,2138.367196590048,179.9831152612944,465.09311255004,250.00883391834,249.9479995437936,-0.2459876206405896,-180.3318949593648,1859.885696804352,-1.6833392944253079e-07,0.00033742563898071565,9.80846688314556,0.0,0.00033742563898071565,1.683339296594752e-07,7.292114999999297e-05,0.0,0.0,333.081136333728,1.020800751079071,80894.22013579664,276.064279055,-71.74199596519863,0.07059678408372196,51.72344712835836,0.0,0.0,0.0,0.925331320015,48484.7973888721
7.9,6380013.42513432,3674.2812640212,2163.343546028664,178.6501502435112,465.092834167056,249.51877276526642,249.4576817454624,-0.24812157701244483,-179.0031365933664,1877.852410169304,-1.7220628220979422e-07,0.00034136583786828733,9.80841155064066,0.0,0.00034136583786828733,1.7220628267998592e-07,7.292114999999297e-05,0.0,0.0,333.010718542128,1.018965277838604,80714.62738143484,275.9475640555556,-71.20036563536789,0.07081046668165444,51.05437449349754,0.0,0.0,0.0,0.922001400134,48029.6006472672
8.0,6380031.22371696,3720.79053328848,2188.271073984024,177.321746725368,465.09255014832,249.03239680207923,248.97105940847283,-0.2502347419555248,-177.6789351943272,1895.686476019008,-1.7611190917990823e-07,0.00034529831742114087,9.808356627121876,0.0,0.00034529831742114087,1.761119092025975e-07,7.292114999999297e-05,0.0,0.0,332.94080630400003,1.0171458640649491,80536.68097637159,275.83171141111114,-70.6652312948864,0.0710152827012715,50.3936332051311,0.0,0.0,0.0,0.918691825056,47580.28069240416
8.1,6380048.88965064,3767.2997738740805,2213.150146755624,175.997848024428,465.09226046335203,248.54966185289524,248.4880882819608,-0.2523272417963232,-176.35923413406482,1913.388347219208,-1.800504839530898e-07,0.00034922313574652303,9.808302111216909,0.0,0.00034922313574652303,1.8005048423234247e-07,7.292114999999297e-05,0.0,0.0,332.87139815935205,1.0153424055278941,80360.36885478163,275.71671816444444,-70.13649747335299,0.07121142234763977,49.74109334760891,0.0,0.0,0.0,0.915402454044,47136.74991083046
8.2,6380066.42342304,3813.8089851988802,2237.98112626908,174.67839834126002,465.09196508472,248.070524389836,248.0087247636768,-0.254399200749984,-175.0439776658784,1930.9584709998962,-1.8402168508227676e-07,0.0003531403515660364,9.808248001462038,0.0,0.0003531403515660364,1.840216847436829e-07,7.292114999999297e-05,0.0,0.0,332.802492654288,1.013554799332058,80185.67911267499,275.60258139611113,-69.61407056239193,0.07139907183310214,49.096627453137174,0.0,0.0,0.0,0.9121331495,46698.92238683186
8.3,6380083.82546088,3860.31816671424,2262.7643701188003,173.36334274023602,465.09166399108807,247.5949415196168,247.5329258884032,-0.2564507409590112,-173.73311090656563,1948.3972890741843,-1.8802518914748674e-07,0.00035705002059059095,9.808194296545931,0.0,0.00035705002059059095,1.8802518964316026e-07,7.292114999999297e-05,0.0,0.0,332.73408836539204,1.0117829438962755,80012.60000263009,275.4892982227778,-69.09785877517434,0.07157841347202491,48.460110445286055,0.0,0.0,0.0,0.908883776905,46266.7138638408
8.4,6380101.09622136,3906.82731781056,2287.50023165028,172.05262713612,465.091357155024,247.122870971964,247.0606493145432,-0.2584819825335024,-172.4265798220968,1965.7052377023122,-1.9206067966118517e-07,0.00036095219871086503,9.808140995065834,0.0,0.00036095219871086503,1.9206067974496097e-07,7.292114999999297e-05,0.0,0.0,332.666183878392,1.010026738963906,79841.11993475149,275.37686579611113,-68.58777210282545,0.07174962577865868,47.83141958338688,0.0,0.0,0.0,0.905654204771,45840.041706180156
8.5,6380118.2361312,3953.3364379392,2312.189060002776,170.74619827638958,465.09104455519207,246.65427108681362,246.59185331162402,-0.26049304358894404,-171.12433121054642,1982.8827477861362,-1.9612783816187008e-07,0.00036484694180532014,9.808088095740928,0.0,0.00036484694180532014,1.9612783773077374e-07,7.292114999999297e-05,0.0,0.0,332.5987778034,1.0082860855358313,79671.22747092407,275.2652813033333,-68.08372227705966,0.07191288355832681,47.210434407819015,0.0,0.0,0.0,0.902444304583,45418.82486243483
8.6,6380135.2456171205,3999.8455265210405,2336.8312001855043,169.4440037269104,465.090726161112,246.18910080394804,246.12649675054323,-0.2624840402824824,-169.82631268654802,1999.9302449453282,-2.0022634816724282e-07,0.00036873430333164594,9.808035597229427,0.0,0.00036873430333164594,2.002263481236096e-07,7.292114999999297e-05,0.0,0.0,332.531868759672,1.006560885896228,79502.91132385563,275.15454196611114,-67.58562272792237,0.07206835799727962,46.597036688855326,0.0,0.0,0.0,0.899253950748,45002.98382954148
8.7,6380152.12507536,4046.35458297696,2361.426993132504,168.1459918554768,465.09040195449603,245.7273196498896,245.6645390898528,-0.2644550868498048,-168.53247266757842,2016.8481496057682,-2.043558971638836e-07,0.0003726143387023007,9.807983498189566,0.0,0.0003726143387023007,2.0435589725464074e-07,7.292114999999297e-05,0.0,0.0,332.46545539084804,1.0048510435713354,79336.1603561191,275.04464504000003,-67.09338854731452,0.07221621674898977,45.99111037328352,0.0,0.0,0.0,0.89608302055,44592.44061783606
8.8,6380168.874963121,4092.8636067278403,2385.976775757504,166.85211181840083,465.09007190791203,245.26888772753762,245.20594036509124,-0.26640629564110563,-167.2427603578032,2033.6368770696479,-2.0851617363146484e-07,0.00037648710178861736,9.807931797401498,0.0,0.00037648710178861736,2.0851617323702044e-07,7.292114999999297e-05,0.0,0.0,332.39953635580804,1.00315646330884,79170.96357584342,274.9355878127778,-66.60693645073803,0.07235662402044782,45.39254153681016,0.0,0.0,0.0,0.892931394093,44187.1187171066
8.9,6380185.49564616,4139.37259716408,2410.480881008784,165.5623135461864,465.089736003072,244.81376570489041,244.75066117842,-0.26833777715461443,-165.95712573405598,2050.296837600816,-2.127068660479137e-07,0.0003803526448492442,9.807880493523474,0.0,0.0003803526448492442,2.12706865932722e-07,7.292114999999297e-05,0.0,0.0,332.334110325624,1.0014770510778763,79007.31013575594,274.82736760722224,-66.12618474215469,0.072489740655344,44.80121833335095,0.0,0.0,0.0,0.889798954259,43786.94306355588
9.0,6380201.9875512,4185.88155373704,2434.9396379362324,164.27654772798482,465.08939421864005,244.36191480437762,244.2986626882608,-0.2702496400725624,-164.6755195318176,2066.828436500976,-2.1692766686003604e-07,0.00038421101846556824,9.80782958536614,0.0,0.00038421101846556824,2.1692766692635856e-07,7.292114999999297e-05,0.0,0.0,332.26917599880005,0.9998127140329507,78845.18933078831,274.7199817766667,-65.65105327751085,0.07261572421057755,44.21703094970336,0.0,0.0,0.0,0.886685586655,43391.840007386505
9.1,6380218.35107448,4232.39047580664,2459.353371730968,162.9947657987928,465.089046527184,243.913296792192,243.84990659618882,-0.272141991292272,-163.3978932327192,2083.232074170648,-2.2117826950947538e-07,0.00038806227711804227,9.807779071618237,0.0,0.00038806227711804227,2.2117826949551273e-07,7.292114999999297e-05,0.0,0.0,332.20473207688804,0.9981633605036325,78684.59059520386,274.6134277077778,-65.18146343048606,0.0727347290385489,43.63987155759478,0.0,0.0,0.0,0.883591179573,43001.737281726586
9.2,6380234.58664272,4278.899362824241,2483.722403798496,161.7169199263464,465.08869291346406,243.467873968536,243.4043551402272,-0.2740149359605992,-162.1241990480832,2099.5081462158482,-2.2545836842922226e-07,0.0003919064690615293,9.807728951120913,0.0,0.0003919064690615293,2.2545836858281125e-07,7.292114999999297e-05,0.0,0.0,332.140777282776,0.996528899979094,78525.50350259733,274.5077028177778,-64.71733806002105,0.07284690636055523,43.06963427000102,0.0,0.0,0.0,0.880515623937,42616.56397179487
9.3,6380250.694591201,4325.40821421072,2508.0470517922317,160.4429629974048,465.088333353096,243.02560915695364,242.96197108113122,-0.275868577503804,-160.8543899091696,2115.657043481616,-2.2976766102281768e-07,0.0003957436464394861,9.8076792225934,0.0,0.0003957436464394861,2.2976766077149024e-07,7.292114999999297e-05,0.0,0.0,332.07731035764004,0.9949092430978017,78367.91776158588,274.402804555,-64.25860147606647,0.07295240434018624,42.506215096841956,0.0,0.0,0.0,0.877458813264,42236.250485310746
9.4,6380266.67534664,4371.9170292955205,2532.327629674464,159.1728486049488,465.08796782779206,242.58646569427202,242.5227176959872,-0.2777030176604688,-159.588419451936,2131.6791521526,-2.341058447025291e-07,0.0003995738574526706,9.807629884876858,0.0,0.0003995738574526706,2.341058442522342e-07,7.292114999999297e-05,0.0,0.0,332.014330054848,0.9933043016165943,78211.82321485135,274.29873039833336,-63.80517940977977,0.07305136815760933,41.94951190254559,0.0,0.0,0.0,0.87442064362,41860.72852338302
9.5,6380282.52930528,4418.42580756048,2556.5644477712162,157.906531035684,465.087596319264,242.1504074220672,242.086558765716,-0.27951835651106405,-158.3262420060648,2147.5748538048724,-2.384726188580823e-07,0.0004033971542410489,9.807580936781978,0.0,0.0004033971542410489,2.3847261880746773e-07,7.292114999999297e-05,0.0,0.0,331.95183514300805,0.991713988405529,78057.20983770395,274.1954778572222,-63.35699898060835,0.07314394007540341,41.399424364457076,0.0,0.0,0.0,0.871401013573,41489.93105240424
9.6,6380298.25677192,4464.934548365521,2580.7578128088244,156.6439652572392,465.087218806176,241.71739867630083,241.65345856714802,-0.2813146925072088,-157.0678125812472,2163.344525488224,-2.428676858584798e-07,0.00040721358177477453,9.807532377149936,0.0,0.00040721358177477453,2.4286768577121336e-07,7.292114999999297e-05,0.0,0.0,331.889824405968,0.990138217427266,77904.06773520935,274.09304446944446,-62.913988666931346,0.07323025951061997,40.85585393235999,0.0,0.0,0.0,0.868399824154,41123.79227632799
9.7,6380313.85820376,4511.44325113152,2604.90802798404,155.385106908108,465.086835267192,241.287404278176,241.2233818638792,-0.2830921225021512,-155.8130868562104,2178.9885397779844,-2.4729074807272434e-07,0.0004110231902303181,9.807484204791422,0.0,0.0004110231902303181,2.472907480151285e-07,7.292114999999297e-05,0.0,0.0,331.828296642816,0.9885769037267609,77752.3871412311,273.99142780333335,-62.47607827714611,0.07331046309750311,40.31870378893157,0.0,0.0,0.0,0.865416978816,40762.247610143284
9.8,6380329.33393608,4557.9519152184,2629.015392985368,154.1299122830184,465.086445687072,240.8603895256032,240.7962938962128,-0.2848507417782,-154.5620211671352,2194.50726486036,-2.5174150985425784e-07,0.00041482602727087623,9.807436418608589,0.0,0.00041482602727087623,2.5174150992407104e-07,7.292114999999297e-05,0.0,0.0,331.76725066483203,0.9870299634106495,77602.15841507907,273.89062545444443,-62.04319891942039,0.07338468475332308,39.787878811265664,0.0,0.0,0.0,0.862452383392,40405.233653396695
9.9,6380344.68430416,4604.46054004704,2653.0802040692643,152.878338323484,465.08605005057603,240.43632018405603,240.37216037353923,-0.28659064407537604,-153.31457249485442,2209.90106457816,-2.562196775374712e-07,0.0004186221392977724,9.807389017442636,0.0,0.0004186221392977724,2.5621967736119295e-07,7.292114999999297e-05,0.0,0.0,331.70668530158406,0.9854973136472484,77453.3720419882,273.7906350488889,-61.6152829758926,0.07345305574109638,39.26328553359658,0.0,0.0,0.0,0.859505946056,40052.68816505528
10.0,6380359.90970424,4650.96912503832,2677.1027540784244,151.6303426065264,465.08564833332,240.0151624780368,239.9509474645824,-0.28831192161823443,-152.07069845540403,2225.17029851004,-2.6072495746373625e-07,0.0004224115726983674,9.807342000165232,0.0,0.0004224115726983674,2.6072495765397715e-07,7.292114999999297e-05,0.0,0.0,331.646599394832,0.98397887262017,77306.0186302457,273.6914542377778,-61.192264073758345,0.073515704728747,38.74483211042335,0.0,0.0,0.0,0.856577577283,39704.55003841733
10.1,6380375.01050208,4697.477669521681,2701.083332505792,150.3858833318736,465.085240523112,239.5968830825424,239.5326217891704,-0.2900146651432968,-150.830357288136,2240.3153220314643,-2.6525705993457725e-07,0.00042619437511840446,9.807295365709033,0.0,0.00042619437511840446,2.652570595680581e-07,7.292114999999297e-05,0.0,0.0,331.58699179548,0.9824745595540925,77160.08890783941,273.5930807027778,-60.774077059470834,0.07357275785049185,38.232428281012936,0.0,0.0,0.0,0.853667189812,39360.759277076446
10.2,6380389.98700248,4743.986172918,2725.02222554028,149.1449193140352,465.084826601664,239.1814491151392,239.11715041183442,-0.29169896392434963,-149.59350784383122,2255.3364863604243,-2.6981569327231486e-07,0.0004299705889763658,9.807249112976201,0.0,0.0004299705889763658,2.6981569327929615e-07,7.292114999999297e-05,0.0,0.0,331.52786137576805,0.9809842946632207,77015.57372341541,273.4955121494445,-60.36065797205144,0.07362433876199881,37.72598533457062,0.0,0.0,0.0,0.850774698607,39021.25697126871
10.3,6380404.839601681,4790.49463464816,2748.9197160942,147.90740996889122,465.084406553736,238.768828127124,238.7045008305312,-0.293364905798352,-148.36010957677442,2270.234138639736,-2.744005707577502e-07,0.0004337402605391846,9.807203240868926,0.0,0.0004337402605391846,2.744005703580698e-07,7.292114999999297e-05,0.0,0.0,331.469207014032,0.9795079991667487,76872.46404388407,273.3987463122222,-59.951944019069394,0.07367056869865836,37.225416076344594,0.0,0.0,0.0,0.847900020821,38685.98527493804
10.4,6380419.5686044805,4837.0030540416,2772.7760838642243,146.673315306072,465.08398036104,238.3589880965136,238.2946409702424,-0.2950125771916488,-147.1301225328672,2285.0086219827604,-2.7901140369073574e-07,0.00043750343568633077,9.807157748350344,0.0,0.00043750343568633077,2.790114037413503e-07,7.292114999999297e-05,0.0,0.0,331.411027606896,0.978045595268244,76730.75095154713,273.3027809511111,-59.54787355084202,0.07371156652896226,36.730634794709076,0.0,0.0,0.0,0.84504307576,38354.887383184585
10.5,6380434.1743766405,4883.5114305192,2796.591605358816,145.4425959164616,465.083548008336,237.9518974195104,237.88753917687842,-0.2966420631431352,-145.90350733896003,2299.6602755374083,-2.8364790733651206e-07,0.0004412601557105492,9.807112634353121,0.0,0.0004412601557105492,2.836479077152485e-07,7.292114999999297e-05,0.0,0.0,331.353322060128,0.9765970061247247,76590.425643619,273.2076138527778,-59.148386037304064,0.07374744880743737,36.24155722846994,0.0,0.0,0.0,0.842203784844,38027.907510431316
10.6,6380448.657222961,4930.01976344088,2820.366553953096,144.2152129642728,465.083109483432,237.547524903492,237.48316420600082,-0.2982534473292504,-144.680225195232,2314.189434550152,-2.8830979795166653e-07,0.000445010466418006,9.807067897840419,0.0,0.000445010466418006,2.883097978923254e-07,7.292114999999297e-05,0.0,0.0,331.296089297784,0.9751621558569673,76451.47943079029,273.1132428277778,-58.7534220435424,0.07377832982668989,35.75810053586054,0.0,0.0,0.0,0.839382071576,37704.99086930887
10.7,6380463.017509201,4976.528052197041,2844.10119991932,142.99112817668401,465.08266476804005,237.1458397593912,237.0814852194696,-0.299846812087752,-143.4602378629992,2328.596430405648,-2.929967908014398e-07,0.0004487544073299369,9.807023537775398,0.0,0.0004487544073299369,2.929967911836669e-07,7.292114999999297e-05,0.0,0.0,331.239328250016,0.973740969528892,76313.90373483376,273.0196657127778,-58.36292320755497,0.07380432166811503,35.28018326353767,0.0,0.0,0.0,0.836577861505,37386.08364944454
10.8,6380477.255570641,5023.03629617808,2867.795810469552,141.7703038343904,465.08221384692,236.7468115943808,236.6824717738608,-0.301422238439052,-142.24350765770401,2342.881590693792,-2.9770860611478864e-07,0.0004524920251967311,9.806979553151704,0.0,0.0004524920251967311,2.977086057866667e-07,7.292114999999297e-05,0.0,0.0,331.18303785916805,0.9723333731217927,76177.69008812564,272.92688037,-57.9768322184545,0.07382553424949301,34.80772531673397,0.0,0.0,0.0,0.833791082193,37071.13299763988
10.9,6380491.371681601,5069.544494774401,2891.4506498013843,140.5527027618504,465.08175670788,236.3504104045584,236.28609381802804,-0.3029798061121248,-141.0299974373328,2357.045239267632,-3.0244496114139293e-07,0.000456223358848474,9.806935942932508,0.0,0.000456223358848474,3.024449611658275e-07,7.292114999999297e-05,0.0,0.0,331.12721708892,0.9709392935549532,76042.8301302939,272.83488468444443,-57.59509279378251,0.07384207537480914,34.34064792985516,0.0,0.0,0.0,0.83102166318,36760.08699771314
11.0,6380505.36620784,5116.0526473154405,2915.065979128416,139.3382883196656,465.081293338728,235.95660656824083,235.89232168152003,-0.3045195935640144,-139.81967059601521,2371.0876962951843,-3.072055780911583e-07,0.0004599484505273692,9.806892706172425,0.0,0.0004599484505273692,3.072055780213452e-07,7.292114999999297e-05,0.0,0.0,331.07186490295203,0.9695586586289547,75909.3156091759,272.7436765666667,-57.217649658602774,0.07385405077784639,33.87887363810042,0.0,0.0,0.0,0.828269535951,36452.89465125134
11.1,6380519.23945416,5162.56075322208,2938.64205671988,138.1270243945224,465.08082372422405,235.56537083956323,235.50112607153284,-0.306041678003304,-138.6124910530512,2385.009278299056,-3.1199017818264337e-07,0.0004636673417757438,9.806849841895598,0.0,0.0004636673417757438,3.1199017827863645e-07,7.292114999999297e-05,0.0,0.0,331.016980283232,0.9681913970514453,75777.13837890318,272.65325395,-56.84444852459456,0.07386156417111586,33.422326249661,0.0,0.0,0.0,0.825534633906,36149.50585903278
11.2,6380532.99172536,5209.06881185424,2962.179137937216,136.9188753909624,465.080347849128,235.17667434055443,235.11247806346083,-0.30754613540688003,-137.40842324468161,2398.8102982296,-3.1679848461884596e-07,0.00046738007158948915,9.806807349065219,0.0,0.00046738007158948915,3.167984850673956e-07,7.292114999999297e-05,0.0,0.0,330.96256222087203,0.9668374384062173,75646.29039607105,272.5636147916667,-56.47543607003573,0.07386471728544586,32.9709308181857,0.0,0.0,0.0,0.822816892327,35849.87140230584
11.3,6380546.623326241,5255.576822571841,2985.677475276744,135.71380622345762,465.079865701248,234.7904885553456,234.72634909602002,-0.309033040548888,-136.2074321173824,2412.4910655014883,-3.216302225872035e-07,0.00047108668223873443,9.80676522679688,0.0,0.00047108668223873443,3.216302227023952e-07,7.292114999999297e-05,0.0,0.0,330.908609722224,0.9654967131532066,75516.76372117497,272.47475707166666,-56.11055992023053,0.07386360991624351,32.52461361658088,0.0,0.0,0.0,0.820116248342,35553.942924977535
11.4,6380560.1345920805,5302.084784795759,3009.137318400144,134.5117823069616,465.07937727144,234.406785324684,234.3427109642376,-0.31050246702024004,-135.0094831171968,2426.05188605772,-3.2648511628031547e-07,0.0004747872108518688,9.806723474084253,0.0,0.0004747872108518688,3.2648511666079727e-07,7.292114999999297e-05,0.0,0.0,330.855121802784,0.9641691526078782,75388.5505162165,272.3866787927778,-55.74976862793738,0.07385833996397352,32.08330211094386,0.0,0.0,0.0,0.817432640901,35261.67291613719
11.5,6380573.5257972,5348.59269782496,3032.558914167984,133.31276955020402,465.0788825444641,234.0255368373984,233.9615358124416,-0.31195448723532,-133.8145421836392,2439.4930623909604,-3.313628938648964e-07,0.0004784816996449162,9.806682090012465,0.0,0.0004784816996449162,3.313628935699357e-07,7.292114999999297e-05,0.0,0.0,330.802097484144,0.9628546889360721,75261.64304326705,272.29937798055556,-55.3930116542416,0.07384900347463703,31.64692493525255,0.0,0.0,0.0,0.814766010741,34973.01469305899
11.6,6380586.7972464,5395.10056108032,3055.94250668544,132.1167343468512,465.078381508128,233.64671562643682,233.58279612999362,-0.31338917247160797,-132.622575739332,2452.814893641072,-3.362632815162397e-07,0.00048217018425750007,9.806641073666643,0.0,0.00048217018425750007,3.362632811846271e-07,7.292114999999297e-05,0.0,0.0,330.74953580618404,0.9615532551282343,75136.03366351004,272.2128526816667,-55.04023935031761,0.07383569467980554,31.215411866544365,0.0,0.0,0.0,0.812116300356,34687.922384156576
11.7,6380599.949244481,5441.60837392176,3079.28833731144,130.9236435672768,465.07787415328806,233.27029456185602,233.2064647427544,-0.31480659287272805,-131.43355068604322,2466.017675585976,-3.4118600839415225e-07,0.0004858527050939924,9.806600424101442,0.0,0.0004858527050939924,3.411860083697176e-07,7.292114999999297e-05,0.0,0.0,330.69743581488,0.9602647850200322,75011.71483532591,272.12710096611113,-54.69140294052578,0.07381850603487566,30.78869380107376,0.0,0.0,0.0,0.809483453969,34406.35091323046
