time,gePosition_m_X,gePosition_m_Y,gePosition_m_Z,feVelocity_m_s_X,feVelocity_m_s_Y,feVelocity_m_s_Z,altitudeMsl_m,longitude_rad,latitude_rad,localGravity_m_s2,eulerAngle_rad_Yaw,eulerAngle_rad_Pitch,eulerAngle_rad_Roll,bodyAngularRateWrtEi_rad_s_Roll,bodyAngularRateWrtEi_rad_s_Pitch,bodyAngularRateWrtEi_rad_s_Yaw,altitudeRateWrtMsl_m_s,speedOfSound_m_s,airDensity_kg_m3,ambientPressure_Pa,ambientTemperature_K,aero_bodyForce_N_X,aero_bodyForce_N_Y,aero_bodyForce_N_Z,aero_bodyMoment_Nm_L,aero_bodyMoment_Nm_M,aero_bodyMoment_Nm_N,mach,dynamicPressure_Pa,trueAirspeed_m_s
0.0,6378136.999951441,0.0,0.0,304.7999994885456,0.0,-304.7999994885456,0.0,0.0,0.0,9.81419749258176,0.0,-0.0,0.0,7.292107787869477e-05,0.0,0.0,304.7999994885456,340.29396,1.2250039125042,101324.9999991008,288.15,-146.79529200518934,-0.0,146.79529200518934,0.0,0.0,0.0,1.26670568319,113806.58718747753,431.0519199483247
0.1,6378167.38131816,-0.0002215600312456248,30.429874763730485,303.79803056436964,-0.0044272365707568005,-302.8241453330736,30.381423802913524,-3.47372557037217e-11,4.803096875768386e-06,9.814106957807281,-3.379399876055145e-25,4.770943273243146e-06,2.7378435644860662e-11,7.292107787869477e-05,0.0,0.0,302.8242910417992,340.176689090016,1.2215605620765488,100977.14105162355,287.9525545022222,-145.1895646265419,0.0021158365552611884,144.7228790638885,0.0,0.0,0.0,1.26095414752,112380.94934450029,428.9468356801425
0.2,6378197.565326881,-0.00088336138032984,60.7602293074416,302.80683895976165,-0.00880807422545208,-300.8625047898144,60.5656506411768,-1.3849702385108725e-10,9.590439639546833e-06,9.8140138985268,-6.620290322000488e-25,9.526238201836312e-06,1.2377938373182217e-10,7.292107787869477e-05,0.0,0.0,300.86264954847843,340.060179350976,1.2181395614327204,100631.539954736,287.7563905661111,-143.60936627677057,0.004177302773339756,142.68464462275793,0.0,0.0,0.0,1.25525106045,110978.74405382402,426.86053123596577
0.3,6378227.553714961,-0.001981127304413616,90.99214647833521,301.8264127698432,-0.01314640571984616,-298.9147173818664,90.55440796168801,-3.106078119250743e-10,1.4362199876329618e-05,9.813921443238,-9.922154416205743e-25,1.4266055217679503e-05,2.8853135174558544e-10,7.292107787869477e-05,0.0,0.0,298.91486120388004,339.94442411690403,1.2147407147906097,100288.17693053959,287.5614969644445,-142.05417520839333,0.006187292787738706,140.67988276192705,0.0,0.0,0.0,1.24959577636,109599.49025003787,424.79274884951286
0.4,6378257.3478540005,-0.00351063657949512,121.12669197849121,300.8565820000344,-0.01744278077317488,-296.9805562039176,120.34906969101601,-5.50406856925638e-10,1.911854645454095e-05,9.8138295876432,-1.3158602220481094e-24,1.89905620543719e-05,5.209715766862515e-10,7.292107787869477e-05,0.0,0.0,296.9806991020824,339.829418081232,1.2113638664285065,99947.03624701762,287.36786476833333,-140.52347298029125,0.008147060451717227,138.70789426855393,0.0,0.0,0.0,1.24398759201,108242.71089206674,422.743213542749
0.5,6378286.949146081,-0.0054677223092376,151.1649147198072,299.8971801722328,-0.021697737338266323,-295.05979907658,149.95098730535042,-8.572399380635935e-10,2.3859645582583627e-05,9.81373832756664,-1.6679627652976034e-24,2.3699923803465316e-05,8.204458377648211e-10,7.292107787869477e-05,0.0,0.0,295.05994106400243,339.71515602883204,1.2080088631758261,99608.10243118559,287.17548519499996,-139.01675471085937,0.010057824731141274,136.7679981403711,0.0,0.0,0.0,1.23842581944,106907.94138866056,420.7116562923289
0.6,6378316.358871361,-0.0078482707644888,181.10784717144,298.9480442315448,-0.02591180190320136,-293.1522284250792,179.36149029291363,-1.230461194290981e-09,2.858566086365983e-05,9.81364765886304,-2.0147917735071056e-24,2.839430296855873e-05,1.1863082739282958e-09,7.292107787869477e-05,0.0,0.0,293.152369514256,339.60163282992,1.204675554351264,99271.36025951516,286.9843496038889,-137.53352865498087,0.011920770840826265,134.85953101453393,0.0,0.0,0.0,1.23290978559,105594.729212958,418.6978138726911
0.7,6378345.578340481,-0.010648220252930161,210.9565056956952,298.00901445941764,-0.030085489786847764,-291.2576311597728,208.5818866099416,-1.6694329465464372e-09,3.3296753349073486e-05,9.813557577509041,-2.382902671366576e-24,3.307385951855175e-05,1.6179212061276757e-09,7.292107787869477e-05,0.0,0.0,291.257771362896,339.488843430912,1.2013637917164102,98936.79475745537,286.79444949444445,-136.0733157943457,0.013737051340214128,132.98184661959962,0.0,0.0,0.0,1.22743883191,104302.63352375383,416.7014287114991
0.8,6378374.6088336,-0.01386356001743208,240.7118908778208,297.079934385552,-0.034219305424701606,-289.3757985603264,237.61346312416802,-2.173525524538247e-09,3.799308159029344e-05,9.8134680794508,-2.7202006624160917e-24,3.773875093964451e-05,2.114654964066962e-09,7.292107787869477e-05,0.0,0.0,289.37593789019763,339.376782869664,1.1980734294190594,98604.39118985647,286.60577650444446,-134.63564944155897,0.015507787187735279,131.13431524396486,0.0,0.0,0.0,1.22201231399,103031.22480400279,414.7222487445687
0.9,6378403.4516613595,-0.0174903291625788,270.3749878445232,296.16065070560643,-0.038313742642567206,-287.5065261656808,266.4574860418488,-2.7421170979640264e-09,4.2674801689917046e-05,9.813379160817359,-2.9826199764457146e-24,4.23891322853379e-05,2.6758877174361555e-09,7.292107787869477e-05,0.0,0.0,287.5066646335776,339.265446257184,1.1948043239571338,98274.13505953366,286.41832240444444,-133.2200748620421,0.01723406875455832,129.3163232256548,0.0,0.0,0.0,1.21662960121,101780.08451368786,412.76002727902494
1.0,6378432.10804296,-0.0215246156084424,299.9467665776064,295.2510132004248,-0.042369284929231206,-285.64961366371443,295.1152013363112,-3.3745935119855116e-09,4.7342067350888486e-05,9.81329081773776,-3.220521493675373e-24,4.702515622563093e-05,3.301005311385257e-09,7.292107787869477e-05,0.0,0.0,285.649751281524,339.154828783728,1.191556334101375,97946.01210056379,286.2320790972222,-131.8261489070546,0.018916956803910513,127.52727245901508,0.0,0.0,0.0,1.21129007642,100548.80474987035,410.81452285491775
1.1,6378460.579228081,-0.025962555070569604,329.42818221724804,294.350874656484,-0.0463864056924336,-283.8048647882208,323.58783514968,-4.0703481268066244e-09,5.199502992484437e-05,9.81320304637152,-3.439294711825059e-24,5.1646973095024176e-05,3.989401106144268e-09,7.292107787869477e-05,0.0,0.0,283.8050015672208,339.044925715752,1.188329320900501,97620.0082734973,286.04703861333337,-130.4534396591706,0.020557483430853563,125.76657992053167,0.0,0.0,0.0,1.20599313559,99336.9879258921,408.8854991176391
1.2,6378488.86637496,-0.030800330065663198,358.82017535491207,293.4600907912176,-0.0503655685119432,-281.9720872152768,351.87659419308005,-4.8287816614281045e-09,5.663383845871402e-05,9.81311584300008,-3.7509894340446106e-24,5.625473093871875e-05,4.740475820713189e-09,7.292107787869477e-05,0.0,0.0,281.9722231670496,338.935732395912,1.1851231475729729,97296.10976152787,285.8631931116667,-129.1015260928798,0.02215665297047702,124.03367721155355,0.0,0.0,0.0,1.20073818747,98144.24645632353,406.9727246918843
1.3,6378516.970733281,-0.0360341689421352,388.12367232717605,292.57852017864485,-0.054307227385226406,-280.151092466316,379.9826661444,-5.649302041123187e-09,6.12586397409707e-05,9.813029203935361,-4.052473140924178e-24,6.0848575558811614e-05,5.55363738034202e-09,7.292107787869477e-05,0.0,0.0,280.1512276018344,338.827244240016,1.1819376795224588,96974.30296714077,285.6805348727778,-127.769997744974,0.023715442871217633,122.32801011391533,0.0,0.0,0.0,1.19552465333,96970.20245388146,405.07597305509915
1.4,6378544.8934308,-0.0416603449344648,417.33958549492803,291.7060241777424,-0.0582118269630576,-278.3416958121168,407.90722001832,-6.531324248770455e-09,6.586957834561397e-05,9.812943125550241,-4.297991899873825e-24,6.542865055770541e-05,6.428300767930764e-09,7.292107787869477e-05,0.0,0.0,278.341830141744,338.719456737024,1.178772784250218,96654.57450445197,285.4990563,-126.458454397834,0.025234804537752863,120.64903816602182,0.0,0.0,0.0,1.19035196659,95814.48744262646,403.195022423273
1.5,6378572.635625761,-0.047675175240873606,446.46881351829603,290.8424668629504,-0.0620798027805576,-276.5437161786192,435.65140654152003,-7.474270179904249e-09,7.046679667650095e-05,9.81285760427856,-4.639057492133335e-24,6.999509738209777e-05,7.36388787899942e-09,7.292107787869477e-05,0.0,0.0,276.54384971332803,338.612365442952,1.1756283313396412,96336.91119825061,285.3187499144445,-125.16650577339169,0.026715664143112702,118.9962342509427,0.0,0.0,0.0,1.18521957259,94676.74207163883,401.32965563261683
1.6,6378600.1984764,-0.0540750201244704,475.51224162487205,289.9877149580304,-0.065911581480612,-274.756976058228,463.216358509296,-8.477568501220822e-09,7.505043500871065e-05,9.81277263661512,-4.978128844332847e-24,7.454805536469118e-05,8.35982738025799e-09,7.292107787869477e-05,0.0,0.0,274.7571088086864,338.50596598392,1.1725041924047106,96021.30007873215,285.1396083544444,-123.89377123732346,0.02815892341121082,117.36908419874146,0.0,0.0,0.0,1.18012692827,93556.61584736797,399.47966002792873
1.7,6378627.58304952,-0.0608562820351224,504.470741868792,289.1416377687048,-0.0697075810299744,-272.9813014223352,490.603191145224,-9.540654512679875e-09,7.962063153095557e-05,9.81268821905472,-5.2784765926124155e-24,7.908766176518551e-05,9.415554571656473e-09,7.292107787869477e-05,0.0,0.0,272.9814333986016,338.4002540592,1.1694002410384636,95707.7283762315,284.9616243722222,-122.63987951436397,0.029565460372063635,115.76708640303872,0.0,0.0,0.0,1.17507350188,92453.76687076977,397.6448273540465
1.8,6378654.79050336,-0.068015404753272,533.345173380672,288.3041071220016,-0.0734682109295784,-271.2165216362808,517.81300243644,-1.0662970012782594e-08,8.417752238520052e-05,9.81260434824456,-5.6774256438218425e-24,8.36140518108796e-05,1.0530511251684872e-08,7.292107787869477e-05,0.0,0.0,271.2166528481088,338.295225429024,1.1663163528078386,95396.18351978669,284.78479083166667,-121.40446841118192,0.030936130089919703,114.18975145180983,0.0,0.0,0.0,1.17005877277,91367.86158402007,395.8249536524441
1.9,6378681.821904721,-0.07554887255448,562.1363826297361,287.47499730163685,-0.077193872419668,-269.46246937644725,544.846873475016,-1.1843963167322882e-08,8.872124170663076e-05,9.812521020801361,-6.0701647823812784e-24,8.812735873497261e-05,1.1704145586183184e-08,7.292107787869477e-05,0.0,0.0,269.46259983420003,338.19087592068007,1.1632524051815212,95086.65313091436,284.6091007077778,-120.1871845539351,0.032271765365678384,112.63660176885821,0.0,0.0,0.0,1.16508223105,90298.57452632526,394.0198391552563
2.0,6378708.67828992,-0.083453209395,590.845203655464,286.6541849910168,-0.08088495867791762,-267.7189805519256,571.705868784096,-1.308308838107077e-08,9.325192166100207e-05,9.81243823343328,-6.4046922972007974e-24,9.262771381576568e-05,1.2935911979881413e-08,7.292107787869477e-05,0.0,0.0,267.719110265052,338.087201422416,1.1602082775041767,94779.12502073696,284.43454708166666,-118.98768312760438,0.033573177414798844,111.10717126952306,0.0,0.0,0.0,1.16014337742,89245.58809883031,392.22928818907764
2.1,6378735.36069528,-0.09172497811411681,619.4724583053361,285.8415492138024,-0.08454185500993201,-265.985894225268,598.3910366287921,-1.4379806172719558e-08,9.776969248356147e-05,9.81235598287896,-6.5417142843606005e-24,9.711524641265953e-05,1.4225270951479561e-08,7.292107787869477e-05,0.0,0.0,265.9860232032168,337.984197892584,1.1571838509758339,94473.58718711,284.2611231411111,-117.80562763134179,0.03484115652061035,109.60100502661778,0.0,0.0,0.0,1.15524172286,88208.592335751,390.45310907773273
2.2,6378761.8702180805,-0.1003607796584304,648.018956463432,285.0369712778256,-0.08816493903944161,-264.263052538116,624.9034093484161,-1.573358305266042e-08,0.000102274682514303,9.812274265938,-6.700748646580372e-24,0.00010159008400385348,1.5571689011377627e-08,7.292107787869477e-05,0.0,0.0,264.263180790336,337.881861341352,1.1541790085951928,94170.02781079152,284.08882217611114,-116.64068963470773,0.036076472666582475,108.11765894837882,0.0,0.0,0.0,1.15037678842,87187.28468604009,388.6911140471037
2.3,6378788.20783368,-0.1093572523235136,676.4854962881761,284.2403347205304,-0.091754580888744,-262.55030063804884,651.2440036368961,-1.7143891403846214e-08,0.00010676701823479406,9.812193079440481,-6.85523917023015e-24,0.00010605235221984699,1.6974638542475612e-08,7.292107787869477e-05,0.0,0.0,262.5504281733792,337.78018784899206,1.1511936351235506,93868.43524969657,283.91763758055555,-115.49254855081179,0.03727987614475285,106.65669946664536,0.0,0.0,0.0,1.14554810499,86181.36979888365,386.9431191366463
2.4,6378814.3745784,-0.11871107101233361,704.872864413504,283.4515252559376,-0.09531114335457361,-260.8474866063456,677.413820850624,-1.861020936518606e-08,0.00011124682430186037,9.812112420307919,-7.12130618127977e-24,0.0001105021748798404,1.8433597683773513e-08,7.292107787869477e-05,0.0,0.0,260.84761343454005,337.67917355064003,1.1482276170744907,93568.79803937594,283.74756284666665,-114.36089140856384,0.03845209814431592,105.21770323704912,0.0,0.0,0.0,1.14075521305,85190.55931781596,385.2089441103906
2.5,6378840.37139712,-0.1284189465137904,733.1818361805119,282.6704307231336,-0.0988349820803136,-259.1544613915392,703.413847304112,-2.013202071797673e-08,0.00011571422358249248,9.812032285492322,-7.504200338099218e-24,0.0001149396740258333,1.994805021647134e-08,7.292107787869477e-05,0.0,0.0,259.15458752082725,337.578814633248,1.1452808426675019,93271.10488631294,283.57859156333336,-113.24541263693519,0.039593851319883105,103.80025684632139,0.0,0.0,0.0,1.13599766251,84214.57168393172,383.4884123700001
2.6,6378866.199265201,-0.138477624793752,761.413175832528,281.8969410353688,-0.1023264457230264,-257.4710787396168,729.245054538216,-2.1708814775021925e-08,0.00012016933718683251,9.8119526719152,-7.77420534365883e-24,0.00011936496995382755,2.1517485453369084e-08,7.292107787869477e-05,0.0,0.0,257.4712041788376,337.479107350824,1.1423532017815918,92975.3446669658,283.4107174177778,-112.14581385811633,0.040705830339815265,102.40395653161028,0.0,0.0,0.0,1.13127501242,83253.13194292854,381.7813508724612
2.7,6378891.859158001,-0.14888388630834,789.567636728472,281.1309481325088,-0.1057858761140832,-255.79719512970723,754.9083996157921,-2.334008627135717e-08,0.00012461228450028823,9.811873576680961,-7.925666642798613e-24,0.00012377818124682105,2.3141398129666745e-08,7.292107787869477e-05,0.0,0.0,255.79731988770004,337.380048009192,1.1394445859501348,92681.50642345846,283.2439341894445,-111.06180368111944,0.041788712416139184,101.02840790958395,0.0,0.0,0.0,1.12658683083,82305.97155789509,380.0875900498292
2.8,6378917.352020401,-0.1596345453272736,817.6459615440241,280.37234593287604,-0.10921360841948881,-254.13266971220642,780.40482537468,-2.5025335259512623e-08,0.00012904318321547254,9.811794996802561,-7.961815409608562e-24,0.00012817942480581517,2.4819288297864345e-08,7.292107787869477e-05,0.0,0.0,254.13279379689604,337.28163296904,1.1365548883144865,92389.57935975012,283.0782357516667,-109.99309751050488,0.04284315781720519,99.6732257113167,0.0,0.0,0.0,1.12193269454,81372.82823167543,378.40696372897537
2.9,6378942.67879728,-0.17072644927702563,845.6488824606,279.6210302872248,-0.11260997128984321,-252.47736424476963,805.735260698976,-2.6764067005142392e-08,0.00013346214936309586,9.81171692944536,-8.323706935338041e-24,0.0001325688158818084,2.655066122336185e-08,7.292107787869477e-05,0.0,0.0,252.47748766499524,337.18385864592005,1.1336840035982156,92099.55284115646,282.9136160666667,-108.93941735288348,0.04386981036126183,98.33803352962994,0.0,0.0,0.0,1.11731218895,80453.44573114846,376.7393090564784
3.0,6378967.84034208,-0.1821564780970848,873.577121363472,278.8768989342408,-0.11597528701121759,-250.831143034704,830.9006207842081,-2.8555791886144492e-08,0.00013786929734216024,9.81163937174424,-8.706803042967492e-24,0.00013694646810580215,2.8335027284259288e-08,7.292107787869477e-05,0.0,0.0,250.8312657980856,337.086721501104,1.1308318280710274,91811.41638908278,282.7500691877778,-107.90049163587406,0.04486929789588513,97.02246357088134,0.0,0.0,0.0,1.11272490783,79547.5737206045,375.08446642300044
3.1,6378992.83763016,-0.1939215436114584,901.4313900124561,278.1398514572592,-0.11930987164902,-249.1938728789232,855.901807368984,-3.040002529352615e-08,0.00014226473994945557,9.81156232089504,-9.290837802986651e-24,0.00014131249351679567,3.017190187165665e-08,7.292107787869477e-05,0.0,0.0,249.19399499369044,336.99021806292,1.1279982595384566,91525.15967767246,282.5875892538889,-106.87605503150886,0.045842232758636504,95.72615641787479,0.0,0.0,0.0,1.10817045317,78654.96759847374,373.44227939332325
3.2,6379017.67151496,-0.2060185889141952,929.212390246128,277.4097892415928,-0.12261403519155602,-247.56542300877842,880.7397090032161,-3.229628753558523e-08,0.0001466485884083573,9.81148577415456,-9.983924696585655e-24,0.00014566700258878995,3.2060805293653934e-08,7.292107787869477e-05,0.0,0.0,247.56554448285604,336.894344896272,1.125183197290328,91240.77253428567,282.4261704911111,-105.86584828319779,0.046789212226466564,94.44876079988717,0.0,0.0,0.0,1.10364843497,77775.3883393213,371.81259463329724
3.3,6379042.34291088,-0.21844458776862483,956.920814143368,276.68661543246964,-0.1258880816826168,-245.9456650345848,905.41520127672,-3.424410374261524e-08,0.00015102095239727555,9.81140972881008,-1.0746077941984563e-23,0.00015001010426378297,3.400126268055114e-08,7.292107787869477e-05,0.0,0.0,245.94578587559283,336.799098620928,1.1223865420904497,90958.24493375377,282.26580720833334,-104.86961803980992,0.04771081894390087,93.18993336758842,0.0,0.0,0.0,1.09915847109,76908.60234063046,370.1952618439922
3.4,6379066.8526104,-0.2311965440209224,984.557344203192,275.9702348978472,-0.1291323093583344,-244.33447289136723,929.9291470569601,-3.624300377510105e-08,0.0001553819400763584,9.81133418220984,-1.1256603489483827e-23,0.00015434190597677706,3.599280389304829e-08,7.292107787869477e-05,0.0,0.0,244.3345931069256,336.70447590847203,1.1196081961456918,90677.56699598533,282.1064937988889,-103.88711669509235,0.04860762134339696,91.94933847774767,0.0,0.0,0.0,1.09470018707,76054.38127868301,368.5901336927621
3.5,6379091.201527921,-0.2442714910264752,1012.122653509344,275.260554185436,-0.1323470107764168,-242.7317227879584,954.282396717648,-3.829252213365986e-08,0.0001597316581155919,9.811259131641119,-1.1807114819883033e-23,0.00015866251367777141,3.8034963431445345e-08,7.292107787869477e-05,0.0,0.0,242.73184238538244,336.610473476208,1.1168480630699076,90398.72898452969,281.94822473500005,-102.91810223376204,0.04948017405013246,90.72664798416672,0.0,0.0,0.0,1.09027321596,75212.50196108817,366.9970657520261
3.6,6379115.39045592,-0.25766649108752643,1039.617405904032,274.5574814888664,-0.13553247293989681,-241.137293155488,978.475788364296,-4.039219787002944e-08,0.00016407021172010723,9.811184574543601,-1.2178699873782501e-23,0.00016297203186776518,4.012728034794235e-08,7.292107787869477e-05,0.0,0.0,241.1374121420928,336.51708808716,1.1141060478839344,90121.72130322533,281.7909945711111,-101.96233807759722,0.05032901826855558,89.52154103528596,0.0,0.0,0.0,1.08587719819,74382.74619223889,365.41591643341985
3.7,6379139.42024784,-0.271378634906364,1067.042256149472,273.8609261395872,-0.13868897720965442,-239.55106418926803,1002.510148062816,-4.254157450207057e-08,0.00016839770465636072,9.81111050838744,-1.2486469235782058e-23,0.0001672705636137582,4.226929815983928e-08,7.292107787869477e-05,0.0,0.0,239.551182572064,336.42421576185603,1.1114027205623853,89849.23304962096,281.63480212111114,-101.02147082479321,0.051155633103969735,88.33534593813751,0.0,0.0,0.0,1.08151210354,73566.26815546367,363.8465463051284
3.8,6379163.29172664,-0.2854050397431096,1094.3978475413041,273.17073029813764,-0.14181676444047842,-237.97285823326558,1026.386287840032,-4.474019972386787e-08,0.0001727142388779351,9.811036930612321,-1.3132300211081132e-23,0.0001715582101847523,4.4460564561536115e-08,7.292107787869477e-05,0.0,0.0,237.97297601987282,336.331096210224,1.1088932108767773,89601.52605621058,281.47967353555555,-100.10919857720279,0.05196783417961385,87.1798615649701,0.0,0.0,0.0,1.07717973486,72772.9740043856,362.2887274273041
3.9,6379187.0056848,-0.299742845920272,1121.68480665384,272.4867568566384,-0.1449160759083912,-236.40251707006803,1050.1050011574,-4.698762485769642e-08,0.00017701991369162135,9.81096383874936,-1.4147696750179673e-23,0.0001758350702207458,4.670063087543291e-08,7.292107787869477e-05,0.0,0.0,236.40263426688722,336.238590641616,1.1064002475518122,89355.45230966591,281.3255677838889,-99.20905577100558,0.05275808648697514,86.04052952119817,0.0,0.0,0.0,1.0728767688,71990.81087109739,360.74226039836583
4.0,6379210.562853841,-0.314389219479384,1148.903750106624,271.80892322221445,-0.14798717470364642,-234.83993099423043,1073.6670689856721,-4.928340527098089e-08,0.00018131482683341417,9.810891230390641,-1.5247103823378096e-23,0.00018010124079774074,4.898905246852962e-08,7.292107787869477e-05,0.0,0.0,234.84004760827202,336.146696008032,1.1039237485031053,89111.00370816828,281.17247979333337,-98.32083696820006,0.053526867571112635,84.9170696996377,0.0,0.0,0.0,1.06860288718,71219.58871166913,359.2070189233406
4.1,6379233.9640872,-0.32934135250012797,1176.055286356656,271.13714819797445,-0.1510303190872464,-233.28499219799284,1097.0732614355761,-5.162710042516478e-08,0.00018559907473938693,9.810819103158721,-1.6684976408776027e-23,0.00018435681770773507,5.1325388802626255e-08,7.292107787869477e-05,0.0,0.0,233.2851082359624,336.055409304144,1.1014636327904137,88868.1722614601,281.02040456000003,-97.44434118078557,0.054274643833845386,83.80920798263503,0.0,0.0,0.0,1.06435777811,70459.12158072104,357.68287914108987
4.2,6379257.21008592,-0.344596462624848,1203.1400158142162,270.4713519525312,-0.15404576259457442,-231.7375947319608,1120.324337916312,-5.401827380170848e-08,0.00018987275257710776,9.81074745467616,-1.806226447817405e-23,0.00018860189547572782,5.370920335922284e-08,7.292107787869477e-05,0.0,0.0,231.73771020025922,335.964727570344,1.099019820591866,88626.95009132354,280.8693371488889,-96.57937175644308,0.055001870835786705,82.71667608548952,0.0,0.0,0.0,1.06014113586,69709.22752273535,356.16971957492296
4.3,6379280.301581521,-0.360151792596168,1230.158530995264,269.81145599135044,-0.1570337541375024,-230.19763446426242,1143.421047342816,-5.6456492828261775e-08,0.0001941359542592531,9.810676282626481,-1.96972387025717e-23,0.00019283656738472248,5.614006356561934e-08,7.292107787869477e-05,0.0,0.0,230.19774936898563,335.87464788360006,1.096592233193655,88387.329428229,280.71927269500003,-95.72573626421587,0.05570899358992684,81.6392114065485,0.0,0.0,0.0,1.05595266072,68969.72847246533,354.66742108423944
4.4,6379303.2393969605,-0.37600460979064804,1257.111416646408,269.1573831280992,-0.15999453809857442,-228.66500904244802,1166.3641283034,-5.8941328806581834e-08,0.0001983887724715328,9.810605584723682,-2.135563894396932e-23,0.00019706092549571624,5.861754072391578e-08,7.292107787869477e-05,0.0,0.0,228.6651233903016,335.78516736355203,1.0941807929642697,88149.30260894101,280.5702063994445,-94.88324638997632,0.05639644684631911,80.57655688086071,0.0,0.0,0.0,1.05179205893,68240.45015486552,353.17586681514257
4.5,6379326.02417232,-0.3921522057737761,1283.9992498698723,268.5090574563,-0.1629283544300664,-227.13961785691444,1189.154309236536,-6.147235684254542e-08,0.0002026312986849077,9.810535358681761,-2.2762815384067292e-23,0.0002012750606667103,6.114120993971216e-08,7.292107787869477e-05,0.0,0.0,227.1397316539944,335.69628317251204,1.0917854233493403,87912.86207651832,280.42213352944447,-94.0517178292238,0.057064655366980015,79.52846083827804,0.0,0.0,0.0,1.0476590425,67521.22198597965,351.69494215671136
4.6,6379348.6566696,-0.408591895867152,1310.8226002576082,267.8664043215936,-0.16583543874420723,-225.6213620031096,1211.792308604592,-6.404915577685942e-08,0.00020686362318351467,9.81046560230616,-2.406255528016543e-23,0.00020547906257370417,6.371065005410847e-08,7.292107787869477e-05,0.0,0.0,225.62147525581682,335.60799250632004,1.0894060488252546,87678.00037744099,280.27504941722225,-93.23097018522031,0.05771403419278256,78.49467686689518,0.0,0.0,0.0,1.04355332914,66811.87698244693,350.2245346936717
4.7,6379371.137620321,-0.425321018715672,1337.5820300101682,267.2293502964408,-0.168716022405228,-224.11014424739523,1234.2788350706162,-6.667130811821461e-08,0.00021108583507862926,9.81039631340232,-2.5206391017063785e-23,0.00020967301973069745,6.632544357530471e-08,7.292107787869477e-05,0.0,0.0,224.1102569615208,335.52029260044003,1.08704259491462,87444.71015873764,280.1289494577778,-92.42082687201939,0.058344988903232343,77.47496367915815,0.0,0.0,0.0,1.03947464211,66112.25167005077,348.76453416318355
4.8,6379393.46766456,-0.44233693586995204,1364.278094058624,266.5978231536048,-0.171570332615316,-222.6058689907752,1256.61458764464,-6.93383999766142e-08,0.00021529802233310048,9.8103274897452,-2.594632996356272e-23,0.0002138570195066925,6.898517661370087e-08,7.292107787869477e-05,0.0,0.0,222.6059811724152,335.43318072996004,1.0846949881398784,87212.98416942188,279.98382910944446,-91.6211150174947,0.05895791586467838,76.46908498153131,0.0,0.0,0.0,1.03542271015,65422.18599274619,347.3148324121412
4.9,6379415.647564321,-0.459637031368752,1390.9113401864881,265.9717518414624,-0.1743985925045304,-221.10844223689202,1278.800255869608,-7.20500209989711e-08,0.00021950027177531332,9.81025912926216,-2.682844058306145e-23,0.00021803114814668585,7.168943881599699e-08,7.292107787869477e-05,0.0,0.0,221.1085538915328,335.34665420349603,1.0823631560336138,86982.81525474659,279.83968389333336,-90.83166537037242,0.05955320247629971,75.4768093499473,0.0,0.0,0.0,1.03139726735,64741.523231263534,345.8753233549897
5.0,6379437.6779292,-0.477218711339688,1417.4823091394398,265.351066458096,-0.1772010212100504,-219.617771557584,1300.8365199585362,-7.480576430592706e-08,0.00022369266911838732,9.810191229789119,-2.7565148358860396e-23,0.00022219549078967966,7.443782330289305e-08,7.292107787869477e-05,0.0,0.0,219.61788269132163,335.260710369288,1.0800470271024767,86754.19635859801,279.69650938833337,-90.05231221037697,0.06013122740452672,74.49791010792562,0.0,0.0,0.0,1.02739805307,64070.10991644511,344.4459029341123
5.1,6379459.559490721,-0.495079403612136,1443.9915347442002,264.73569822904324,-0.17997783396273842,-218.1337660611864,1322.724050962152,-7.760522642954432e-08,0.00022787529898112062,9.81012378928392,-2.825177293405941e-23,0.00022635013148367437,7.722992660648903e-08,7.292107787869477e-05,0.0,0.0,218.133876679812,335.175346612152,1.0777465308065686,86527.12051822888,279.55430123555556,-89.2828932606011,0.06069236081123487,73.53216520647076,0.0,0.0,0.0,1.02342481178,63407.79575072155,343.0264690776461
5.2,6379481.2928584805,-0.513216557317944,1470.4395440182561,264.12557948260803,-0.1827292421630352,-216.65633636235603,1344.4635109182482,-8.044800725274282e-08,0.0002320482449019525,9.81005680564344,-2.8826921995758583e-23,0.00023049515320666835,8.006534860958496e-08,7.292107787869477e-05,0.0,0.0,216.65644647135605,335.090560347384,1.075461597569749,86301.58086569485,279.41305513333333,-88.52324960076567,0.061236964577045465,72.57935711153215,0.0,0.0,0.0,1.01947729304,62754.433529109454,341.616921663471
5.3,6379502.87873352,-0.5316276425195761,1496.8268572765442,263.52064362822,-0.185455453460208,-215.1853945500672,1366.055552997984,-8.333370994960984e-08,0.00023621158935990745,9.80999027691696,-2.9327754048757864e-23,0.00023463063788266265,8.294369248638082e-08,7.292107787869477e-05,0.0,0.0,215.18550415462323,335.006349026856,1.0731921587384052,86077.57062498167,279.2727668377778,-87.77322558804116,0.06176539251395058,71.63927269057447,0.0,0.0,0.0,1.01555525134,62109.87906212411,340.21716247959716
5.4,6379524.3177254405,-0.5503101498382561,1523.153988241176,262.92082513266,-0.1881566718297696,-213.72085415804642,1387.50082165524,-8.626194092728057e-08,0.0002403654137885577,9.80992420103184,-2.9696107954457334e-23,0.0002387566663966568,8.586456464397664e-08,7.292107787869477e-05,0.0,0.0,213.7209632636448,334.92271013901603,1.0709381465762995,85855.08310913238,279.1334321616667,-87.03266877342122,0.06227799057749331,70.71170310448593,0.0,0.0,0.0,1.01165844607,61473.99110443793,338.8270951881547
5.5,6379545.61047432,-0.5692615900973521,1549.42144414812,262.3260594999432,-0.19083309764632564,-212.26263013612083,1408.7999527668242,-8.923230976869133e-08,0.00024450979859347657,9.80985857603736,-2.977042499425723e-23,0.00024287331861565044,8.882757466527238e-08,7.292107787869477e-05,0.0,0.0,212.2627387485528,334.83964120584,1.0686994942542605,85634.11172168369,278.99504697333333,-86.30142982565796,0.06277509706604804,69.79644370126576,0.0,0.0,0.0,1.00778664134,60846.63128018726,337.4466252888675
5.6,6379566.75765072,-0.58847949395052,1575.62972583864,261.7362832496784,-0.1934849277552024,-210.81063882278642,1429.953573775728,-9.224442917620535e-08,0.0002486448231679464,9.8097933999828,-3.010969833265674e-23,0.000246980673399644,9.183233525276807e-08,7.292107787869477e-05,0.0,0.0,210.810746946624,334.757139776736,1.0664761358141068,85414.6499533144,278.85760719722225,-85.57936245475268,0.06325704281876637,68.89329391593917,0.0,0.0,0.0,1.00393960599,60227.664015461174,336.0756600856143
5.7,6379587.75980328,-0.607961411546424,1601.77932787512,261.151433895732,-0.19611235554407522,-209.36479791533762,1450.962303831336,-9.529791491785676e-08,0.0002527705659121572,9.809728670978402,-3.098534661755548e-23,0.0002510788086186384,9.487846217426368e-08,7.292107787869477e-05,0.0,0.0,209.3649055560672,334.675203437688,1.064268006189263,85196.69138040894,278.72110880944444,-84.86632333900496,0.0637241514059609,68.0020571695828,0.0,0.0,0.0,1.00011711341,59616.95646935398,334.7141086483606
5.8,6379608.617633041,-0.6277049121812641,1627.870738629456,260.57144992672085,-0.1987155710124624,-207.92502644487362,1471.826753908296,-9.839238577202355e-08,0.00025688710424367854,9.809664387073441,-3.260093383615316e-23,0.00025516780117163277,9.796557420845925e-08,7.292107787869477e-05,0.0,0.0,207.9251336076768,334.593829808208,1.0620750411583744,84980.22966362105,278.58554784055553,-84.16217205250659,0.06417673931415133,67.12254077146379,0.0,0.0,0.0,0.996318941543,59014.37846836914,333.36188178537765
5.9,6379629.33165816,-0.647707583963496,1653.904440377544,259.9962707865048,-0.2012947608372576,-206.49124474917122,1492.5475269589201,-1.01527463476464e-07,0.0002609945146149131,9.809600546469602,-3.402265059595112e-23,0.00025924772699862714,1.0109329309285475e-07,7.292107787869477e-05,0.0,0.0,206.49135143892482,334.513016532192,1.0598971773556152,84765.25854835249,278.45092037333336,-83.46677099752871,0.0646151161257726,66.25455582785123,0.0,0.0,0.0,0.99254487272,58419.80244321748,332.01889200466013
6.0,6379649.90251872,-0.667967033487696,1679.880909399864,259.42583685468,-0.2038501084400904,-205.063374446472,1513.125218035104,-1.047027726749096e-07,0.0002650928725288042,9.80953714724664,-3.59128876442484e-23,0.00026331866109362,1.0426124347085019e-07,7.292107787869477e-05,0.0,0.0,205.06348066835758,334.43276129316,1.0577343522243048,84551.77186092266,278.3172225416667,-82.77998533423987,0.06503958469443483,65.39791714860357,0.0,0.0,0.0,0.988794693639,57833.10336513632,330.68505348717434
6.1,6379670.33079384,-0.68848088551452,1705.8006160759683,258.8600894270712,-0.20638179405072482,-203.64133841231762,1533.560414401104,-1.0791794086767216e-07,0.00026918225255628944,9.80947418760624,-3.81359356587452e-23,0.0002673806775236148,1.0746905284384559e-07,7.292107787869477e-05,0.0,0.0,203.64144417090725,334.353061795968,1.0555865040529835,84339.76350904742,278.18445053,-82.10168291754123,0.0654504413126212,64.55244315864891,0.0,0.0,0.0,0.985068195257,57254.1586879544,329.3602820529052
6.2,6379690.61706264,-0.7092467826415201,1731.664024963728,258.2989706995776,-0.20888999477015283,-202.22506075272722,1553.853695685936,-1.1117259836190212e-07,0.00027326272834153674,9.80941166578056,-4.0573856775141703e-23,0.00027143384944160876,1.1071635151784092e-07,7.292107787869477e-05,0.0,0.0,202.2251660528976,334.273915788144,1.0534535719084133,84129.22747800862,278.0526005716667,-81.43173423256744,0.0658479758771619,63.71795581213444,0.0,0.0,0.0,0.98136517272,56682.84828632639,328.044495130504
6.3,6379710.76187376,-0.730262385016632,1757.4715948968721,257.742423748056,-0.21137488463064,-200.81446678133761,1574.0056339839603,-1.1446637822202094e-07,0.0002773343726263786,9.80934957997128,-4.30812481470381e-23,0.0002754782490986026,1.140027725578362e-07,7.292107787869477e-05,0.0,0.0,200.81457162796562,334.19532102940803,1.0513354956716552,83920.15783400577,277.92166895055556,-80.7700123315218,0.06623247204848041,62.894280508799774,0.0,0.0,0.0,0.977685425287,56119.054400670546,326.7376117289941
6.4,6379730.7658367995,-0.75152537001204,1783.2237790764239,257.1903925121664,-0.2138366346563808,-199.4094829971528,1594.016793973752,-1.1779891622329559e-07,0.0002813972572572936,9.80928792841056,-4.591498813883404e-23,0.00027951394785759754,1.1732795173883141e-07,7.292107787869477e-05,0.0,0.0,199.40958739481042,334.117275322152,1.0492322159813774,83712.54871793161,277.7916519966667,-80.11639277584948,0.06660420740628126,62.081246011684904,0.0,0.0,0.0,0.974028756255,55562.661581148786,325.4395524094764
6.5,6379750.6295004,-0.7730334319407121,1808.9210251377601,256.64282177769365,-0.21627541292202002,-198.01003705985522,1613.8877330491682,-1.2116985080366727e-07,0.00028545145320286,9.80922670936104,-4.89296739038297e-23,0.00028354101621059233,1.206915274998266e-07,7.292107787869477e-05,0.0,0.0,198.0101410128096,334.03977649315203,1.0471436742596227,83506.39434680842,277.66254609,-79.47075357396227,0.0669634535998999,61.278684367507,0.0,0.0,0.0,0.97039497289,55013.55663404089,324.15023925323374
6.6,6379770.353413201,-0.794784281757696,1834.5637752603361,256.0996571603928,-0.21869138460934562,-196.6160577684696,1633.6190014290721,-1.2457882301907107e-07,0.00028949703056248163,9.8091659211768,-5.154046287632594e-23,0.0002875595237865863,1.240931408948217e-07,7.292107787869477e-05,0.0,0.0,196.6161612815976,333.96282239356805,1.0450698126705809,83301.68901283054,277.53434765444445,-78.83297512786012,0.06731047649420441,60.486430830595864,0.0,0.0,0.0,0.966783886351,54471.62856763968,322.869595838581
6.7,6379789.93809336,-0.816775646779704,1860.1524662256002,255.5608450895304,-0.2210847120630672,-195.2274750400272,1653.2111422640162,-1.2802547649770834e-07,0.0002935340585855873,9.80910556212048,-5.342746878872324e-23,0.000291569539367581,1.2753243555381674e-07,7.292107787869477e-05,0.0,0.0,195.2275781179008,333.886410908088,1.0430105741308933,83098.4270809703,277.4070531616667,-78.20294017530408,0.06764553631327305,59.7043237868293,0.0,0.0,0.0,0.963195311627,53936.76854341327,321.5975472115418
6.8,6379809.38408952,-0.839005270392504,1885.6875295084321,255.0263327923392,-0.22345555484476562,-193.84421988853438,1672.6646917459682,-1.3150945739623895e-07,0.00029756260567861183,9.809045630546159,-5.629028937781911e-23,0.00029557113090157436,1.3100905763181178e-07,7.292107787869477e-05,0.0,0.0,193.84432253481123,333.810539942736,1.0409659022838869,82896.60298802039,277.28065912777777,-77.5805337359929,0.06796888777606498,58.932204680237476,0.0,0.0,0.0,0.959629067466,53408.86982429434,320.334019858583
6.9,6379828.691950321,-0.861470911797936,1911.169391356392,254.496068277864,-0.22580406978684242,-192.46622440241762,1691.980179236328,-1.3503041435649703e-07,0.000301582739422449,9.80898612477744,-5.878152491691555e-23,0.00029956436551356814,1.3452265577180672e-07,7.292107787869477e-05,0.0,0.0,192.46632662197442,333.735207434016,1.038935741489264,82696.21124211511,277.15516211333335,-76.96564306129814,0.06828078023298072,58.16991794272102,0.0,0.0,0.0,0.956084976311,52887.82772871507,319.07894168397917
7.0,6379847.862163439,-0.8841703457152081,1936.5984728720161,253.9700003223312,-0.2281304110434216,-191.09342172654002,1711.1581273451761,-1.3858799846290506e-07,0.00030559452657943356,9.80892704322936,-6.099164828861236e-23,0.0003035493095175635,1.380728810588016e-07,7.292107787869477e-05,0.0,0.0,191.09352352364402,333.660411345864,1.0369200368127967,82497.24642129395,277.0305587227778,-76.35815757910615,0.06858145779575017,57.41731092554841,0.0,0.0,0.0,0.952562864235,52373.53958129049,317.83224198151805
7.1,6379866.895308001,-0.9071013621431521,1961.9751900707279,253.4480784539088,-0.23043473014338484,-189.7257460411704,1730.199052059288,-1.4218186320058585e-07,0.0003095980331073031,9.808868384316959,-6.365413608520855e-23,0.0003075260284295573,1.4165938697579647e-07,7.292107787869477e-05,0.0,0.0,189.72584742039362,333.586149660504,1.0349187340314794,82299.70317302275,276.90684560333335,-75.75796884844628,0.06887115946376218,56.67423382951889,0.0,0.0,0.0,0.949062560878,51865.90466685345,316.59385141237954
7.2,6379885.79181072,-0.930261766082856,1987.2999539722803,252.9302529386856,-0.2327171760367008,-188.3631325436952,1749.103462821384,-1.45811664414871e-07,0.00031359332417665197,9.808810146394322,-6.70985681000036e-23,0.000311494586979551,1.4528182937079127e-07,7.292107787869477e-05,0.0,0.0,188.36323350869523,333.512420396736,1.0329317795922992,82103.57621132092,276.7840194455556,-75.16497050744668,0.06915011924772498,55.940539641352885,0.0,0.0,0.0,0.945583899384,51364.82418879876,315.36370197838454
7.3,6379904.552250721,-0.953649377281632,2012.5731706708561,252.41647476695522,-0.2349778951462416,-187.0055174281968,1767.871862658144,-1.4947706027133275e-07,0.0003175804641726763,9.808752327967921,-7.015202801829921e-23,0.0003154550491205468,1.48939866406786e-07,7.292107787869477e-05,0.0,0.0,187.00561798293603,333.439221591648,1.030959120627697,81908.86031771901,276.6620769811111,-74.57905822929689,0.06941856628932346,55.216084069637645,0.0,0.0,0.0,0.942126716345,50870.20122263937,314.1417270019318
7.4,6379923.177054721,-0.97726202999832,2037.79524139908,251.9066956376712,-0.23721703141258801,-185.6528378683848,1786.5047482564082,-1.531777112159907e-07,0.0003215595167143726,9.808694927452802,-7.226844735959616e-23,0.00031940747804354086,1.526331585317807e-07,7.292107787869477e-05,0.0,0.0,185.65293801713042,333.36655130366404,1.0290007049297984,81715.55033886479,276.5410149827778,-74.00012967331736,0.06967672497820737,54.500725482996934,0.0,0.0,0.0,0.938690851737,50381.94067578693,312.92786109924674
7.5,6379941.666771361,-1.0010975727411602,2062.966562607264,251.4008679471696,-0.23943472634218801,-184.30503199930803,1805.002610072904,-1.569132799369142e-07,0.00032553054465977386,9.808637943355441,-7.400681929819367e-23,0.0003233519361855354,1.5636136843177535e-07,7.292107787869477e-05,0.0,0.0,184.3051317457176,333.29440762778404,1.027056480955568,81523.64118700191,276.4208302638889,-73.42808444314623,0.06992481506453133,53.79432484826078,0.0,0.0,0.0,0.935276148866,49899.949244938376,311.72204016134697
7.6,6379960.02188832,-1.025153868039192,2088.087526018272,250.89894477453842,-0.24163111905185763,-182.96203889906639,1823.3659324195921,-1.6068343132617453e-07,0.00032949361012340285,9.80858137415184,-7.538653087919169e-23,0.00032728848524052817,1.6012416100176992e-07,7.292107787869477e-05,0.0,0.0,182.96213824710242,333.22278866510396,1.0251263977958858,81333.12783709718,276.3015196777778,-72.86282404136749,0.07016305177060508,53.09674567174891,0.0,0.0,0.0,0.931882454312,49424.135377292914,310.5242013298634
7.7,6379978.242832321,-1.049428792198416,2113.1585187189603,250.40087986851123,-0.2438063463138912,-181.623798572352,1841.595193567296,-1.6448783244336726e-07,0.0003334487744797628,9.80852521834848,-7.744478909818873e-23,0.0003312171861735228,1.6392120329876448e-07,7.292107787869477e-05,0.0,0.0,181.62389752597682,333.151692559392,1.023210405180702,81144.00532779821,276.18308011722223,-72.30425182814238,0.07039164589676139,52.40785394455765,0.0,0.0,0.0,0.92850961787,48954.40923176898,309.3342829759481
7.8,6379996.330121521,-1.073920235073192,2138.1799231998,249.90662763618963,-0.2459605425987336,-180.29025193338003,1859.690865831048,-1.683261524780879e-07,0.00033739609838079045,9.8084694745128,-8.010727694558491e-23,0.00033513809922651835,1.67752164512759e-07,7.292107787869477e-05,0.0,0.0,180.29035049655602,333.08111746356,1.021308453473883,80956.26875808164,276.0655085133333,-71.75227297939631,0.0706108039254442,51.727518082508944,0.0,0.0,0.0,0.925157492499,48490.68263926369,308.15222467969676
7.9,6380014.28418264,-1.098626099828496,2163.152117440224,249.4161431299368,-0.248093840117652,-178.9613407897344,1877.653415667624,-1.7219806271467603e-07,0.00034133564176109236,9.80841414118176,-8.306380167618066e-23,0.0003390512839305122,1.716167159297534e-07,7.292107787869477e-05,0.0,0.0,178.96143896642403,333.011061561,1.019420493642288,80769.91328964733,275.94880183555557,-71.20679444678468,0.07082072812396271,51.055608874550956,0.0,0.0,0.0,0.921825934269,48032.86906722139,306.9779672090561
8.0,6380032.10553384,-1.123544302738752,2188.0754749604403,248.92938203427119,-0.2502063688641888,-177.63700782621362,1895.4833037456483,-1.761032364974834e-07,0.0003452674638466713,9.808359216922799,-8.543225266437726e-23,0.0003429567991165061,1.7551453089174785e-07,7.292107787869477e-05,0.0,0.0,177.63710561946482,332.941523050344,1.0175464772712304,80584.93414260901,275.83295709055557,-70.66772491899349,0.07102161664190733,50.39199942982423,0.0,0.0,0.0,0.918514802308,47580.8835842023,305.81145250027504
8.1,6380049.794571361,-1.148672772943992,2212.95036488544,248.44630065641763,-0.2522982566556144,-176.3171965877616,1913.180985061416,-1.8004134919474551e-07,0.00034919162317587044,9.80830470030336,-8.792671946397366e-23,0.00034685470292450133,1.7944528476974214e-07,7.292107787869477e-05,0.0,0.0,176.31729400153682,332.87250016375197,1.0156863565387098,80401.32659693077,275.71797132222224,-70.13497478348451,0.0712136636076762,49.736565124283075,0.0,0.0,0.0,0.915223958752,47134.64282301469,304.6526236378417
8.2,6380067.35178288,-1.1740094522456401,2237.777152015104,247.96685591228643,-0.2543696291704176,-175.00185146697123,1930.7469089937601,-1.8401207816699123e-07,0.0003531081775923919,9.808250589951841,-9.009806882487054e-23,0.0003507450528124945,1.8340865492173648e-07,7.292107787869477e-05,0.0,0.0,175.00194850462321,332.80399114557605,1.013840084205104,80219.08599003297,275.6038416105556,-69.60845608913034,0.07139705922188765,49.089183551320254,0.0,0.0,0.0,0.911953268697,46694.06494786905,303.5014248344199
8.3,6380084.7775951205,-1.199552294899248,2262.556196876016,247.4910053173296,-0.2564206099909776,-173.69091768579602,1948.181519410728,-1.8801510273265984e-07,0.00035701718426973115,9.80819688452712,-9.212078416706765e-23,0.00035462790556849036,1.874043206677307e-07,7.292107787869477e-05,0.0,0.0,173.6910143512872,332.735994261504,1.0120076136234761,80038.20771679231,275.49056507222224,-69.0880825092941,0.07157198984767932,48.449734472391754,0.0,0.0,0.0,0.908702600147,46259.069620861854,302.35780141284346
8.4,6380102.072434801,-1.225299267401136,2287.287855779376,247.0187069737392,-0.2584513206367872,-172.384341283968,1965.485254742736,-1.9205010413354336e-07,0.0003609186997111776,9.80814358259664,-9.374929622996531e-23,0.00035850331731548474,1.9143196324872489e-07,7.292107787869477e-05,0.0,0.0,172.38443758034643,332.66850780770403,1.0101888987138061,79858.687229063,275.3781388588889,-68.57376930891257,0.07173863810056215,47.81809976986562,0.0,0.0,0.0,0.905471823966,45829.577969273436,301.2216997881109
8.5,6380119.236789601,-1.251248348275032,2311.972480888056,246.54991956038882,-0.26046188060682,-171.08206910162403,1982.6585480648641,-1.9611676550860673e-07,0.0003648127797637765,9.80809068284976,-9.610805373096193e-23,0.000362371343525478,1.954912658027191e-07,7.292107787869477e-05,0.0,0.0,171.082165032852,332.601530089488,1.0083838939526826,79680.52003424031,275.26656015555557,-68.06543330802086,0.07189718293249169,47.19416340031565,0.0,0.0,0.0,0.902260813838,45405.51255430207,300.0930674478365
8.6,6380136.2710252805,-1.277397527895288,2336.61042026232,246.08460232308002,-0.2624524074115344,-169.78404876802801,1999.701827170008,-2.0021477185209994e-07,0.0003686994796253109,9.80803818397584,-9.851204768255846e-23,0.0003662320390244736,1.9958191332771326e-07,7.292107787869477e-05,0.0,0.0,169.78414433715358,332.53505944264805,1.0065925543836116,79503.70169286666,275.1558261838889,-67.56299284839065,0.07204779971727404,46.57781134781503,0.0,0.0,0.0,0.899069446212,44986.797340037665,298.9718529347592
8.7,6380153.17559904,-1.3037448073255922,2361.2020170551523,245.62268752397523,-0.26442298714748164,-168.49020975764162,2016.61551406596,-2.04343809849497e-07,0.00037257885371514674,9.807986084633761,-1.0048952660985561e-22,0.00037008545786646683,2.0370359250470732e-07,7.292107787869477e-05,0.0,0.0,168.4903049680176,332.468263059096,1.004944491069088,79344.76045549905,275.045971125,-67.07500657218925,0.07219995925118027,45.97485282342982,0.0,0.0,0.0,0.895899739467,44579.09914909342,297.85797241405584
8.8,6380169.9509071205,-1.330288194752808,2385.747606439872,245.16410356768802,-0.26637369777213843,-167.2004795801856,2033.400022890576,-2.0850356730153726e-07,0.00037645095519426783,9.807934383543362,-1.0294521936885208e-22,0.0003739316528544621,2.0785599113570135e-07,7.292107787869477e-05,0.0,0.0,167.2005744351648,332.40196202736,1.0033113237691558,79187.32754923188,274.93695574,-66.59271586611217,0.07234465867172588,45.37915964168393,0.0,0.0,0.0,0.892749227384,44176.55461987331,296.75133789831125
8.9,6380186.59737624,-1.357025708342952,2410.2475186307042,244.70881254593763,-0.2683046505893208,-165.91480944327603,2050.0557620819523,-2.126937335815018e-07,0.00038031583643651423,9.80788307948544,-1.0490977361184928e-22,0.00037777067601045696,2.1203879859569534e-07,7.292107787869477e-05,0.0,0.0,165.91490394590642,332.336169655008,1.0016906860240509,79031.10245745005,274.8287767138889,-66.11589113075253,0.07248189338211868,44.79052066284531,0.0,0.0,0.0,0.889617759521,43778.991092668184,295.6519027248825
9.0,6380203.115402641,-1.383955377301896,2434.702080089784,244.25677718016,-0.2702159552496096,-164.6331513460944,2066.58313523796,-2.1691399979927424e-07,0.00038417354922231435,9.80783217111888,-1.0595667430384778e-22,0.00038160257876745094,2.1625170599468928e-07,7.292107787869477e-05,0.0,0.0,164.63324549942402,332.270884344888,1.000082538556753,78876.08139521911,274.7214314255556,-65.64446031826482,0.07261182226082455,44.20883420617264,0.0,0.0,0.0,0.886505228711,43386.34115178613,294.5596213340946
9.1,6380219.5054130405,-1.4110752417016321,2459.1116135820243,243.8079606822144,-0.272107719627516,-163.35545797819444,2082.982541186352,-2.2116405877690628e-07,0.00038802414474915634,9.807781657285439,-1.0728791835684584e-22,0.0003854274119764461,2.204944061516832e-07,7.292107787869477e-05,0.0,0.0,163.3555517858808,332.20610452118405,0.9984868425592377,78722.26062117562,274.61491728388893,-65.17835266100171,0.07273460111125381,43.63400030300055,0.0,0.0,0.0,0.883411530225,42998.53856642798,293.47444909895916
9.2,6380235.76774272,-1.4383833523095841,2483.476438226928,243.36232674584883,-0.27398004985287605,-162.0816827088336,2099.2543740701044,-2.2544360501196557e-07,0.0003918676736350792,9.80773153670496,-1.0903921510084333e-22,0.00038924522591444045,2.2476659356667706e-07,7.292107787869477e-05,0.0,0.0,162.08177617362003,332.141828629416,0.9969035596873205,78569.6364384848,274.5092317294445,-64.71749864793851,0.0728503827311534,43.06592065848499,0.0,0.0,0.0,0.880336561729,42615.51826636418,292.3963423087131
9.3,6380251.9028184,-1.4658777703965842,2507.796869544312,242.91983953755602,-0.27583305033980643,-160.8117795744768,2115.399023390088,-2.2975233466182803e-07,0.0003957041859256539,9.8076818082192,-1.110942422568404e-22,0.00039305607029343435,2.2906796439567087e-07,7.292107787869477e-05,0.0,0.0,160.81187269941123,332.078055127296,0.9953326520400432,78418.20519388285,274.4043722322223,-64.26182999575964,0.07295931697710616,42.50449861681817,0.0,0.0,0.0,0.877280223252,42237.2163180904,291.32525815441323
9.4,6380267.911005841,-1.493556567584472,2532.073219500024,242.4804636892584,-0.2776668238190136,-159.54570326782323,2131.4168740934642,-2.3408994550353505e-07,0.0003995337311062008,9.80763247060896,-1.1261289444883822e-22,0.0003968599942634282,2.3339821641766467e-07,7.292107787869477e-05,0.0,0.0,159.54579605595362,332.014782499968,0.9937740821596733,78267.96327624068,274.30033629166667,-63.81127962439353,0.07306155083125407,41.94963912671028,0.0,0.0,0.0,0.874242417144,41863.569901461975,290.2611547150469
9.5,6380283.792701281,-1.52141782567236,2556.305796545568,242.04416428977362,-0.2794814713627872,-158.283409127748,2147.3083066194,-2.3845613692157623e-07,0.0004033563581070254,9.80758352268552,-1.1484240504283498e-22,0.00040065704642742273,2.3775704901565835e-07,7.292107787869477e-05,0.0,0.0,158.2835015818176,331.952009238672,0.9922278130213966,78118.90711752138,274.1971214372222,-63.36578163432656,0.0731572284609045,41.401248707494084,0.0,0.0,0.0,0.871223048044,41494.51728685501,289.20399094364194
9.6,6380299.54830096,-1.5494596364750879,2580.494905676016,241.61090687597522,-0.2812770924182232,-157.02485312741518,2163.073696984416,-2.428506098729829e-07,0.00040717211531039987,9.80753496329064,-1.1702021685283187e-22,0.000404447274839418,2.421441631466521e-07,7.292107787869477e-05,0.0,0.0,157.02494525077682,331.889733859032,0.9906938080539321,77971.03319134386,274.0947252272222,-62.9252712790242,0.0732464912808053,40.859235416297054,0.0,0.0,0.0,0.868222022841,41129.99781314147,288.1537266523474
9.7,6380315.178140161,-1.57768010166168,2604.640848469632,241.1806574257824,-0.28305378483038884,-155.7699918654384,2178.713416825056,-2.4727306686463865e-07,0.0004109810505540537,9.807486791266081,-1.1862287960282955e-22,0.0004082307270174131,2.465592613186457e-07,7.292107787869477e-05,0.0,0.0,155.77008366053042,331.827954898008,0.9891720310828407,77824.33801106767,273.9931452466667,-62.48968494446915,0.07332947801408542,40.32350881588071,0.0,0.0,0.0,0.86523925064,40769.95186595155,287.1103225006017
9.8,6380330.68261512,-1.6060773325907522,2628.7439231244484,240.75338235054002,-0.2848116448728024,-154.51878255399362,2194.2278334679922,-2.517232119288451e-07,0.00041478321114339097,9.8074390054536,-1.2060682095582673e-22,0.0004120074499494066,2.5100204756163936e-07,7.292107787869477e-05,0.0,0.0,154.51887402386402,331.766670898656,0.987662446371755,77678.81813122936,273.89237911055557,-62.058960125585706,0.07340632474785765,39.79397994314721,0.0,0.0,0.0,0.86227464273,40414.320856606355,286.0737399807281
9.9,6380346.06206112,-1.6346494501611601,2652.80442451008,240.32904848678882,-0.2865507672730368,-153.27118300998,2209.617309994032,-2.562007505953959e-07,0.0004185786438584716,9.807391604786401,-1.234114806508227e-22,0.00041577749009840184,2.554722274096329e-07,7.292107787869477e-05,0.0,0.0,153.2712741576768,331.70588043146404,0.986165018591457,77534.47014706374,273.79242446055554,-61.63303540266429,0.07347716499104555,39.27056127862455,0.0,0.0,0.0,0.859328112546,40063.04720138573,285.0439414040448
10.0,6380361.31684392,-1.6633945846656961,2676.8226442073524,239.9076230898648,-0.28827124523984643,-152.0271516449616,2224.882205302128,-2.6070538987586977e-07,0.0004223673949540115,9.807344588075761,-1.2609335572281884e-22,0.0004195408934093956,2.5996950787062644e-07,7.292107787869477e-05,0.0,0.0,152.0272424729232,331.645582076064,0.9846797128198782,77391.29069163099,273.6932789655556,-61.211850420454745,0.07354212972865175,38.75316671644109,0.0,0.0,0.0,0.856399575639,39716.07430146647,284.0208898900613
10.1,6380376.44735976,-1.6923108756204002,2700.798870544872,239.48907382536478,-0.2899731704872464,-150.7866474554136,2240.0228741459523,-2.652368382304684e-07,0.0004261495101733449,9.80729795428536,-1.2895617658081473e-22,0.0004232977053173905,2.6449359740462e-07,7.292107787869477e-05,0.0,0.0,150.7867379663832,331.585774430376,0.983206494542099,77249.27643773191,273.59494032111115,-60.79534586637003,0.07360134747691587,38.2417115351452,0.0,0.0,0.0,0.853488949642,39373.346523291366,283.0045493531034
10.2,6380391.45391344,-1.7213964716334962,2724.733388644752,239.0733687633552,-0.2916566332622496,-149.5496300129688,2255.039667225336,-2.697948055488181e-07,0.0004299250347501701,9.807251702287441,-1.3127616012181137e-22,0.00042704797075338545,2.6904420590261344e-07,7.292107787869477e-05,0.0,0.0,149.5497202099944,331.526456110608,0.981745329629734,77108.4240955139,273.49740625000004,-60.38346345002447,0.07365494433402424,37.73611236914766,0.0,0.0,0.0,0.850596154238,39034.80917922562,281.9948844884226
10.3,6380406.33684024,-1.750649530262136,2748.62648046528,238.6604763701424,-0.2933217223662024,-148.3160594567976,2269.9329312137043,-2.743790031290261e-07,0.00043369401342076644,9.807205831015201,-1.3368015421080792e-22,0.00043079173414938086,2.736210446626069e-07,7.292107787869477e-05,0.0,0.0,148.3161493423176,331.46762574820804,0.9802961843512398,76968.73041390738,273.40067450055557,-59.97614588277188,0.07370304403215415,37.236287180831376,0.0,0.0,0.0,0.847721111126,38700.40850902717,280.9918607619076
10.4,6380421.0965364,-1.7800682178539042,2772.478424834448,238.25036550309122,-0.2949685251831312,-147.0858964820256,2284.703008831224,-2.7898914364975474e-07,0.00043745649042050387,9.807160339401841,-1.3505017244580594e-22,0.0004345290394443757,2.7822382636360024e-07,7.292107787869477e-05,0.0,0.0,147.0859860587832,331.40928198986404,0.9788590253616067,76830.19217775295,273.30474284666667,-59.57333685857823,0.07374576798551458,36.74215523319471,0.0,0.0,0.0,0.844863743994,38370.091661317034,279.9954443977377
10.5,6380435.73330672,-1.8096507094157521,2796.28949748348,237.84300540239522,-0.296597127700164,-145.8591023339424,2299.350238890528,-2.8362494115625966e-07,0.00044121250949606016,9.807115226411039,-1.3603244973780455e-22,0.0004382599300943701,2.828522650495936e-07,7.292107787869477e-05,0.0,0.0,145.859191604376,331.351423491408,0.9774338196920517,76692.80620971665,273.20960908722225,-59.17498103222537,0.07378323534194561,36.25363706351812,0.0,0.0,0.0,0.842023978486,38043.80667591147,279.0056023650069
10.6,6380450.2474864805,-1.8393951884768402,2820.0599711047444,237.43836568528562,-0.29820761453160965,-144.63563879641922,2313.874956363768,-2.882861110307182e-07,0.0004449621139158926,9.807070490976,-1.37803133631802e-22,0.0004419844490713634,2.875060761035869e-07,7.292107787869477e-05,0.0,0.0,144.63572776296724,331.294048936104,0.9760205347500186,76556.56936693826,273.1152710472222,-58.78102400285257,0.0738155630269558,35.77065445698613,0.0,0.0,0.0,0.839201742168,37721.50246624996,278.02230236794975
10.7,6380464.639441441,-1.869299846951376,2843.790115360896,237.0364163393256,-0.2998000689451704,-143.4154681858128,2328.277492419192,-2.929723699747769e-07,0.0004487053464667479,9.807026132121361,-1.3914730248880007e-22,0.0004457026388763587,2.921849762275802e-07,7.292107787869477e-05,0.0,0.0,143.4155568512184,331.237157013312,0.9746191383088695,76421.4785439042,273.0217265755556,-58.3914122943844,0.07384286579176297,35.29313042164387,0.0,0.0,0.0,0.836396964506,37403.128802349835,277.0455128341091
10.8,6380478.90944592,-1.899362885001456,2867.4801969519363,236.6371277163144,-0.3013745728784016,-142.198553341212,2342.5581744912483,-2.97683435986862e-07,0.00045244224946587916,9.80698214874984,-1.4028467617679844e-22,0.00044941454154035404,2.968886834195734e-07,7.292107787869477e-05,0.0,0.0,142.19864170791362,331.18074643068,0.9732295985130399,76287.53066957463,272.92897354555555,-58.00609333729301,0.07386525625777644,34.82098916317569,0.0,0.0,0.0,0.83360957683,37088.636294191754,276.0752029019894
10.9,6380493.05786568,-1.929582510912096,2891.130479624352,236.24047052619122,-0.3029312069655336,-140.9848576168176,2356.7173263171603,-3.0241902834472573e-07,0.0004561728647610458,9.80693853991656,-1.4153837215579663e-22,0.0004531201986333485,3.016169169575666e-07,7.292107787869477e-05,0.0,0.0,140.9849456872536,331.12481590804805,0.9718518838625765,76154.72270690475,272.8370098544445,-57.62501545125,0.07388284495929996,34.3541560611071,0.0,0.0,0.0,0.830839512306,36777.976375392645,275.11134241128235
11.0,6380507.0849750405,-1.959956940954072,2914.741224222936,235.8464158306344,-0.3044700505581984,-139.7743448740176,2370.755268000936,-3.0717886758101245e-07,0.0004598972337444764,9.806895304646162,-1.4283084223579475e-22,0.0004568196512663422,3.063693973735598e-07,7.292107787869477e-05,0.0,0.0,139.7744326506264,331.06936418049605,0.9704859632079834,76023.0516533235,272.74583342333335,-57.248127828223275,0.07389574038845874,33.89255764456201,0.0,0.0,0.0,0.828086705909,36471.10128735727,274.15390189103437
11.1,6380520.99113976,-1.990484399262,2938.312688721264,235.45493503788,-0.30599118174463197,-138.56697947376722,2384.672316049944,-3.1196267546580466e-07,0.0004636153973528684,9.80685244187184,-1.4476954724479198e-22,0.0004605129401003371,3.1114584643855295e-07,7.292107787869477e-05,0.0,0.0,138.56706695929202,331.01439000139203,0.9691318057553763,75892.51454073364,272.65544219611115,-56.87538051379445,0.0739040490352334,33.43612156948787,0.0,0.0,0.0,0.825351094394,36167.964063812906,273.2028525493582
11.2,6380534.77666464,-2.021163117709368,2961.845128252176,235.0659998957112,-0.307494677373144,-137.3627262683592,2398.4687834419683,-3.167701749856796e-07,0.0004673273960708794,9.806809950709681,-1.4639805949778966e-22,0.00046420010534833174,3.1594598713954605e-07,7.292107787869477e-05,0.0,0.0,137.3628134649336,330.95989213020005,0.9677893810458671,75763.10843263888,272.5658341405556,-56.50672439247973,0.07390787542882851,32.98477659574722,0.0,0.0,0.0,0.822632616268,35868.518515391916,272.2581662616003
11.3,6380548.441824,-2.051991335783568,2985.3387951474,234.6795824871912,-0.308980613074368,-136.16155059502321,2412.1449796587362,-3.216010903280007e-07,0.00047103326994159825,9.80676783015384,-1.4787147537578755e-22,0.0004678811867843272,3.207695436605391e-07,7.292107787869477e-05,0.0,0.0,136.16163750478083,330.90586934467206,0.966458658971025,75634.83042701673,272.47700724611116,-56.14211117127152,0.07390732217592724,32.538452565188095,0.0,0.0,0.0,0.819931211761,35572.719215076155,271.31981556313895
11.4,6380561.9869836,-2.082967300467024,3008.7939389680323,234.2956552230432,-0.31044906326827204,-134.9634182664768,2425.701210734688,-3.2645514685299304e-07,0.0004747330585682911,9.80672607925944,-1.487245057327863e-22,0.0004715562237443222,3.256162413665321e-07,7.292107787869477e-05,0.0,0.0,134.9635048921608,330.8523204378,0.9651396097471086,75507.67765296684,272.388959525,-55.78149336362477,0.07390249000161504,32.09708037962522,0.0,0.0,0.0,0.817246822801,35280.52148364135,270.3877736339506
11.5,6380575.41238728,-2.11408926611832,3032.210806535016,233.91419083890722,-0.311900101204392,-133.7682955666584,2439.137779324032,-3.313320710885067e-07,0.0004784268011231275,9.8066846970816,-1.50327168608784e-22,0.00047522525513631677,3.304858067805251e-07,7.292107787869477e-05,0.0,0.0,133.76838191009762,330.799244214768,0.9638322039356793,75381.64727214749,272.30168901222225,-55.42482427210897,0.073893477785855,31.660591980022375,0.0,0.0,0.0,0.814579392985,34991.881375245175,269.46201429346564
11.6,6380588.71837032,-2.145355494347232,3055.58964198096,233.53516238741523,-0.313333798967928,-132.5761492415832,2452.454984715984,-3.3623159069511064e-07,0.0004821145363471811,9.806643682736402,-1.5178765980878192e-22,0.0004788883194403111,3.353779675675181e-07,7.292107787869477e-05,0.0,0.0,132.57623530521602,330.746639492952,0.9625364124075265,75256.73647638145,272.21519376333333,-55.0720579777324,0.07388038259996334,31.228920325541267,0.0,0.0,0.0,0.811928867555,34706.755663924974,268.5425119871927
