time,gePosition_m_X,gePosition_m_Y,gePosition_m_Z,feVelocity_m_s_X,feVelocity_m_s_Y,feVelocity_m_s_Z,altitudeMsl_m,longitude_rad,latitude_rad,localGravity_m_s2,eulerAngle_rad_Yaw,eulerAngle_rad_Pitch,eulerAngle_rad_Roll,bodyAngularRateWrtEi_rad_s_Roll,bodyAngularRateWrtEi_rad_s_Pitch,bodyAngularRateWrtEi_rad_s_Yaw,altitudeRateWrtMsl_m_s,speedOfSound_m_s,airDensity_kg_m3,ambientPressure_Pa,ambientTemperature_K,aero_bodyForce_N_X,aero_bodyForce_N_Y,aero_bodyForce_N_Z,aero_bodyMoment_Nm_L,aero_bodyMoment_Nm_M,aero_bodyMoment_Nm_N,mach,dynamicPressure_Pa,trueAirspeed_m_s
0.00000000000000000e+00,1.27975097969655227e+06,-5.01132167006370611e+06,3.73529182979875896e+06,4.31048170058400160e+02,4.31048170058399933e+02,2.84217094304040074e-14,9.14796239999961108e+03,-1.32076813760289768e+00,6.28653110335565923e-01,9.79233863376700775e+00,7.85398163397448168e-01,-1.27915687066524307e-02,-3.00196631343049554e-03,4.11533112324237549e-05,-4.15747245122580615e-05,-4.35366670021904026e-05,-2.84217094304040074e-14,3.03213131200728640e+02,4.58821287208398265e-01,3.01308604379569006e+04,2.28773692288189437e+02,-5.54269320261155444e+04,-1.05662575851066308e+02,-9.14404849863922864e+04,-7.43332771038037947e+01,7.72306708121323027e+00,1.77010292753885807e+02,2.01044778541975200e+00,8.52501536460957432e+04,6.09594168132693653e+02
1.00000000000000006e-01,1.27978647260351968e+06,-5.01128644549504295e+06,3.73532669403192028e+06,4.31044088813550047e+02,4.31050044149774180e+02,-1.65236745722552314e-02,9.14796346234250814e+03,-1.32075980351268951e+00,6.28659880673179683e-01,9.79233874646469538e+00,7.85412504192797289e-01,-1.27808008151334609e-02,-3.02472645101590620e-03,-3.57369999103732540e-04,-1.20682284020821430e-05,1.36985944391421785e-04,1.65236745722552314e-02,3.03213126637828964e+02,4.58821228438382467e-01,3.01308556716736712e+04,2.28773685402792296e+02,-5.54260897629285755e+04,-8.22253028732913407e+01,-9.12933340613873297e+04,-3.16760549975454069e+01,3.40296917255400331e+01,1.30402347412067257e+02,2.01044266927836190e+00,8.52497062760578410e+04,6.09592607677994806e+02
2.00000000000000011e-01,1.27982196563503123e+06,-5.01125122169557400e+06,3.73536155870344862e+06,4.31039691936308031e+02,4.31052203374057001e+02,-3.18019638920645775e-02,9.14796599257737398e+03,-1.32075146935426480e+00,6.28666650961175133e-01,9.79233885465614939e+00,7.85441192546675326e-01,-1.27656798827695157e-02,-3.07074909613694194e-03,-4.20872740261792326e-04,4.08930682615949879e-05,2.33339380680347376e-04,3.18019638920645775e-02,3.03213115770143588e+02,4.58821088462939286e-01,3.01308443195825530e+04,2.28773669003499776e+02,-5.54253905332955401e+04,-2.46443938446143811e+01,-9.12098279783859471e+04,1.14564375268882266e+01,4.35383258863876108e+01,3.12241619575979215e+01,2.01043752518863705e+00,8.52492379038210929e+04,6.09591026073663215e+02
3.00000000000000044e-01,1.27985745881903521e+06,-5.01121599863328598e+06,3.73539642375197168e+06,4.31034829611287819e+02,4.31054800288515821e+02,-4.65232212219461871e-02,9.14796993511728942e+03,-1.32074313512086028e+00,6.28673421193977178e-01,9.79233895851191072e+00,7.85474451166489729e-01,-1.27449390215583335e-02,-3.11063835087754944e-03,-3.04131557396224573e-04,9.70922776953422510e-05,2.48942840097215144e-04,4.65232212219461871e-02,3.03213098836425047e+02,4.58820870357254829e-01,3.01308266310843537e+04,2.28773643450589191e+02,-5.54248737909517149e+04,4.09957033341137063e+01,-9.11876397465773916e+04,4.79415429229932570e+01,3.97348651445645373e+01,-7.78685726377166674e+01,2.01043235787275254e+00,8.52487496357894270e+04,6.09589425231617952e+02
4.00000000000000022e-01,1.27989295213915617e+06,-5.01118077622829471e+06,3.73543128915382409e+06,4.31029522314074484e+02,4.31057814551454442e+02,-6.12704436081230597e-02,9.14797521016374230e+03,-1.32073480081172523e+00,6.28680191376098207e-01,9.79233905827701356e+00,7.85502589547713348e-01,-1.27190504452931747e-02,-3.12588948464162346e-03,9.17607274507272895e-05,1.42407193688113881e-04,1.15797835667182862e-04,6.12704436081230597e-02,3.03213076179417214e+02,4.58820578535954093e-01,3.01308029642097681e+04,2.28773609261261242e+02,-5.54245205109003800e+04,8.76292161264765923e+01,-9.12110463973540609e+04,5.28528735179042073e+01,2.80034446938188921e+01,-1.49223010037557458e+02,2.01042716548089162e+00,8.52482423283485405e+04,6.09587805280127441e+02
5.00000000000000000e-01,1.27992844575137156e+06,-5.01114555467944033e+06,3.73546615487137204e+06,4.31024007410201648e+02,4.31061007272651977e+02,-7.64216164973845480e-02,9.14798198261950165e+03,-1.32072646640715696e+00,6.28686961481392248e-01,9.79233915344481076e+00,7.85514607389835806e-01,-1.26895386940766904e-02,-3.10322189294482504e-03,4.18698643576005539e-04,1.70005776603150368e-04,-5.90086338295225466e-05,7.64216164973845480e-02,3.03213047090840007e+02,4.58820203876552757e-01,3.01307725791229786e+04,2.28773565366726359e+02,-5.54242757884029852e+04,8.99407725164984413e+01,-9.12590881544199074e+04,3.25306846264197986e+01,1.37416719311877387e+01,-1.45776330114655650e+02,2.01042194932567231e+00,8.52477139999135834e+04,6.09586165193343504e+02
5.99999999999999978e-01,1.27996393975448562e+06,-5.01111033412788343e+06,3.73550102087917319e+06,4.31018599966050203e+02,4.31064061197295075e+02,-9.21313893131525674e-02,9.14799036791548133e+03,-1.32071813189540510e+00,6.28693731491730134e-01,9.79233924366067221e+00,7.85510587633432511e-01,-1.26582418573246841e-02,-3.05760985584661339e-03,5.30789238121303860e-04,1.79464654245421133e-04,-1.92192353088235345e-04,9.21313893131525674e-02,3.03213011074900749e+02,4.58819739993453324e-01,3.01307349579524998e+04,2.28773511018838519e+02,-5.54240747720004802e+04,5.13755284256776079e+01,-9.13121702677876892e+04,-9.37059960568366823e-01,1.11108208530640695e+00,-7.66830091563777927e+01,2.01041670771587455e+00,8.52471630421933369e+04,6.09584503461818940e+02
6.99999999999999956e-01,1.27999943418443762e+06,-5.01107511465950869e+06,3.73553588717995537e+06,4.31013528350409615e+02,4.31066745852099189e+02,-1.08371014293737744e-01,9.14800044214352965e+03,-1.32070979727385085e+00,6.28700501398944622e-01,9.79233932869087553e+00,7.85497857704689939e-01,-1.26267799513030670e-02,-3.01327860256384852e-03,3.98030865435070459e-04,1.74715858719286037e-04,-2.28405351791490435e-04,1.08371014293737744e-01,3.03212967804772688e+02,4.58819182677390691e-01,3.01306897593299436e+04,2.28773445724421293e+02,-5.54238609149474796e+04,-6.50814008144335610e+00,-9.13561529362514557e+04,-3.10254479733954440e+01,-7.51386288797220914e+00,2.02184793123460089e+01,2.01041143795266741e+00,8.52465882608495303e+04,6.09582818610288882e+02
7.99999999999999933e-01,1.28003492900623102e+06,-5.01103989628159069e+06,3.73557075380674610e+06,4.31008840548864441e+02,4.31069011722120081e+02,-1.24997404601060680e-01,9.14801222342066467e+03,-1.32070146254940401e+00,6.28707271207374352e-01,9.79233940847990958e+00,7.85486881379520829e-01,-1.25962540367965531e-02,-2.99151856228417785e-03,9.95263989543472148e-05,1.61655622423009939e-04,-1.59822424213248190e-04,1.24997404601060680e-01,3.03212917202637584e+02,4.58818530926376422e-01,3.01306369020000602e+04,2.28773369366052322e+02,-5.54235964419940428e+04,-5.57074210378186621e+01,-9.13838023970979266e+04,-4.41695979731254340e+01,-1.14946018446171365e+01,9.84427203326359148e+01,2.01040613696767378e+00,8.52459891661473666e+04,6.09581109552053704e+02
8.99999999999999911e-01,1.28007042413815670e+06,-5.01100467893712316e+06,3.73560562081185309e+06,4.31004399655992358e+02,4.31070994991235295e+02,-1.41825280603114834e-01,9.14802568147145212e+03,-1.32069312773464853e+00,6.28714040930628659e-01,9.79233948312090519e+00,7.85486397529837843e-01,-1.25671714733095446e-02,-3.00170666336749443e-03,-2.11640839763355289e-04,1.46099484680502911e-04,-2.85514271956317117e-05,1.41825280603114834e-01,3.03212859398529019e+02,4.58817786415581907e-01,3.01305765218276647e+04,2.28773282139956905e+02,-5.54232648018768014e+04,-7.46932132778650839e+01,-9.13941219235594181e+04,-3.61200878774709437e+01,-1.14852210698263661e+01,1.24263343427290891e+02,2.01040080218158268e+00,8.52453659241162677e+04,6.09579375766574117e+02
9.99999999999999889e-01,1.28010591949554649e+06,-5.01096946254860610e+06,3.73564048824889911e+06,4.30999964045851129e+02,4.31072937333040045e+02,-1.58684352078012125e-01,9.14804077014885843e+03,-1.32068479284174201e+00,6.28720810584385781e-01,9.79233955275581280e+00,7.85499457833341630e-01,-1.25395368762267027e-02,-3.03769551545723850e-03,-3.94094827319613856e-04,1.32463299800232256e-04,9.97047646800670894e-05,1.58684352078012125e-01,3.03212794590650560e+02,4.58816951698241104e-01,3.01305088258897013e+04,2.28773184345229424e+02,-5.54228671941947032e+04,-5.79168772953251363e+01,-9.13904497759407823e+04,-1.26050701953547986e+01,-8.83896538155750022e+00,9.12709726829312160e+01,2.01039543236722551e+00,8.52447190169249225e+04,6.09577617280345635e+02
1.09999999999999987e+00,1.28014141503035463e+06,-5.01093424706228822e+06,3.73567535615266953e+06,4.30995307518157460e+02,4.31075065525294065e+02,-1.75453399850340475e-01,9.14805745816696435e+03,-1.32067645787711774e+00,6.28727580178968459e-01,9.79233961748083814e+00,7.85522679904616883e-01,-1.25130270811386769e-02,-3.08233591073739637e-03,-3.78635330274772100e-04,1.23226773243947485e-04,1.67219866835670192e-04,1.75453399850340475e-01,3.03212722913375103e+02,4.58816028505489804e-01,3.01304339545913172e+04,2.28773076184644481e+02,-5.54224161577735795e+04,-1.65641807886099315e+01,-9.13782169687758724e+04,1.42090408627560354e+01,-5.05967306968886987e+00,2.03042960715316347e+01,2.01039002796848765e+00,8.52440488798216393e+04,6.09575834498221525e+02
1.19999999999999996e+00,1.28017691077735159e+06,-5.01089903251126874e+06,3.73571022451692773e+06,4.30990316713838922e+02,4.31077493753807119e+02,-1.92071445700122467e-01,9.14807577475067228e+03,-1.32066812283585033e+00,6.28734349709822116e-01,9.79233967720618104e+00,7.85549088593237022e-01,-1.24871776330545813e-02,-3.11799389291197732e-03,-2.64156119122916483e-04,1.19017529129881446e-04,1.78855193403938461e-04,1.92071445700122467e-01,3.03212644241172882e+02,4.58815015220999212e-01,3.01303517768578931e+04,2.28772957468785876e+02,-5.54219285900470204e+04,3.06064823891467874e+01,-9.13629970052794379e+04,3.83434892715380542e+01,-1.40639763524814043e+00,-5.80066489008301502e+01,2.01038459173339312e+00,8.52433553753899614e+04,6.09574028001192914e+02
1.30000000000000004e+00,1.28021240672027273e+06,-5.01086381883945409e+06,3.73574509333262313e+06,4.30985002385317785e+02,4.31080212121269255e+02,-2.08531358333800654e-01,9.14809566736221313e+03,-1.32065978771830661e+00,6.28741119181183694e-01,9.79233973209319863e+00,7.85571795952327512e-01,-1.24615360245470281e-02,-3.13339952707891896e-03,4.38088908772507656e-05,1.19085032955674542e-04,8.11672970095312583e-05,2.08531358333800654e-01,3.03212558799695614e+02,4.58813914751642238e-01,3.01302625284490168e+04,2.28772828538168596e+02,-5.54214211700994929e+04,6.41204697327380302e+01,-9.13491741482684156e+04,4.02792651221382840e+01,1.31518521238831454e+00,-1.09138696476808917e+02,2.01037912414368725e+00,8.52426392118587682e+04,6.09572198389098389e+02
1.40000000000000013e+00,1.28024790296818782e+06,-5.01082860617274698e+06,3.73577996255469183e+06,4.30979536049921194e+02,4.31083049887779623e+02,-2.24862971662389555e-01,9.14811722998786718e+03,-1.32065145251008453e+00,6.28747888573561231e-01,9.79233978185305709e+00,7.85582737864040537e-01,-1.24357713675388015e-02,-3.11976309302234092e-03,2.91745021435135940e-04,1.21935828125722257e-04,-4.60908539070442770e-05,2.24862971662389555e-01,3.03212466185253561e+02,4.58812721898545939e-01,3.01301657877468060e+04,2.28772688783636482e+02,-5.54209053075980992e+04,6.53959939528107128e+01,-9.13393208918508026e+04,2.45300589044224644e+01,2.78825189356575720e+00,-1.05921820259017281e+02,2.01037362962660682e+00,8.52418995722302643e+04,6.09570346192882994e+02
1.50000000000000022e+00,1.28028339958188240e+06,-5.01079339457429945e+06,3.73581483213476278e+06,4.30974146548471822e+02,4.31085778823911426e+02,-2.41113538104229974e-01,9.14814049582649022e+03,-1.32064311720282412e+00,6.28754657873761946e-01,9.79233982638360700e+00,7.85582038904335977e-01,-1.24096875931923763e-02,-3.08873399516569743e-03,3.77883764535202969e-04,1.25933389336878630e-04,-1.42470464348753306e-04,2.41113538104229974e-01,3.03212366255246536e+02,4.58811434825695030e-01,3.01300614058638239e+04,2.28772537990016986e+02,-5.54203871476619533e+04,3.70786732373813877e+01,-9.13342029937095067e+04,-3.11079409289897524e-01,3.09529836866204278e+00,-5.52269944846716427e+01,2.01036811046063679e+00,8.52411362288933742e+04,6.09568471816858505e+02
1.60000000000000031e+00,1.28031889657586510e+06,-5.01075818406456988e+06,3.73584970204343926e+06,4.30968999350349179e+02,4.31088233841613373e+02,-2.57330997646107562e-01,9.14816546652000397e+03,-1.32063478179479166e+00,6.28761427075882895e-01,9.79233986567972714e+00,7.85575069095787781e-01,-1.23832236320969933e-02,-3.05832363052106759e-03,2.83792128064640106e-04,1.29735502357893826e-04,-1.68198070918221265e-04,2.57330997646107562e-01,3.03212259002615269e+02,4.58810053442867738e-01,3.01299493754981704e+04,2.28772376146668535e+02,-5.54198678290942989e+04,-5.07344320840802343e+00,-9.13332218004509195e+04,-2.24006719939803496e+01,2.56066503905094578e+00,1.53241332260964409e+01,2.01036256750780851e+00,8.52403492346865532e+04,6.09566575508340293e+02
1.70000000000000040e+00,1.28035439391533774e+06,-5.01072297461492009e+06,3.73588457227942953e+06,4.30964128633473763e+02,4.31090380930123274e+02,-2.73552845635606445e-01,9.14819211189448833e+03,-1.32062644629114079e+00,6.28768196183113526e-01,9.79233989983408115e+00,7.85569429855442425e-01,-1.23564221479916317e-02,-3.04413667325450230e-03,6.79377921778274692e-05,1.32502064021427455e-04,-1.17676238694454423e-04,2.73552845635606445e-01,3.03212144556953376e+02,4.58808579419937523e-01,3.01298298320929352e+04,2.28772203449158553e+02,-5.54193450403252064e+04,-4.07331368408890171e+01,-9.13350273981602077e+04,-3.19637740934256342e+01,1.59143313219828997e+00,7.19941605978863777e+01,2.01035700028993336e+00,8.52395389326348813e+04,6.09564657382994483e+02
1.80000000000000049e+00,1.28038989153503324e+06,-5.01068776616285369e+06,3.73591944286498614e+06,4.30959434152169820e+02,4.31092320371517872e+02,-2.89801170449862866e-01,9.14822038299217820e+03,-1.32061811070111212e+00,6.28774965205360914e-01,9.79233992899712646e+00,7.85571464530300911e-01,-1.23293877479898929e-02,-3.05305047279451651e-03,-1.56866972544262895e-04,1.33911930846856964e-04,-2.19467567760325832e-05,2.89801170449862866e-01,3.03212023128533644e+02,4.58807015465924950e-01,3.01297029953666970e+04,2.28772020214798829e+02,-5.54188147697589156e+04,-5.42974610992459361e+01,-9.13380823245487845e+04,-2.60478677290805720e+01,5.56970672445459059e-01,9.03646859981499659e+01,2.01035140757188158e+00,8.52387058399911912e+04,6.09562717489165493e+02
1.90000000000000058e+00,1.28042538937122328e+06,-5.01065255864457041e+06,3.73595431383320224e+06,4.30954739875178859e+02,4.31094228193061838e+02,-3.06082738327575044e-01,9.14825023651961237e+03,-1.32060977503359478e+00,6.28781734153991856e-01,9.79233995330194595e+00,7.85583347899346252e-01,-1.23022474638925516e-02,-3.08055598446952891e-03,-2.87694785018293494e-04,1.34061802259365944e-04,7.11139777753853788e-05,3.06082738327575044e-01,3.03211894903299537e+02,4.58805363976515113e-01,3.01295690596269014e+04,2.28771826724188912e+02,-5.54182727359768833e+04,-4.18585000097742679e+01,-9.13410698416388914e+04,-8.91246993004545907e+00,-2.81516641422058456e-01,6.59892420423365280e+01,2.01034578824130383e+00,8.52378504125230684e+04,6.09560755863513123e+02
2.00000000000000044e+00,1.28046088738967944e+06,-5.01061735202422645e+06,3.73598918521114532e+06,4.30949881623887791e+02,4.31096268589024248e+02,-3.22392416375862467e-01,9.14828165345173329e+03,-1.32060143929329032e+00,6.28788503036430413e-01,9.79233997280706880e+00,7.85602578572696886e-01,-1.22751180840638269e-02,-3.11416239535954693e-03,-2.74632806597816935e-04,1.33308831345229641e-04,1.19659046931107181e-04,3.22392416375862467e-01,3.03211759962958070e+02,4.58803626004890663e-01,3.01294281103045250e+04,2.28771623100636788e+02,-5.54177153889850306e+04,-1.16603222890564897e+01,-9.13431233682011662e+04,1.05490565126634266e+01,-7.95669223702134332e-01,1.41978913801114803e+01,2.01034014192060928e+00,8.52369728602836985e+04,6.09558772555930886e+02
2.10000000000000053e+00,1.28049638561919774e+06,-5.01058214633698761e+06,3.73602405700011505e+06,4.30944777589316004e+02,4.31098523446024728e+02,-3.38718169230588728e-01,9.14831466786935925e+03,-1.32059310347649173e+00,6.28795271849030390e-01,9.79233998740782319e+00,7.85624093105964816e-01,-1.22480829538353844e-02,-3.14115102861958284e-03,-1.92469979577430689e-04,1.32101136499606026e-04,1.28481512281257730e-04,3.38718169230588728e-01,3.03211618161118338e+02,4.58801799666478161e-01,3.01292799945797851e+04,2.28771409123253704e+02,-5.54171402972602664e+04,2.27081718011472091e+01,-9.13438830217412760e+04,2.82177121428516529e+01,-9.76735737713170238e-01,-4.28757702927478732e+01,2.01033446983109432e+00,8.52360728548933257e+04,6.09556767642559976e+02
2.20000000000000062e+00,1.28053188404775481e+06,-5.01054694154940546e+06,3.73605892920211749e+06,4.30939435238258056e+02,4.31100985455712532e+02,-3.55046076183583637e-01,9.14834925232734531e+03,-1.32058476758385468e+00,6.28802040595310419e-01,9.79233999718850079e+00,7.85642913990707403e-01,-1.22211824014038881e-02,-3.15340481196225509e-03,3.35885633578199793e-05,1.30839148685796963e-04,5.66193346970930738e-05,3.55046076183583637e-01,3.03211469615651822e+02,4.58799886480329544e-01,3.01291248356674660e+04,2.28771184969921023e+02,-5.54165469505650108e+04,4.71134435014578585e+01,-9.13434114083699242e+04,2.95076903580027690e+01,-8.97135347659059335e-01,-8.00792394731699346e+01,2.01032877155890333e+00,8.52351507102260948e+04,6.09554741235003007e+02
2.30000000000000071e+00,1.28056738275840320e+06,-5.01051173776530474e+06,3.73609380179100623e+06,4.30933980136894490e+02,4.31103529325103523e+02,-3.71363930352515581e-01,9.14838548942934722e+03,-1.32057643160479588e+00,6.28808809260751000e-01,9.79234000189531351e+00,7.85653101892568539e-01,-1.21944258939950690e-02,-3.14438362947981392e-03,2.14852269499461561e-04,1.29796344151591748e-04,-3.65973025278343154e-05,3.71363930352515581e-01,3.03211313971753611e+02,4.58797881877730129e-01,3.01289622630672238e+04,2.28770950105257469e+02,-5.54159352650658184e+04,4.78831059812204103e+01,-9.13420303104062477e+04,1.78845521604029116e+01,-6.64930741484567989e-01,-7.74509827232264030e+01,2.01032304998225309e+00,8.52342056225991546e+04,6.09552693492822300e+02
2.40000000000000080e+00,1.28060288179672300e+06,-5.01047653503742162e+06,3.73612867473598476e+06,4.30928579646722142e+02,4.31105988037393843e+02,-3.87663399666138275e-01,9.14842341150064021e+03,-1.32056809553330612e+00,6.28815577835671768e-01,9.79234000142885108e+00,7.85654777999388876e-01,-1.21677835542323698e-02,-3.12268391618626771e-03,2.77192251313205433e-04,1.29100255681727656e-04,-1.06933469301672408e-04,3.87663399666138275e-01,3.03211151090570752e+02,4.58795784071404478e-01,3.01287921318546869e+04,2.28770704319752554e+02,-5.54153061316470194e+04,2.70308444747199985e+01,-9.13401520578708296e+04,-3.34804575584765285e-01,-3.85356435821449850e-01,-4.01467542192003251e+01,2.01031730665704034e+00,8.52332373143672012e+04,6.09550624608777071e+02
2.50000000000000089e+00,1.28063838117339788e+06,-5.01044133338347171e+06,3.73616354801747901e+06,4.30923354359239795e+02,4.31108241342721783e+02,-4.03940722830611776e-01,9.14846302304510027e+03,-1.32055975936823700e+00,6.28822346315750291e-01,9.79233999577523484e+00,7.85651894861868816e-01,-1.21412068817317829e-02,-3.10151461183836392e-03,2.07711000716861700e-04,1.28757702318505531e-04,-1.25456070115272962e-04,4.03940722830611776e-01,3.03210980952746979e+02,4.58793592813185769e-01,3.01286144219280359e+04,2.28770447584215560e+02,-5.54146608010394557e+04,-3.85857392796791787e+00,-9.13381576761092001e+04,-1.64873135389273848e+01,-1.39123670458502602e-01,1.15401210190430312e+01,2.01031154236534881e+00,8.52322457953937264e+04,6.09548534781227204e+02
2.60000000000000098e+00,1.28067388086228655e+06,-5.01040613278216962e+06,3.73619842163418047e+06,4.30918328672389407e+02,4.31110265133625830e+02,-4.20196162210288549e-01,9.14850430136919022e+03,-1.32055142311347229e+00,6.28829114703318370e-01,9.79233998500413350e+00,7.85650017333109796e-01,-1.21146465047849011e-02,-3.09226918180460384e-03,4.92707811808273759e-05,1.28692230495865091e-04,-8.81484145554615295e-05,4.20196162210288549e-01,3.03210803655742836e+02,4.58791309359472210e-01,3.01284292352058401e+04,2.28770180045731223e+02,-5.54140005562351289e+04,-2.99090599781844375e+01,-9.13363260115809826e+04,-2.34238624363803503e+01,2.68408220035780687e-02,5.29227048951246033e+01,2.01030575708445092e+00,8.52312313524877245e+04,6.09546424199342937e+02
2.70000000000000107e+00,1.28070938081452227e+06,-5.01037093318541907e+06,3.73623329560040589e+06,4.30913428712866107e+02,4.31112133515858147e+02,-4.36432691006245932e-01,9.14854720741976053e+03,-1.32054308677586874e+00,6.28835883005611995e-01,9.79233996923558259e+00,7.85653782388785027e-01,-1.20880662505150061e-02,-3.09994992529011911e-03,-1.15194353481042121e-04,1.28785892362746923e-04,-1.79218315157607264e-05,4.36432691006245932e-01,3.03210619367285688e+02,4.58788935871667969e-01,3.01282367470026220e+04,2.28769901957416380e+02,-5.54133264399806721e+04,-3.97234139926517287e+01,-9.13348019962108228e+04,-1.90229984909546168e+01,9.98095957547775470e-02,6.61746387149285624e+01,2.01029995030017394e+00,8.52301944384137169e+04,6.09544293044539359e+02
2.80000000000000115e+00,1.28074488098230725e+06,-5.01033573454346042e+06,3.73626816993770981e+06,4.30908525456551274e+02,4.31113975703870665e+02,-4.52654362995730253e-01,9.14859170530643314e+03,-1.32053475036200285e+00,6.28842651230911431e-01,9.79233994857987788e+00,7.85664760577029053e-01,-1.20614513496304435e-02,-3.12120526374342179e-03,-2.10430180200229036e-04,1.28920741964855961e-04,5.01218040352583929e-05,4.52654362995730253e-01,3.03210428241518116e+02,4.58786474336226158e-01,3.01280371184446558e+04,2.28769613551888824e+02,-5.54126390489909463e+04,-3.04995487993144430e+01,-9.13336023915649421e+04,-6.43590915550486198e+00,9.38600886365748011e-02,4.81397836373293941e+01,2.01029412156693743e+00,8.52291354716082133e+04,6.09542141491717643e+02
2.90000000000000124e+00,1.28078038133959007e+06,-5.01030053682722617e+06,3.73630304466324579e+06,4.30903498969384998e+02,4.31115911801206096e+02,-4.68864858856846922e-01,9.14863777712360024e+03,-1.32052641387536829e+00,6.28849419384588160e-01,9.79233992309207579e+00,7.85681099531712279e-01,-1.20348078621754472e-02,-3.14686126565504737e-03,-2.00180509455850496e-04,1.29009617670756066e-04,8.54036342690906813e-05,4.68864858856846922e-01,3.03210230355335227e+02,4.58783925744732590e-01,3.01278304299756091e+04,2.28769314945201216e+02,-5.54119384934533227e+04,-8.32559074161302171e+00,-9.13326549337699689e+04,7.81032332064078094e+00,3.70901615824550390e-02,1.01255509081481598e+01,2.01028827091178908e+00,8.52280546823347831e+04,6.09539969703792167e+02
3.00000000000000133e+00,1.28081588190740836e+06,-5.01026534006136283e+06,3.73633791977553023e+06,4.30898289810967583e+02,4.31118001423689861e+02,-4.85066585789439841e-01,9.14868544551171362e+03,-1.32051807731320880e+00,6.28856187463761263e-01,9.79233989270262484e+00,7.85699098495413972e-01,-1.20081544338036406e-02,-3.16765306695409579e-03,-1.40923565717061703e-04,1.29006620870750433e-04,9.21539482552339342e-05,4.85066585789439841e-01,3.03210025611479409e+02,4.58781288845888258e-01,3.01276165801441202e+04,2.28769005990613692e+02,-5.54112243923009228e+04,1.68856551871977416e+01,-9.13318495821590768e+04,2.08400857603194609e+01,-4.07129170853295363e-02,-3.17544350506169728e+01,2.01028239947463438e+00,8.52269518806582055e+04,6.09537777831010203e+02
3.10000000000000142e+00,1.28085138267467264e+06,-5.01023014421783667e+06,3.73637279527512286e+06,4.30892903322444738e+02,4.31120239426695662e+02,-5.01260457540922744e-01,9.14873468661215156e+03,-1.32050974067626381e+00,6.28862955471259810e-01,9.79233985748482283e+00,7.85715129798009393e-01,-1.19815125388319527e-02,-3.17766839838021925e-03,2.57820057075541580e-05,1.28901586109030428e-04,3.90836174575238295e-05,5.01260457540922744e-01,3.03209814112413937e+02,4.58778564960654223e-01,3.01273956761075860e+04,2.28768686842762321e+02,-5.54104965993182050e+04,3.47987422808720552e+01,-9.13310791617615760e+04,2.17351587416579513e+01,-1.15557832483318634e-01,-5.90472906541064333e+01,2.01027650704766092e+00,8.52258273524979595e+04,6.09535566016474036e+02
3.20000000000000151e+00,1.28088688370273798e+06,-5.01019494937379193e+06,3.73640767114206217e+06,4.30887432047040875e+02,4.31122533522627123e+02,-5.17445966177149330e-01,9.14878556140791625e+03,-1.32050140395673821e+00,6.28869723396233704e-01,9.79233981725127656e+00,7.85724794763274170e-01,-1.19549059128968883e-02,-3.17201365513874057e-03,1.59142218880583202e-04,1.28708893268380625e-04,-2.95831966804308100e-05,5.17445966177149330e-01,3.03209595596192287e+02,4.58775750716827913e-01,3.01271674444142773e+04,2.28768357106396650e+02,-5.54097544264973476e+04,3.52953277929411300e+01,-9.13302597322202782e+04,1.31374324281116674e+01,-1.72152065162663348e-01,-5.69952076270716645e+01,2.01027059586235834e+00,8.52246805139173084e+04,6.09533334410342150e+02
3.30000000000000160e+00,1.28092238502478483e+06,-5.01015975556825846e+06,3.73644254735354148e+06,4.30881999225038612e+02,4.31124760763023573e+02,-5.33621716053545470e-01,9.14883809370361269e+03,-1.32049306715028991e+00,6.28876491231527446e-01,9.79233977192880545e+00,7.85728195396895424e-01,-1.19283416675411199e-02,-3.15704726051555754e-03,2.04739995713961890e-04,1.28456566096327819e-04,-8.12865318354194207e-05,5.33621716053545470e-01,3.03209369960554454e+02,4.58772844798895019e-01,3.01269317784095219e+04,2.28768016627231617e+02,-5.54089975075874463e+04,1.98909051397416192e+01,-9.13293389977789921e+04,-2.91218997847348948e-01,-2.03757025781669654e-01,-2.94478203368401559e+01,2.01026466711770846e+00,8.52235111652854976e+04,6.09531083170724173e+02
3.40000000000000169e+00,1.28095788664834783e+06,-5.01012456281477027e+06,3.73647742389531294e+06,4.30876693451851224e+02,4.31126832834823745e+02,-5.49786099665027450e-01,9.14889228722173721e+03,-1.32048473025616109e+00,6.28883258973941928e-01,9.79233972150590937e+00,7.85728250974007780e-01,-1.19018147393370518e-02,-3.14250411670405046e-03,1.53263842453767526e-04,1.28178058001898076e-04,-9.47773219076725057e-05,5.49786099665027450e-01,3.03209137189496062e+02,4.58769847002277464e-01,3.01266886615355688e+04,2.28767665381141057e+02,-5.54082257142322633e+04,-2.86428839982969219e+00,-9.13282999964083720e+04,-1.21709680701352685e+01,-2.11781278081616620e-01,8.62169201010664565e+00,2.01025872144419848e+00,8.52223193136414775e+04,6.09528812456754963e+02
3.50000000000000178e+00,1.28099338855387270e+06,-5.01008937109820079e+06,3.73651230076662358e+06,4.30871532403241986e+02,4.31128732306216307e+02,-5.65937821996755019e-01,9.14894812574889511e+03,-1.32047639327729560e+00,6.28890026625177678e-01,9.79233966603241868e+00,7.85729061215047042e-01,-1.18753133432883112e-02,-3.13676459294962798e-03,3.64759046261925912e-05,1.27901649587595798e-04,-6.71901488986258633e-05,5.65937821996755019e-01,3.03208897352640690e+02,4.58766758225220228e-01,3.01264381666728877e+04,2.28767303473209893e+02,-5.54074391645852957e+04,-2.20157802377326419e+01,-9.13271567316393193e+04,-1.72505601390659358e+01,-2.03299791250174167e-01,3.90382770588661359e+01,2.01025275890042687e+00,8.52211051705380814e+04,6.09526522426302222e+02
3.60000000000000187e+00,1.28102889070509607e+06,-5.01005418038358260e+06,3.73654717797809793e+06,4.30866461461022539e+02,4.31130513998657250e+02,-5.82076157057713317e-01,9.14900558086205274e+03,-1.32046805621881758e+00,6.28896794190538788e-01,9.79233960559564132e+00,7.85734034149953242e-01,-1.18488257384861025e-02,-3.14348887215957443e-03,-8.45317980057425485e-05,1.27643419808692784e-04,-1.54462303368668226e-05,5.82076157057713317e-01,3.03208650572054296e+02,4.58763580041376517e-01,3.01261804214769545e+04,2.28766931087657724e+02,-5.54066381398943122e+04,-2.91914272393377239e+01,-9.13259394752982771e+04,-1.39826719360774216e+01,-1.86956126293807756e-01,4.87108038940750063e+01,2.01024677920507955e+00,8.52198690736510762e+04,6.09524213239590495e+02
3.70000000000000195e+00,1.28106439306654246e+06,-5.01001899063453171e+06,3.73658205554546090e+06,4.30861385564780392e+02,4.31132273150904609e+02,-5.98200893636089859e-01,9.14906462619453669e+03,-1.32045971908563509e+00,6.28903561676086298e-01,9.79233954027663067e+00,7.85744316990770297e-01,-1.18223461695580578e-02,-3.16018921918396079e-03,-1.54406613087879155e-04,1.27407739928648986e-04,3.45959480079573967e-05,5.98200893636089859e-01,3.03208396960970219e+02,4.58760313910658246e-01,3.01259155443792151e+04,2.28766548395376219e+02,-5.54058229369437395e+04,-2.23533182180983090e+01,-9.13246789674141764e+04,-4.70038217794604751e+00,-1.69759508862625808e-01,3.53575159356723034e+01,2.01024078214657909e+00,8.52186113404708449e+04,6.09521885060231170e+02
3.80000000000000204e+00,1.28109989561872906e+06,-5.00998380182967987e+06,3.73661693348096684e+06,4.30856216523532339e+02,4.31134098129039899e+02,-6.14312091806681337e-01,9.14912524830549955e+03,-1.32045138188037936e+00,6.28910329085730302e-01,9.79233947011671546e+00,7.85758537633804321e-01,-1.17958766303673801e-02,-3.18010108192052750e-03,-1.46577393356316679e-04,1.27192113139347349e-04,6.04521016836682975e-05,6.14312091806681337e-01,3.03208136577102835e+02,4.58756960577991146e-01,3.01256435958273760e+04,2.28766155483480532e+02,-5.54049937591686976e+04,-6.00426520833213306e+00,-9.13233989428188070e+04,5.78535884669578593e+00,-1.56262300388334552e-01,7.33586397945354296e+00,2.01023476787856081e+00,8.52173321554265713e+04,6.09519538050963320e+02
3.90000000000000213e+00,1.28113539837726927e+06,-5.00994861398762744e+06,3.73665181178278849e+06,4.30850910743098780e+02,4.31136032721577749e+02,-6.30409835699623500e-01,9.14918746380973607e+03,-1.32044304460102158e+00,6.28917096417211274e-01,9.79233939506483964e+00,7.85773978879810153e-01,-1.17694239038109941e-02,-3.19643487084732671e-03,-1.03671314988967856e-04,1.26990465527153666e-04,6.56789940523901832e-05,6.30409835699623500e-01,3.03207869349071245e+02,4.58753519125797871e-01,3.01253645014443973e+04,2.28765752244285295e+02,-5.54041505922765064e+04,1.25887361546516647e+01,-9.13221153294597898e+04,1.54485968961095619e+01,-1.48922198932268657e-01,-2.35615611459867935e+01,2.01022873740021968e+00,8.52160313932527060e+04,6.09517172371394281e+02
4.00000000000000178e+00,1.28117090133247850e+06,-5.00991342708584014e+06,3.73668669045102922e+06,4.30845471937418210e+02,4.31138073434162607e+02,-6.46494123067867577e-01,9.14925125316996127e+03,-1.32043470724830070e+00,6.28923863672776084e-01,9.79233931518102985e+00,7.85787980646746043e-01,-1.17429955093095364e-02,-3.20485139865581831e-03,1.98066362797021101e-05,1.26794586254421913e-04,2.63559955025092241e-05,6.46494123067867577e-01,3.03207595360774292e+02,4.58749990636296401e-01,3.01250783490334106e+04,2.28765338804418661e+02,-5.54032936420378974e+04,2.58230495452726352e+01,-9.13208366786815168e+04,1.60894759750342260e+01,-1.48255705844348995e-01,-4.37207893376619552e+01,2.01022269067222625e+00,8.52147092993975239e+04,6.09514788178391314e+02
4.10000000000000142e+00,1.28120640452973172e+06,-5.00987824118166231e+06,3.73672156947025424e+06,4.30839968555761175e+02,4.31140152087954277e+02,-6.62564708347957776e-01,9.14931666131783277e+03,-1.32042636981646844e+00,6.28930630844287131e-01,9.79233923032722053e+00,7.85797268387586456e-01,-1.17166018671591588e-02,-3.20166864095599571e-03,1.18479023927504023e-04,1.26595965651794628e-04,-2.44662009792516864e-05,6.62564708347957776e-01,3.03207314419203271e+02,4.58746372625670695e-01,3.01247849372014243e+04,2.28764914872664406e+02,-5.54024226576773581e+04,2.61694056938902904e+01,-9.13195625233369065e+04,9.71447800817153784e+00,-1.52998315501463367e-01,-4.21671514537903036e+01,2.01021662950357838e+00,8.52133654579642607e+04,6.09512385632602559e+02
4.20000000000000107e+00,1.28124190799310198e+06,-5.00984305630353652e+06,3.73675644882298261e+06,4.30834491798481167e+02,4.31142177778740006e+02,-6.78621187377586921e-01,9.14938370506744832e+03,-1.32041803230238197e+00,6.28937397926421116e-01,9.79233914045171439e+00,7.85801921378875279e-01,-1.16902433532972052e-02,-3.19160123601325112e-03,1.52150744489809142e-04,1.26388275276895717e-04,-6.27043251618647610e-05,6.78621187377586921e-01,3.03207026452119180e+02,4.58742664165494196e-01,3.01244841906959082e+04,2.28764480340045480e+02,-5.54015375463893506e+04,1.47586626640761001e+01,-9.13182850339151919e+04,-2.25507329230877879e-01,-1.60602176376414718e-01,-2.17642297840622305e+01,2.01021055491301581e+00,8.52119997428750212e+04,6.09509964897839950e+02
4.30000000000000071e+00,1.28127741172770178e+06,-5.00980787246109452e+06,3.73679132849812973e+06,4.30829107178765867e+02,4.31144085275346981e+02,-6.94663175007178779e-01,9.14945238645933568e+03,-1.32040969470555036e+00,6.28944164916785842e-01,9.79233904554818935e+00,7.85804101856927284e-01,-1.16639140363854928e-02,-3.18185461318702114e-03,1.13906287268568149e-04,1.26169672228838327e-04,-7.26230361747408956e-05,6.94663175007178779e-01,3.03206731450737777e+02,4.58738865144581565e-01,3.01241761005418484e+04,2.28764035193337179e+02,-5.54006382969443439e+04,-2.07770960866529508e+00,-9.13169945548591204e+04,-9.00488312638429633e+00,-1.68766889233666006e-01,6.40028833259967289e+00,2.01020446749461179e+00,8.52106121795275394e+04,6.09507526136712158e+02
4.40000000000000036e+00,1.28131291571861226e+06,-5.00977268964280002e+06,3.73682620849464415e+06,4.30823827686689242e+02,4.31145861831108618e+02,-7.10690434347327482e-01,9.14952269284334034e+03,-1.32040135702822092e+00,6.28950931816616654e-01,9.79233894565551211e+00,7.85806846307561702e-01,-1.16376053015489356e-02,-3.17863259404654441e-03,2.75331945867848316e-05,1.25941142872043371e-04,-5.22023619046140235e-05,7.10690434347327482e-01,3.03206429469374314e+02,4.58734976264380589e-01,3.01238607236674288e+04,2.28763579514530022e+02,-5.53997249987689938e+04,-1.62304639373437247e+01,-9.13156844774832280e+04,-1.27546916341321754e+01,-1.76216279320215108e-01,2.88764938260818234e+01,2.01019836741591895e+00,8.52092029435757577e+04,6.09505069509346185e+02
4.50000000000000000e+00,1.28134841993861366e+06,-5.00973750782257225e+06,3.73686108881995920e+06,4.30818612875230770e+02,4.31147548095847696e+02,-7.26702912374577181e-01,9.14959460269659758e+03,-1.32039301927424857e+00,6.28957698629810213e-01,9.79233884083981287e+00,7.85812669925457397e-01,-1.16113101127057472e-02,-3.18462512938869286e-03,-6.19101648969684842e-05,1.25704090147429507e-04,-1.39417807972890887e-05,7.26702912374577181e-01,3.03206120600453971e+02,4.58730998717135630e-01,3.01235381568034645e+04,2.28763113443121483e+02,-5.53987978091129698e+04,-2.15224550130922481e+01,-9.13143512041872164e+04,-1.03318085129777995e+01,-1.82347173536982154e-01,3.60058832887078282e+01,2.01019225459129691e+00,8.52077723017920362e+04,6.09502595175707256e+02
4.59999999999999964e+00,1.28138392436110135e+06,-5.00970232697332278e+06,3.73689596948528104e+06,4.30813392459788417e+02,4.31149214532186875e+02,-7.42700656313076024e-01,9.14966809605248272e+03,-1.32038468144732501e+00,6.28964465360819069e-01,9.79233873116245590e+00,7.85822418524601662e-01,-1.15850265345462458e-02,-3.19798791901314012e-03,-1.13507387517377693e-04,1.25459918676042566e-04,2.30355000635584792e-05,7.42700656313076024e-01,3.03205804929717431e+02,4.58726933609019283e-01,3.01232084897008353e+04,2.28762637108522512e+02,-5.53978568784595700e+04,-1.64538031077305433e+01,-9.13129921578204667e+04,-3.46494468684777823e+00,-1.86773373658070341e-01,2.61128628089599815e+01,2.01018612898255489e+00,8.52063205052231497e+04,6.09500103296708403e+02
4.69999999999999929e+00,1.28141942897131271e+06,-5.00966714707909152e+06,3.73693085049925046e+06,4.30808101280172423e+02,4.31150926476886013e+02,-7.58683671640824286e-01,9.14974316252488643e+03,-1.32037634354945577e+00,6.28971232012502268e-01,9.79233861665537830e+00,7.85835075408049644e-01,-1.15587583260494606e-02,-3.21371702931889849e-03,-1.07641407660953532e-04,1.25210743608578063e-04,4.21127168904069274e-05,7.58683671640824286e-01,3.03205482501754602e+02,4.58722781516295419e-01,3.01228717691368875e+04,2.28762150578049585e+02,-5.53969022957585694e+04,-4.35896968034735011e+00,-9.13116059184862970e+04,4.28739753542520585e+00,-1.89476743460545549e-01,5.38490583651418397e+00,2.01017999082184406e+00,8.52048477062751335e+04,6.09497594032509824e+02
4.79999999999999893e+00,1.28145493378078961e+06,-5.00963196815392282e+06,3.73696573185994942e+06,4.30802707136226218e+02,4.31152716327544454e+02,-7.74651817828072353e-01,9.14981981429643929e+03,-1.32036800557915646e+00,6.28977998583089448e-01,9.79233849728114691e+00,7.85848638944329214e-01,-1.15325122210265460e-02,-3.22681461566733368e-03,-7.65477995410959662e-05,1.24958876273449898e-04,4.62233833065865929e-05,7.74651817828072353e-01,3.03205153264217188e+02,4.58718541766937271e-01,3.01225279406577138e+04,2.28761653772743841e+02,-5.53959340071638944e+04,9.41618738555067480e+00,-9.13101933912333479e+04,1.14937385901648277e+01,-1.91006363558699377e-01,-1.75170588739992148e+01,2.01017384097961704e+00,8.52033538251231366e+04,6.09495067541944991e+02
4.89999999999999858e+00,1.28149043878117600e+06,-5.00959679017979000e+06,3.73700061356725916e+06,4.30797212510784675e+02,4.31154581823994477e+02,-7.90604816640922081e-01,9.14989803549088538e+03,-1.32035966753713363e+00,6.28984765074365848e-01,9.79233837308853161e+00,7.85861149526170477e-01,-1.15062947425019577e-02,-3.23407617396220641e-03,1.52965396982088637e-05,1.24705586265801306e-04,1.69931601075569780e-05,7.90604816640922081e-01,3.03204817285275851e+02,4.58714215240945744e-01,3.01221770756743354e+04,2.28761146795505226e+02,-5.53949521548106350e+04,1.92522587116575181e+01,-9.13087577639368828e+04,1.19658273406438731e+01,-1.92170899259508587e-01,-3.24996545303995603e+01,2.01016767952369513e+00,8.52018390699172887e+04,6.09492523982748935e+02
4.99999999999999822e+00,1.28152594400613382e+06,-5.00956161319957487e+06,3.73703549560924852e+06,4.30791668190894484e+02,4.31156472447303543e+02,-8.06542206161424247e-01,9.14997785942070186e+03,-1.32035132941914046e+00,6.28991531480201038e-01,9.79233824397517694e+00,7.85870155972636542e-01,-1.14801140000430364e-02,-3.23271147337763319e-03,8.86887172404509527e-05,1.24450726724622716e-04,-2.07879265195211826e-05,8.06542206161424247e-01,3.03204474421823306e+02,4.58709800097665488e-01,3.01218190249638246e+04,2.28760629430425382e+02,-5.53939565560325937e+04,1.95140023432084249e+01,-9.13073016084432747e+04,7.22744491314383364e+00,-1.93554086745280074e-01,-3.13518136929975739e+01,2.01016150793226700e+00,8.52003031442919164e+04,6.09489963515582872e+02
5.09999999999999787e+00,1.28156144947317359e+06,-5.00952643723414373e+06,3.73707037797246920e+06,4.30786141965362901e+02,4.31158320698639955e+02,-8.22463460817715486e-01,9.15005929802451283e+03,-1.32034299122290122e+00,6.28998297796612427e-01,9.79233810990435849e+00,7.85875716436780558e-01,-1.14539700181334365e-02,-3.22622506143214766e-03,1.13772190927114919e-04,1.24193479124755314e-04,-4.92263299641640506e-05,8.22463460817715486e-01,3.03204124622557288e+02,4.58705295678731473e-01,3.01214537351843173e+04,2.28760101600126973e+02,-5.53929471665740493e+04,1.10394347023776334e+01,-9.13058258316453284e+04,-1.59711823583621404e-01,-1.95241455356153892e-01,-1.61973846281588507e+01,2.01015532708315892e+00,8.51987459721938649e+04,6.09487386303619473e+02
5.19999999999999751e+00,1.28159695518572279e+06,-5.00949126229038462e+06,3.73710526064821891e+06,4.30780682554958389e+02,4.31160078134592652e+02,-8.38368147707399203e-01,9.15014235225506127e+03,-1.32033465294810926e+00,6.29005064021794791e-01,9.79233797087311864e+00,7.85879436855849045e-01,-1.14278578429335056e-02,-3.21997166422790561e-03,8.52700637179917273e-05,1.23933637636137583e-04,-5.65777395203792232e-05,8.38368147707399203e-01,3.03203767883362048e+02,4.58700701933467347e-01,3.01210812022762948e+04,2.28759563298435751e+02,-5.53919240115145803e+04,-1.46817434974034478e+00,-9.13043306880393211e+04,-6.67593146635509527e+00,-1.97246644274855498e-01,4.72488217266958355e+00,2.01014913754054669e+00,8.51971675903778960e+04,6.09484792509784370e+02
5.29999999999999716e+00,1.28163246113229962e+06,-5.00945608835939132e+06,3.73714014363522967e+06,4.30775299615605661e+02,4.31161735342610200e+02,-8.54256018148646490e-01,9.15022701208386570e+03,-1.32032631459649363e+00,6.29011830156641860e-01,9.79233782691227361e+00,7.85883577737678474e-01,-1.14017704557812863e-02,-3.21857181914994095e-03,2.11988099307747603e-05,1.23671135827796793e-04,-4.14470366499408927e-05,8.54256018148646490e-01,3.03203404247288688e+02,4.58696019418603940e-01,3.01207014714392280e+04,2.28759014590350432e+02,-5.53908871904560147e+04,-1.19758604336513059e+01,-9.13028170705904777e+04,-9.46426214960235157e+00,-1.99712831814395031e-01,2.14136531040178610e+01,2.01014293955156020e+00,8.51955681480501225e+04,6.09482182295684879e+02
5.39999999999999680e+00,1.28166796729232068e+06,-5.00942091542152409e+06,3.73717502693857579e+06,4.30769963138803519e+02,4.31163322538083321e+02,-8.70127012516405784e-01,9.15031326097343117e+03,-1.32031797617097468e+00,6.29018596204022784e-01,9.79233767807261124e+00,7.85890001885120038e-01,-1.13757021735331025e-02,-3.22400882528604696e-03,-4.51869544924478729e-05,1.23405333103028628e-04,-1.30661379438830753e-05,8.70127012516405784e-01,3.03203033785345781e+02,4.58691249050903138e-01,3.01203146170698892e+04,2.28758455583056730e+02,-5.53898368470649802e+04,-1.59089122502261802e+01,-9.13012857951504993e+04,-7.67006678203533721e+00,-2.02667982477578335e-01,2.67146564625462126e+01,2.01013673317687136e+00,8.51939478611915547e+04,6.09479555822591465e+02
5.49999999999999645e+00,1.28170347364565707e+06,-5.00938574345637020e+06,3.73720991056610597e+06,4.30764620989657828e+02,4.31164892040227073e+02,-8.85981173671410716e-01,9.15040108351316303e+03,-1.32030963767434995e+00,6.29025362167217716e-01,9.79233752440151761e+00,7.85899338090228494e-01,-1.13496513223756684e-02,-3.23491669154733459e-03,-8.35059633149495725e-05,1.23135387478357254e-04,1.43726800921489997e-05,8.85981173671410716e-01,3.03202656563701680e+02,4.58686391684808736e-01,3.01199207085116395e+04,2.28757886376436602e+02,-5.53887731140597316e+04,-1.21516609469159178e+01,-9.12997364399588987e+04,-2.57536895218587691e+00,-2.05853706545894966e-01,1.93801230395633368e+01,2.01013051850966074e+00,8.51923069342410163e+04,6.09476913251900214e+02
5.59999999999999609e+00,1.28173898018096760e+06,-5.00935057245176565e+06,3.73724479452377092e+06,4.30759224818797065e+02,4.31166492381883131e+02,-9.01818519908317739e-01,9.15049047139100730e+03,-1.32030129910816640e+00,6.29032128048326311e-01,9.79233736592452786e+00,7.85910832645034030e-01,-1.13236207070142782e-02,-3.24758302660825473e-03,-7.91793113436776411e-05,1.22861089979545152e-04,2.85325385523900655e-05,9.01818519908317739e-01,3.03202272618034328e+02,4.58681447782168017e-01,3.01195197832705562e+04,2.28757307024364053e+02,-5.53876960727424812e+04,-3.17645426277849641e+00,-9.12981677936957276e+04,3.17923546758350550e+00,-2.08955907783092698e-01,3.99840275695800784e+00,2.01012429584267993e+00,8.51906454984996235e+04,6.09474254744226528e+02
5.69999999999999574e+00,1.28177448690673546e+06,-5.00931540241821110e+06,3.73727967880956968e+06,4.30753750691620780e+02,4.31168147700448515e+02,-9.17638950177632751e-01,9.15058143335022032e+03,-1.32029296047134270e+00,6.29038893845954905e-01,9.79233720261478524e+00,7.85923007400093354e-01,-1.12976154973239047e-02,-3.25831611609593520e-03,-5.66971364199242829e-05,1.22582822612378646e-04,3.18293018451703080e-05,9.17638950177632751e-01,3.03201881910763916e+02,4.58676416861559522e-01,3.01191118023593081e+04,2.28756717470171992e+02,-5.53866056911111154e+04,7.07447718867357711e+00,-9.12965790533367835e+04,8.58632496184147875e+00,-2.11872670846787514e-01,-1.30549250703574113e+01,2.01011806595149034e+00,8.51889635098341532e+04,6.09471580459316897e+02
5.79999999999999538e+00,1.28180999381568097e+06,-5.00928023334101681e+06,3.73731456342316186e+06,4.30748200162665853e+02,4.31169856666643852e+02,-9.33442241791254901e-01,9.15067395621538162e+03,-1.32028462176454364e+00,6.29045659561537018e-01,9.79233703451275517e+00,7.85934413378381880e-01,-1.12716407934915323e-02,-3.26473625313923165e-03,1.19299224260267567e-05,1.22300924698878332e-04,1.00241997834380950e-05,9.33442241791254901e-01,3.03201484498457148e+02,4.58671299653879372e-01,3.01186968251039943e+04,2.28756117799255549e+02,-5.53855020862081583e+04,1.44294956052291123e+01,-9.12949705153697578e+04,8.94325889435697796e+00,-2.14675933988473844e-01,-2.42604515204836382e+01,2.01011182898492313e+00,8.51872611490580457e+04,6.09468890556137467e+02
5.89999999999999503e+00,1.28184550093283830e+06,-5.00924506525230501e+06,3.73734944835517649e+06,4.30742611040352358e+02,4.31171581736334019e+02,-9.49228010140103606e-01,9.15076806464791298e+03,-1.32027628298462330e+00,6.29052425190428366e-01,9.79233686154267247e+00,7.85943203675492419e-01,-1.12457030129796756e-02,-3.26470907965020762e-03,6.68209294531987190e-05,1.22015386572353030e-04,-1.81935179316636591e-05,9.49228010140103606e-01,3.03201080275160109e+02,4.58666094797400559e-01,3.01182747411315831e+04,2.28755507851776827e+02,-5.53843851241984012e+04,1.46421846189327471e+01,-9.12933422117138398e+04,5.41123069489802511e+00,-2.17418032214482082e-01,-2.34316081454797320e+01,2.01010558617516644e+00,8.51855382088313636e+04,6.09466185195444382e+02
5.99999999999999467e+00,1.28188100827093399e+06,-5.00920989816734381e+06,3.73738433359511383e+06,4.30737033949893544e+02,4.31173272566685171e+02,-9.64995806426173885e-01,9.15086376697197556e+03,-1.32026794412993453e+00,6.29059190729631679e-01,9.79233668367891497e+00,7.85949418619302342e-01,-1.12198024099358779e-02,-3.26084731268349790e-03,8.56726240894696534e-05,1.21726103966508626e-04,-3.94665437373165696e-05,9.64995806426173885e-01,3.03200669205091458e+02,4.58660801834036347e-01,3.01178455133508869e+04,2.28754887573785169e+02,-5.53832547788260708e+04,8.32975945100359283e+00,-9.12916937530829746e+04,-1.02281322814445214e-01,-2.20010921682842309e-01,-1.21399377142577123e+01,2.01009933829478671e+00,8.51837946501267870e+04,6.09463464539690904e+02
6.09999999999999432e+00,1.28191651583219785e+06,-5.00917473209098447e+06,3.73741921913601551e+06,4.30731505338501563e+02,4.31174892981673906e+02,-9.80745243236015085e-01,9.15096106333378702e+03,-1.32025960520029706e+00,6.29065956177772612e-01,9.79233650092102259e+00,7.85954254640844230e-01,-1.11939354348630192e-02,-3.25714750877515499e-03,6.43491990173603750e-05,1.21433415132216445e-04,-4.49562964786184852e-05,9.80745243236015085e-01,3.03200251287595904e+02,4.58655420758043109e-01,3.01174091413542446e+04,2.28754256964333820e+02,-5.53821110776654605e+04,-1.00185963753094698e+00,-9.12900249121593661e+04,-4.96005633503110754e+00,-2.22446661697176751e-01,3.46961345885896399e+00,2.01009308588364011e+00,8.51820305179454881e+04,6.09460728751378724e+02
6.19999999999999396e+00,1.28195202360770060e+06,-5.00913956701621320e+06,3.73745410497644963e+06,4.30726032462295564e+02,4.31176435967016744e+02,-9.96476069387000507e-01,9.15105994559638202e+03,-1.32025126619705269e+00,6.29072721535496759e-01,9.79233631329398513e+00,7.85959403857277472e-01,-1.11680968988244912e-02,-3.25707320863450819e-03,1.66725268022051222e-05,1.21137698037319775e-04,-3.37320097796641746e-05,9.96476069387000507e-01,3.03199826557596566e+02,4.58649952021819129e-01,3.01169656618873305e+04,2.28753616076162075e+02,-5.53809541057211172e+04,-8.84045350141326303e+00,-9.12883362637585524e+04,-7.04857159893034346e+00,-2.24872263417637441e-01,1.59219146674713130e+01,2.01008682924343685e+00,8.51802459421839449e+04,6.09457977992319229e+02
6.29999999999999361e+00,1.28198753158175200e+06,-5.00910440292808972e+06,3.73748899111976475e+06,4.30720593008427443e+02,4.31177924045739530e+02,-1.01218817702329034e+00,9.15116040087584406e+03,-1.32024292712243008e+00,6.29079486804921206e-01,9.79233612083737626e+00,7.85966250568707059e-01,-1.11422826048891057e-02,-3.26209036601924837e-03,-3.28075069570712518e-05,1.20838885767337621e-04,-1.26099376471860373e-05,1.01218817702329034e+00,3.03199395070405956e+02,4.58644396340314564e-01,3.01165151329875298e+04,2.28752964992775702e+02,-5.53797839812180100e+04,-1.17858508207050008e+01,-9.12866286206201912e+04,-5.72112247565550902e+00,-2.27408197508339072e-01,1.98973277922118896e+01,2.01008056853978045e+00,8.51784411014187499e+04,6.09455212424039132e+02
6.39999999999999325e+00,1.28202303973898664e+06,-5.00906923981104512e+06,3.73752387757134903e+06,4.30715148173498733e+02,4.31179396211851440e+02,-1.02788153994845288e+00,9.15126241705566645e+03,-1.32023458797856597e+00,6.29086251988471568e-01,9.79233592358843907e+00,7.85975266058304700e-01,-1.11164913255908781e-02,-3.27118790073505951e-03,-6.14280241315718310e-05,1.20536650999244243e-04,7.83823028690136983e-06,1.02788153994845288e+00,3.03198956878040178e+02,4.58638754386049396e-01,3.01160576092517367e+04,2.28752303792706698e+02,-5.53786008159637349e+04,-8.99958335572081936e+00,-9.12849022102306481e+04,-1.92962450413215336e+00,-2.30015588171227137e-01,1.44541367251020461e+01,2.01007430395978082e+00,8.51766161663137755e+04,6.09452432207958168e+02
6.49999999999999289e+00,1.28205854807057581e+06,-5.00903407765564043e+06,3.73755876433518203e+06,4.30709661925547039e+02,4.31180888687631636e+02,-1.04355612023877597e+00,9.15136598730925471e+03,-1.32022624876666739e+00,6.29093017087695605e-01,9.79233572156815946e+00,7.85985891136715575e-01,-1.10907251991671160e-02,-3.28160307182703750e-03,-5.82827102945401398e-05,1.20230888234201894e-04,1.84102145797670967e-05,1.04355612023877597e+00,3.03198512009793376e+02,4.58633026539005895e-01,3.01155931215544297e+04,2.28751632520201440e+02,-5.53774046844662735e+04,-2.31759072915410114e+00,-9.12831567788403190e+04,2.35978434243442026e+00,-2.32599529943399830e-01,3.00126848088509846e+00,2.01006803583921290e+00,8.51747712530344725e+04,6.09449637504897396e+02
6.59999999999999254e+00,1.28209405658273911e+06,-5.00899891646967642e+06,3.73759365140921343e+06,4.30704116359169348e+02,4.31182419586040510e+02,-1.05921179601804738e+00,9.15147111777588725e+03,-1.32021790948594764e+00,6.29099782101486871e-01,9.79233551475766006e+00,7.85997032032943799e-01,-1.10649881306994335e-02,-3.29060087080216028e-03,-4.21209757397141747e-05,1.19921736789872337e-04,2.11175514230942668e-05,1.05921179601804738e+00,3.03198060439266442e+02,4.58627212462133393e-01,3.01151216426246501e+04,2.28750951135470217e+02,-5.53761955747468601e+04,5.34771954682155481e+00,-9.12813921540676529e+04,6.44692828879765489e+00,-2.35148240877606440e-01,-9.76136698946227099e+00,2.01006176488137722e+00,8.51729063444392523e+04,6.09446828475162420e+02
6.69999999999999218e+00,1.28212956526903342e+06,-5.00896375624089967e+06,3.73762853879292682e+06,4.30698512325603815e+02,4.31183988282801749e+02,-1.07484835825678715e+00,9.15157779725827277e+03,-1.32020957013703133e+00,6.29106547031019647e-01,9.79233530319135603e+00,7.86007613772057967e-01,-1.10392839900284381e-02,-3.29640425356820177e-03,9.44075409069297671e-06,1.19609278329546489e-04,4.77993037485268608e-06,1.07484835825678715e+00,3.03197602214526398e+02,4.58621312777190149e-01,3.01146432229447237e+04,2.28750259711087352e+02,-5.53749735917985818e+04,1.08856368336488263e+01,-9.12796087095624098e+04,6.72354967228679712e+00,-2.37716039664519485e-01,-1.82018293146669379e+01,2.01005549129417771e+00,8.51710216013059107e+04,6.09444005278536565e+02
6.79999999999999183e+00,1.28216507414814993e+06,-5.00892859699343517e+06,3.73766342647882784e+06,4.30692878082052175e+02,4.31185566780893055e+02,-1.09046547467443133e+00,9.15168604397866875e+03,-1.32020123071757833e+00,6.29113311872748771e-01,9.79233508681322817e+00,7.86016233197715741e-01,-1.10136177548430612e-02,-3.29736032199407425e-03,5.07596218594837337e-05,1.19293400275041287e-04,-1.64116809349225794e-05,1.09046547467443133e+00,3.03197137257272743e+02,4.58615326478985397e-01,3.01141577810646122e+04,2.28749558128949474e+02,-5.53737386447502431e+04,1.10689627942895097e+01,-9.12778064576645556e+04,4.08088159918124305e+00,-2.40320818669715663e-01,-1.76183415191035238e+01,2.01004921612688392e+00,8.51691168825756613e+04,6.09441168075896258e+02
6.89999999999999147e+00,1.28220058322932106e+06,-5.00889343873838615e+06,3.73769831445857417e+06,4.30687251646443087e+02,4.31187117337561915e+02,-1.10606276408438475e+00,9.15179586356878281e+03,-1.32019289122639605e+00,6.29120076624404168e-01,9.79233486560596589e+00,7.86022916340805011e-01,-1.09879897026894258e-02,-3.29542438233352284e-03,6.50673789200755524e-05,1.18973967791653296e-04,-3.24311031262176705e-05,1.10606276408438475e+00,3.03196665543284951e+02,4.58609253258681404e-01,3.01136652920047745e+04,2.28748846352556683e+02,-5.53724907257049854e+04,6.34958783684180794e+00,-9.12759851368109667e+04,-5.53488317129564936e-02,-2.42890508165146457e-01,-9.17163549506758713e+00,2.01004294007407314e+00,8.51671921768408502e+04,6.09438317029279915e+02
6.99999999999999112e+00,1.28223609251391958e+06,-5.00885828147904947e+06,3.73773320272647496e+06,4.30681660469556505e+02,4.31188612767409211e+02,-1.12163989138591091e+00,9.15190725553035736e+03,-1.32018455166339077e+00,6.29126841284931237e-01,9.79233463957107197e+00,7.86028558000976041e-01,-1.09623972345097177e-02,-3.29359473404316908e-03,4.91190402835703995e-05,1.18651131717428034e-04,-3.65942505296884752e-05,1.12163989138591091e+00,3.03196187074672423e+02,4.58603093146485008e-01,3.01131657582805310e+04,2.28748124385139420e+02,-5.53712298670284290e+04,-6.48590936530506479e-01,-9.12741445499716501e+04,-3.70139264909667975e+00,-2.45394456662324956e-01,2.53639077714475114e+00,2.01003666365618550e+00,8.51652475356950454e+04,6.09435452300851239e+02
7.09999999999999076e+00,1.28227160198176280e+06,-5.00882312519269995e+06,3.73776809128630301e+06,4.30676112642125759e+02,4.31190045222393962e+02,-1.13719661210851086e+00,9.15202020023018122e+03,-1.32017621203125857e+00,6.29133605857301492e-01,9.79233440876887329e+00,7.86034025231047040e-01,-1.09368378265395083e-02,-3.29349487757427204e-03,4.16072467015069639e-05,1.18325057048243655e-04,-4.03197334586894454e-05,1.13719661210851086e+00,3.03195701935735769e+02,4.58596847230808791e-01,3.01126592682193841e+04,2.28747392353947930e+02,-5.53699562298016608e+04,-7.86614445246208138e+00,-9.12722850772372622e+04,-8.07257721508769244e+00,-2.47880992821592372e-01,1.46204593150889668e+01,2.01003038684598589e+00,8.51632832070092700e+04,6.09432574051927190e+02
7.19999999999999041e+00,1.28230711165238498e+06,-5.00878796991236042e+06,3.73780298013069527e+06,4.30670605069259977e+02,4.31191418027880900e+02,-1.15273273573271240e+00,9.15213472310546786e+03,-1.32016787232792887e+00,6.29140370337170407e-01,9.79233417312121013e+00,7.86040183565974382e-01,-1.09113089608019707e-02,-3.29647599842328252e-03,-1.76896660702615064e-05,1.17995792523418674e-04,-1.92853425477673586e-05,1.15273273573271240e+00,3.03195210017181296e+02,4.58590514107673430e-01,3.01121457080380424e+04,2.28746650094116490e+02,-5.53686696750490009e+04,-1.24409864530602583e+01,-9.12704067048488505e+04,-7.18048546959833889e+00,-2.50402759127609897e-01,2.12708330474307665e+01,2.01002411090182820e+00,8.51612989759879129e+04,6.09429682444477976e+02
7.29999999999999005e+00,1.28234262149464991e+06,-5.00875281559790205e+06,3.73783786926560756e+06,4.30665103268755956e+02,4.31192765857193308e+02,-1.16824822174001497e+00,9.15225078998226672e+03,-1.32015953255731522e+00,6.29147134729595825e-01,9.79233393273307229e+00,7.86048645862202133e-01,-1.08858056348333093e-02,-3.30463052567896111e-03,-5.78148986143997687e-05,1.17663204769598130e-04,3.79712244488966764e-06,1.16824822174001497e+00,3.03194711465766943e+02,4.58584095669645975e-01,3.01116252312750366e+04,2.28745897827138663e+02,-5.53673704619919445e+04,-1.08429600990206279e+01,-9.12685100726746023e+04,-3.41652346197187651e+00,-2.52985228198667755e-01,1.76683090271755070e+01,2.01001783538382606e+00,8.51592952399526403e+04,6.09426777640244609e+02
7.39999999999998970e+00,1.28237813149729441e+06,-5.00871766223727819e+06,3.73787275869622035e+06,4.30659566446382485e+02,4.31194129684436803e+02,-1.18374306129996398e+00,9.15236839220020920e+03,-1.32015119272095549e+00,6.29153899036568043e-01,9.79233368763107315e+00,7.86059060518061403e-01,-1.08603293152370085e-02,-3.31519174665759935e-03,-6.42490486715542011e-05,1.17327126513448897e-04,1.82837923703161883e-05,1.18374306129996398e+00,3.03194206318660406e+02,4.58577592398383638e-01,3.01110978770564507e+04,2.28745135609146132e+02,-5.53660586774219773e+04,-4.40528062124305375e+00,-9.12665949194982531e+04,1.35114717707600751e+00,-2.55518647132703336e-01,6.45057323558381945e+00,2.01001156057600028e+00,8.51572721339861891e+04,6.09423859800172409e+02
7.49999999999998934e+00,1.28241364165937575e+06,-5.00868250982914865e+06,3.73790764842375973e+06,4.30653970375140943e+02,4.31195533933625597e+02,-1.19921716766268105e+00,9.15248752923682332e+03,-1.32014285281896648e+00,6.29160663258379160e-01,9.79233343781682208e+00,7.86070245501548248e-01,-1.08348842236769619e-02,-3.32475819999286095e-03,-4.30939325668452955e-05,1.16987731868957415e-04,2.02681888005572463e-05,1.19921716766268105e+00,3.03193694578073689e+02,4.58571004325549980e-01,3.01105636480186804e+04,2.28744363443526339e+02,-5.53647343534458851e+04,3.57068864331931124e+00,-9.12646610434638860e+04,5.31028528017749935e+00,-2.57974807136633899e-01,-6.78554731274703915e+00,2.01000528699118020e+00,8.51552297093577363e+04,6.09420929084317208e+02
7.59999999999998899e+00,1.28244915198551514e+06,-5.00864735837671068e+06,3.73794253844511881e+06,4.30648315018462824e+02,4.31196978867395842e+02,-1.21467034162139953e+00,9.15260820268839598e+03,-1.32013451285064054e+00,6.29167427394237699e-01,9.79233318328541458e+00,7.86080899828988766e-01,-1.08094750018232454e-02,-3.33099642978874986e-03,2.62760423097946013e-06,1.16645180084866174e-04,6.90106230244982588e-06,1.21467034162139953e+00,3.03193176237117427e+02,4.58564331365682420e-01,3.01100225373012181e+04,2.28743581319934322e+02,-5.53633975095585847e+04,9.58195349626058501e+00,-9.12627086939115397e+04,6.29944181941660020e+00,-2.60422903895232594e-01,-1.61361430500202552e+01,2.00999901520148727e+00,8.51531679954984575e+04,6.09417985652416974e+02
7.69999999999998863e+00,1.28248466248818138e+06,-5.00861220789427310e+06,3.73797742875386542e+06,4.30642624999226825e+02,4.31198440122198235e+02,-1.23010227095767277e+00,9.15273042246513069e+03,-1.32012617281433320e+00,6.29174191441754793e-01,9.79233292400638256e+00,7.86089820393944927e-01,-1.07841059931958628e-02,-3.33269654306350260e-03,4.36327518203906162e-05,1.16299389588867032e-04,-1.28515775331072492e-05,1.23010227095767277e+00,3.03192651253190093e+02,4.58557572973625649e-01,3.01094745007682577e+04,2.28742789174140057e+02,-5.53620481106317893e+04,1.07762942880172634e+01,-9.12607380756992206e+04,4.36048665143635095e+00,-2.62906540363474051e-01,-1.72825375529373453e+01,2.00999274601852873e+00,8.51510869367103587e+04,6.09415029665037650e+02
