time,gePosition_m_X,gePosition_m_Y,gePosition_m_Z,feVelocity_m_s_X,feVelocity_m_s_Y,feVelocity_m_s_Z,altitudeMsl_m,longitude_rad,latitude_rad,localGravity_m_s2,eulerAngle_rad_Yaw,eulerAngle_rad_Pitch,eulerAngle_rad_Roll,bodyAngularRateWrtEi_rad_s_Roll,bodyAngularRateWrtEi_rad_s_Pitch,bodyAngularRateWrtEi_rad_s_Yaw,altitudeRateWrtMsl_m_s,speedOfSound_m_s,airDensity_kg_m3,ambientPressure_Pa,ambientTemperature_K,aero_bodyForce_N_X,aero_bodyForce_N_Y,aero_bodyForce_N_Z,aero_bodyMoment_Nm_L,aero_bodyMoment_Nm_M,aero_bodyMoment_Nm_N,mach,dynamicPressure_Pa,trueAirspeed_m_s
0.00000000000000000e+00,1.27975097969655227e+06,-5.01132167006370611e+06,3.73529182979875896e+06,4.31048170058400160e+02,4.31048170058399933e+02,2.84217094304040074e-14,9.14796239999961108e+03,-1.32076813760289768e+00,6.28653110335565923e-01,9.79233863376700775e+00,7.85398163397448168e-01,-1.27915687066524307e-02,-3.00196631343049554e-03,4.11533112324237549e-05,-4.15747245122580615e-05,-4.35366670021904026e-05,-2.84217094304040074e-14,3.03213131200728640e+02,4.58821287208398265e-01,3.01308604379569006e+04,2.28773692288189437e+02,-5.54269320261155444e+04,-1.05662575851066308e+02,-9.14404849863922864e+04,-7.43332771038037947e+01,7.72306708121323027e+00,1.77010292753885807e+02,2.01044778541975200e+00,8.52501536460957432e+04,6.09594168132693653e+02
5.00000000000000028e-02,1.27976872604863928e+06,-5.01130405755843595e+06,3.73530926187990466e+06,4.31046152484260574e+02,4.31049088175993973e+02,-8.46008551502563932e-03,9.14796264409925789e+03,-1.32076397057642936e+00,6.28656495526163872e-01,9.79233869099735976e+00,7.85403056062634386e-01,-1.27865665136213478e-02,-3.00832055307937189e-03,-1.99177839446763112e-04,-3.11673578460497299e-05,5.29882503509144256e-05,8.46008551502563932e-03,3.03213130152289182e+02,4.58821273704527743e-01,3.01308593427849592e+04,2.28773690706098535e+02,-5.54264989899235661e+04,-9.96334393827849851e+01,-9.13595581282943458e+04,-5.40726148609515178e+01,2.30597318165455363e+01,1.62790329159690202e+02,2.01044522859411012e+00,8.52499337105930754e+04,6.09593390761754677e+02
1.00000000000000006e-01,1.27978647245162260e+06,-5.01128644528559782e+06,3.73532669407809945e+06,4.31044088852243362e+02,4.31050044137136240e+02,-1.65236847764163031e-02,9.14796329496428370e+03,-1.32075980353112454e+00,6.28659880701261997e-01,9.79233874697895956e+00,7.85412503874332035e-01,-1.27808008561873659e-02,-3.02472645424857640e-03,-3.57380010423463494e-04,-1.20678184319418858e-05,1.36989818324910316e-04,1.65236847764163031e-02,3.03213127356739960e+02,4.58821237697935813e-01,3.01308564226289382e+04,2.28773686487626151e+02,-5.54260908816523151e+04,-8.22259202065573902e+01,-9.12933354558739229e+04,-3.16757990379435874e+01,3.40297262003441574e+01,1.30403201234722076e+02,2.01044266457241338e+00,8.52497080016505060e+04,6.09592607696418781e+02
1.50000000000000022e-01,1.27980421890280372e+06,-5.01126883322989754e+06,3.73534412638195092e+06,4.31041943745948743e+02,4.31051073991305202e+02,-2.42748080453623061e-02,9.14796433336939663e+03,-1.32075563646675764e+00,6.28663265860842646e-01,9.79233880177081772e+00,7.85425636470095334e-01,-1.27739115734699493e-02,-3.04694620649236100e-03,-4.29893162281902203e-04,1.28558467673630160e-05,1.99184388046200379e-04,2.42748080453623061e-02,3.03213122896656046e+02,4.58821180252190042e-01,3.01308517637449149e+04,2.28773679757377721e+02,-5.54257196035753368e+04,-5.60493442297300248e+01,-9.12433599477689859e+04,-9.13243879012093984e+00,4.07357674557351856e+01,8.45201015236423814e+01,2.01044009424641423e+00,8.52494768389817764e+04,6.09591819373102794e+02
2.00000000000000011e-01,1.27982196540293167e+06,-5.01125122138109058e+06,3.73536155878112046e+06,4.31039692007697909e+02,4.31052203330655402e+02,-3.18020129994636136e-02,9.14796574535407126e+03,-1.32075146938269872e+00,6.28666651004491817e-01,9.79233885541576754e+00,7.85441192716170411e-01,-1.27656798656434305e-02,-3.07075078736642826e-03,-4.20884822332026750e-04,4.08938817145556522e-05,2.33347111157353084e-04,3.18020129994636136e-02,3.03213116831999628e+02,4.58821102139609138e-01,3.01308454287685272e+04,2.28773670605836088e+02,-5.54253921845876757e+04,-2.46434692831260342e+01,-9.12098302582272881e+04,1.14578709495235440e+01,4.35382992126906174e+01,3.12223132381923349e+01,2.01043751821333494e+00,8.52492404504904116e+04,6.09591026093455298e+02
2.50000000000000000e-01,1.27983971195569122e+06,-5.01123360973396897e+06,3.73537899126669206e+06,4.31037321457752910e+02,4.31053444580967152e+02,-3.91917876830234491e-02,9.14796752233244479e+03,-1.32074730227800896e+00,6.28670036131457888e-01,9.79233890794017015e+00,7.85457690367014405e-01,-1.27560161163089610e-02,-3.09230728632383343e-03,-3.43831315575521994e-04,6.96407842087605960e-05,2.37574038706257789e-04,3.91917876830234491e-02,3.03213109199647931e+02,4.58821003835181096e-01,3.01308374562217796e+04,2.28773659088649083e+02,-5.54251112386996538e+04,8.01306803931458589e+00,-9.11918399900616641e+04,2.83233420675946732e+01,4.29837836350598081e+01,-2.28645188991759127e+01,2.01043493680009533e+00,8.52489989729300141e+04,6.09590228030754588e+02
2.99999999999999989e-01,1.27985745856686169e+06,-5.01121599828779045e+06,3.73539642383143585e+06,4.31034833658631214e+02,4.31054796259228794e+02,-4.65233080423956835e-02,9.14796966062765568e+03,-1.32074313515157060e+00,6.28673421240756092e-01,9.79233895935528764e+00,7.85473646187864194e-01,-1.27449413745296235e-02,-3.10860574507069260e-03,-2.12412795471543357e-04,9.70939464849945329e-05,2.11675614285704371e-04,4.65233080423956835e-02,3.03213100015393536e+02,4.58820885542323365e-01,3.01308278626022038e+04,2.28773645229647656e+02,-5.54248756237176858e+04,3.80243343487486456e+01,-9.11876431314624933e+04,3.97581052094725109e+01,3.97345422100333963e+01,-7.13135314795069206e+01,2.01043235009738153e+00,8.52487524607054947e+04,6.09589425244260042e+02
3.49999999999999978e-01,1.27987520524342963e+06,-5.01119838704570290e+06,3.73541385647015087e+06,4.31032243477527459e+02,4.31056243440758749e+02,-5.38646491614542811e-02,9.14797216104622930e+03,-1.32073896800222590e+00,6.28676806331283755e-01,9.79233900965862958e+00,7.85487656749629615e-01,-1.27325653861330729e-02,-3.11746008405387959e-03,-5.09532763603590068e-05,1.21707970334200934e-04,1.60965641181285259e-04,5.38646491614542811e-02,3.03213089275772063e+02,4.58820747216430180e-01,3.01308166442925321e+04,2.28773629023604457e+02,-5.54246812159911860e+04,6.18868636481239491e+01,-9.11949236506192537e+04,4.50352421049629328e+01,3.45043032791254518e+01,-1.08579529754233931e+02,2.01042975801211599e+00,8.52485008957265090e+04,6.09588617698796611e+02
3.99999999999999967e-01,1.27989295199250779e+06,-5.01118077601355780e+06,3.73543128917970927e+06,4.31029576692006970e+02,4.31057760186426549e+02,-6.12704263161276685e-02,9.14797502775583416e+03,-1.32073480082892303e+00,6.28680191401956634e-01,9.79233905883737599e+00,7.85498657136904921e-01,-1.27190623290190635e-02,-3.11794416808796205e-03,1.16933995106536587e-04,1.42409421646214252e-04,9.28267168625262850e-05,6.12704263161276685e-02,3.03213076962882838e+02,4.58820588626955295e-01,3.01308037825956890e+04,2.28773610443507465e+02,-5.54245217346188510e+04,7.70763964192998259e+01,-9.12110513010509167e+04,4.40377071782704377e+01,2.80025052353739738e+01,-1.30813433744356274e+02,2.01042716030797486e+00,8.52482442050901445e+04,6.09587805286731964e+02
4.49999999999999956e-01,1.27991069882040680e+06,-5.01116316519888118e+06,3.73544872195913875e+06,4.31026866335089267e+02,4.31059313230327746e+02,-6.87807518754937064e-02,9.14797826734650880e+03,-1.32073063363084020e+00,6.28683576451832815e-01,9.79233910687128706e+00,7.85505998892489177e-01,-1.27046472191130327e-02,-3.11030100422124032e-03,2.68751243804539290e-04,1.58578819197966771e-04,1.63393382585311914e-05,6.87807518754937064e-02,3.03213063048420452e+02,4.58820409409347485e-01,3.01307892479467519e+04,2.28773589446644451e+02,-5.54243895493996606e+04,8.22338082486168531e+01,-9.12333102407625120e+04,3.73576325715504538e+01,2.08891474535739690e+01,-1.36156303321864982e+02,2.01042455665130104e+00,8.52479822768917365e+04,6.09586987850003652e+02
4.99999999999999944e-01,1.27992844573188759e+06,-5.01114555460981373e+06,3.73546615480954433e+06,4.31024148420522806e+02,4.31060866284677445e+02,-7.64213309831234255e-02,9.14798188779875636e+03,-1.32072646640747560e+00,6.28686961480214634e-01,9.79233915373585262e+00,7.85509505824612098e-01,-1.26895540063769706e-02,-3.09582423313762428e-03,3.85589502418013914e-04,1.70006790549094962e-04,-5.88912222643916679e-05,7.64213309831234255e-02,3.03213047498107471e+02,4.58820209122134781e-01,3.01307730045425742e+04,2.28773565981291085e+02,-5.54242764269843537e+04,7.72686406563979062e+01,-9.12590911595225916e+04,2.62006591640351090e+01,1.37411068554174562e+01,-1.24861327486583548e+02,2.01042194664920704e+00,8.52477149765553768e+04,6.09586165200583650e+02
5.49999999999999933e-01,1.27994619272967009e+06,-5.01112794425419439e+06,3.73548358773389645e+06,4.31021457515554346e+02,4.31062384493384343e+02,-8.42044796997072353e-02,9.14798589754477143e+03,-1.32072229915869532e+00,6.28690346486714957e-01,9.79233919940518405e+00,7.85509470472621429e-01,-1.26740165960791303e-02,-3.07662702967193480e-03,4.54084692506245651e-04,1.76831767476175997e-04,-1.23910811830067118e-04,8.42044796997072353e-02,3.03213030275726226e+02,4.58819987298861531e-01,3.01307550145538698e+04,2.28773539992795605e+02,-5.54241741793421388e+04,6.33051393389307293e+01,-9.12860413649165566e+04,1.22188758689074000e+01,7.02998659839431639e+00,-9.91560546295310132e+01,2.01041932988252237e+00,8.52474421615450992e+04,6.09585337138574459e+02
5.99999999999999978e-01,1.27996393981424463e+06,-5.01111033413884137e+06,3.73550102073670272e+06,4.31018822703182309e+02,4.31063838491937986e+02,-9.21308285643647196e-02,9.14799030467867851e+03,-1.32071813188473453e+00,6.28693731471284489e-01,9.79233924385443721e+00,7.85506594696662952e-01,-1.26582535112707232e-02,-3.05533014793136007e-03,4.67639124513099754e-04,1.79466413938745916e-04,-1.71453974512721563e-04,9.21308285643647196e-02,3.03213011346511109e+02,4.58819743491775955e-01,3.01307352416683316e+04,2.28773511428697248e+02,-5.54240751903756391e+04,4.24854324047105933e+01,-9.13121706943196477e+04,-2.70329254099549576e+00,1.11087566977221286e+00,-6.28748864759192969e+01,2.01041670593430455e+00,8.52471636938074371e+04,6.09584503467673812e+02
6.50000000000000022e-01,1.27998168698397465e+06,-5.01109272426908184e+06,3.73551845382357296e+06,4.31016264400419971e+02,4.31065207607081049e+02,-1.00191472539108872e-01,9.14799511634279042e+03,-1.32071396458615498e+00,6.28697116434195680e-01,9.79233928706167589e+00,7.85501884373777659e-01,-1.26424565236875220e-02,-3.03470932231512123e-03,4.26792501450843037e-04,1.78519532083982319e-04,-1.96725988735224361e-04,1.00191472539108872e-01,3.03212990679784696e+02,4.58819477305786039e-01,3.01307136538444465e+04,2.28773480242704323e+02,-5.54239728083673835e+04,1.76608300182902589e+01,-9.13359141700970649e+04,-1.66816699843930500e+01,-3.77917285920193535e+00,-2.09178035409460890e+01,2.01041407441450115e+00,8.52468794496539922e+04,6.09583664007952052e+02
7.00000000000000067e-01,1.27999943423546106e+06,-5.01107511464852188e+06,3.73553588700071210e+06,4.31013792371049590e+02,4.31066481857793917e+02,-1.08370342151516752e-01,9.14800033833552152e+03,-1.32070979726376669e+00,6.28700501375991094e-01,9.79233932900913473e+00,7.85496513240111160e-01,-1.26267832439606268e-02,-3.01734541469097584e-03,3.40897706541765577e-04,1.74719436624561802e-04,-1.98641625406077808e-04,1.08370342151516752e-01,3.03212968250641666e+02,4.58819188420147517e-01,3.01306902250704479e+04,2.28773446397235460e+02,-5.54238616020670815e+04,-8.00495181768582142e+00,-9.13561549597003905e+04,-2.82126433732321438e+01,-7.51457819667120930e+00,2.14575369501105691e+01,2.01041143498177854e+00,8.52465893265889463e+04,6.09582818605856914e+02
7.50000000000000111e-01,1.28001718156414456e+06,-5.01105750527917873e+06,3.73555332027444011e+06,4.31011405357074352e+02,4.31067662333252997e+02,-1.16646596015186788e-01,9.14800597503874451e+03,-1.32070562991852092e+00,6.28703886297396708e-01,9.79233936968337026e+00,7.85491635204934147e-01,-1.26113535110277813e-02,-3.00522544625015904e-03,2.17577460211893165e-04,1.68843705450486041e-04,-1.76652424330403079e-04,1.16646596015186788e-01,3.03212944040260879e+02,4.58818876592483937e-01,3.01306649356902926e+04,2.28773409863890208e+02,-5.54237374870678759e+04,-3.14540619599022016e+01,-9.13722133028675162e+04,-3.57448367180647750e+01,-1.00684951294497296e+01,5.91826031256935678e+01,2.01040878736457573e+00,8.52462932460165612e+04,6.09581967141223799e+02
8.00000000000000155e-01,1.28003492896487890e+06,-5.01103989616143703e+06,3.73557075365054933e+06,4.31009091419956007e+02,4.31068760856327231e+02,-1.24996876159826797e-01,9.14801202912721783e+03,-1.32070146255140086e+00,6.28707271199230866e-01,9.79233940907617040e+00,7.85488361306394767e-01,-1.25962485133998374e-02,-2.99982600062530073e-03,7.57887423127623654e-05,1.61659088653816633e-04,-1.35360395710021233e-04,1.24996876159826797e-01,3.03212918037153543e+02,4.58818541674861691e-01,3.01306377737073963e+04,2.28773370625332660e+02,-5.54235977411839776e+04,-4.99113821520395007e+01,-9.13838086179237434e+04,-3.86795638734927039e+01,-1.14959725635817449e+01,8.78781523377917466e+01,2.01040613136521662e+00,8.52459911572780984e+04,6.09581109531032325e+02
8.50000000000000200e-01,1.28005267643269920e+06,-5.01102228729461692e+06,3.73558818713397766e+06,4.31006829958809021e+02,4.31069797965654288e+02,-1.33397298412404552e-01,9.14801850198116153e+03,-1.32069729516330470e+00,6.28710656082294372e-01,9.79233944718332872e+00,7.85487515484774579e-01,-1.25815132662759760e-02,-3.00163994983079167e-03,-6.67790465278308965e-05,1.53873459408587190e-04,-8.07084935233640355e-05,1.33397298412404552e-01,3.03212890235391001e+02,4.58818183590964324e-01,3.01306087329334077e+04,2.28773328672617140e+02,-5.54234409237461150e+04,-6.14230555163874570e+01,-9.13910024178304302e+04,-3.68851101483594590e+01,-1.19148850484416471e+01,1.04571201751433534e+02,2.01040346687330373e+00,8.52456830335500854e+04,6.09580245729904618e+02
9.00000000000000244e-01,1.28007042396344407e+06,-5.01100467867734935e+06,3.73560562072839821e+06,4.31004594720150862e+02,4.31070799901977125e+02,-1.41825099373960484e-01,9.14802539385296404e+03,-1.32069312775494696e+00,6.28714040947270791e-01,9.79233948400406895e+00,7.85489588332452415e-01,-1.25671605690357516e-02,-3.01028150136701004e-03,-1.93196995752313800e-04,1.46101034631946551e-04,-1.99331633028345325e-05,1.41825099373960484e-01,3.03212860633888567e+02,4.58817802326871305e-01,3.01305778122404117e+04,2.28773284004107836e+02,-5.54232667274035193e+04,-6.49682922244586365e+01,-9.13941297792762198e+04,-3.08073015144080742e+01,-1.14864375447577913e+01,1.07880505555232332e+02,2.01040079386199011e+00,8.52453688694117009e+04,6.09579375727534511e+02
9.50000000000000289e-01,1.28008817155424110e+06,-5.01098707030801103e+06,3.73562305443599122e+06,4.31002357231648944e+02,4.31071795167274786e+02,-1.50259898812947768e-01,9.14803270417731255e+03,-1.32068896032678884e+00,6.28717425794647622e-01,9.79233951954014969e+00,7.85494695555313260e-01,-1.25531763977800477e-02,-3.02457518844342780e-03,-2.89299594679850200e-04,1.38840347847085709e-04,3.93692614985298361e-05,1.50259898812947768e-01,3.03212829235073968e+02,4.58817397913900082e-01,3.01305450141693582e+04,2.28773236623468733e+02,-5.54230757843204628e+04,-6.05333052869182566e+01,-9.13937262374650600e+04,-2.13852014819654350e+01,-1.03966054623342643e+01,9.80994998653056456e+01,2.01039811238052746e+00,8.52450486762762594e+04,6.09578499543751946e+02
1.00000000000000022e+00,1.28010591920380178e+06,-5.01096946218510997e+06,3.73564048825736437e+06,4.31000090324486962e+02,4.31072810993405085e+02,-1.58684569166723577e-01,9.14804043188411742e+03,-1.32068479287900065e+00,6.28720810624664117e-01,9.79233955379485188e+00,7.85502583472856619e-01,-1.25395259980333306e-02,-3.04273547740953635e-03,-3.45249544052023214e-04,1.32463849045538990e-04,9.01709570629141482e-05,1.58684569166723577e-01,3.03212796043542824e+02,4.58816970411296321e-01,3.01305103435262681e+04,2.28773186537635524e+02,-5.54228694488049441e+04,-4.90608478736611744e+01,-9.13904557740475720e+04,-9.91233375695277275e+00,-8.83952863339436590e+00,7.70744567539264835e+01,2.01039542254224868e+00,8.52447224773995695e+04,6.09577617222174922e+02
1.05000000000000027e+00,1.28012366691249330e+06,-5.01095185430758446e+06,3.73565792219162080e+06,4.30997771318659034e+02,4.31073870147368893e+02,-1.67085731179184904e-01,9.14804857568442822e+03,-1.32068062541146380e+00,6.28724195437292410e-01,9.79233958677212613e+00,7.85512678466651959e-01,-1.25261601341088036e-02,-3.06261063761488787e-03,-3.56500537778770509e-04,1.27217450992268241e-04,1.26824902568472479e-04,1.67085731179184904e-01,3.03212761064830715e+02,4.58816519890414831e-01,3.01304738060992750e+04,2.28773133754962259e+02,-5.54226495751024704e+04,-3.22878258395096154e+01,-9.13850442216425872e+04,2.13717952628659180e+00,-7.00351418645004742e+00,4.79030202094081261e+01,2.01039272451048223e+00,8.52443903030560032e+04,6.09576728823470830e+02
1.10000000000000031e+00,1.28014141468219622e+06,-5.01093424667497538e+06,3.73567535623656306e+06,4.30995384507547953e+02,4.31074988437988054e+02,-1.75453914702131897e-01,9.14805713430698961e+03,-1.32067645792380439e+00,6.28727580232250727e-01,9.79233961847588397e+00,7.85524172184334568e-01,-1.25130210466992114e-02,-3.08195822299485618e-03,-3.24074507765712710e-04,1.23228114580890206e-04,1.45669804874402361e-04,1.75453914702131897e-01,3.03212724304397284e+02,4.58816046421635038e-01,3.01304354075974661e+04,2.28773078283688477e+02,-5.54224183050253123e+04,-1.24962188838504407e+01,-9.13782211189502850e+04,1.32949623133130004e+01,-5.05999979223634000e+00,1.44985070211135465e+01,2.01039001848453314e+00,8.52440521863471222e+04,6.09575834419062971e+02
1.15000000000000036e+00,1.28015916251598205e+06,-5.01091663928748108e+06,3.73569279038901534e+06,4.30992922681382879e+02,4.31076173185061009e+02,-1.83783437161650909e-01,9.14806610664818436e+03,-1.32067229041545708e+00,6.28730965009047016e-01,9.79233964890948272e+00,7.85536130358449269e-01,-1.25000477794655618e-02,-3.09871737838872136e-03,-2.56818006350621275e-04,1.20517530548961912e-04,1.46342229672760427e-04,1.83783437161650909e-01,3.03212685766982077e+02,4.58815550066063116e-01,3.01303951529779333e+04,2.28773020130967041e+02,-5.54221778764726550e+04,7.81175064602322156e+00,-9.13706719463296613e+04,2.24694300310890327e+01,-3.15559245219992590e+00,-1.90030982765208876e+01,2.01038730468627147e+00,8.52437081601604586e+04,6.09574934085768518e+02
1.20000000000000040e+00,1.28017691041759821e+06,-5.01089903214575350e+06,3.73571022464514524e+06,4.30990387253494077e+02,4.31077423087146144e+02,-1.92072061120228454e-01,9.14807549171894789e+03,-1.32066812288575175e+00,6.28734349767049561e-01,9.79233967807597061e+00,7.85547658474869848e-01,-1.24871805011662288e-02,-3.11135982497994391e-03,-1.58947299117412040e-04,1.19019992929993428e-04,1.27819297176580806e-04,1.92072061120228454e-01,3.03212645456832547e+02,4.58815030878472752e-01,3.01303530466842494e+04,2.28772959303208438e+02,-5.54219304618100650e+04,2.62535525057405188e+01,-9.13630017560323613e+04,2.83357716746350512e+01,-1.40711176960758166e+00,-4.86258294111973726e+01,2.01038458334441161e+00,8.52433582565110846e+04,6.09574027901491149e+02
1.25000000000000044e+00,1.28019465839106124e+06,-5.01088142525103781e+06,3.73572765900103282e+06,4.30987788118326932e+02,4.31078728358985927e+02,-2.00320489838901494e-01,9.14808528899028897e+03,-1.32066395533399628e+00,6.28737734505556700e-01,9.79233970597694281e+00,7.85557866263617344e-01,-1.24743644591733243e-02,-3.11868019512542534e-03,-4.69247325657351917e-05,1.18602811609180877e-04,9.42103843347638647e-05,2.00320489838901494e-01,3.03212603376220216e+02,4.58814488888186545e-01,3.01303090910959691e+04,2.28772895803841266e+02,-5.54216780364024235e+04,4.06192698626054209e+01,-9.13557105463328626e+04,3.05095939121263768e+01,1.00532814267353388e-01,-7.09025785413134173e+01,2.01038185469315644e+00,8.52430025020400353e+04,6.09573115941826018e+02
1.30000000000000049e+00,1.28021240644003032e+06,-5.01086381860468537e+06,3.73574509345291322e+06,4.30985141986828808e+02,4.31080072392346437e+02,-2.08531768089017078e-01,9.14809549803845584e+03,-1.32065978775957027e+00,6.28741119223884648e-01,9.79233973261369606e+00,7.85566113684883938e-01,-1.24615520047198051e-02,-3.12031573462347601e-03,6.51166111609157442e-05,1.19087291588502184e-04,5.03154289199115801e-05,2.08531768089017078e-01,3.03212559526964355e+02,4.58813924118709804e-01,3.01302632881209065e+04,2.28772829635612055e+02,-5.54214222880811649e+04,4.93993490550421299e+01,-9.13491798698253551e+04,2.89206420133513653e+01,1.31403273718751734e+00,-8.35452887634220787e+01,2.01037911895319654e+00,8.52426409209077392e+04,6.09572198277362304e+02
1.35000000000000053e+00,1.28023015456734877e+06,-5.01084621220797300e+06,3.73576252799758874e+06,4.30982469917738570e+02,4.31081434221518464e+02,-2.16710644099265437e-01,9.14810611855611205e+03,-1.32065562016200255e+00,6.28744503921447206e-01,9.79233975798716649e+00,7.85572028331222083e-01,-1.24487042885289296e-02,-3.11660262438445300e-03,1.63769139417530821e-04,1.20269118930293968e-04,1.91805577736333679e-06,2.16710644099265437e-01,3.03212513910384246e+02,4.58813336587108267e-01,3.01302156391447206e+04,2.28772760800512742e+02,-5.54211645596360831e+04,5.18310973377993491e+01,-9.13436697392495553e+04,2.39530384147475601e+01,2.20930416754345060e+00,-8.55377775143519301e+01,2.01037637632482591e+00,8.52422735340676154e+04,6.09571274971499179e+02
1.40000000000000058e+00,1.28024790277469391e+06,-5.01082860606186744e+06,3.73577996263268683e+06,4.30979794575048913e+02,4.31082791263244530e+02,-2.24862940956256807e-01,9.14811715023592114e+03,-1.32065145254102623e+00,6.28747888597817606e-01,9.79233978209828670e+00,7.85575536183202860e-01,-1.24357919629031581e-02,-3.10849971509258739e-03,2.37919303988946276e-04,1.21936695513217473e-04,-4.49578036693989980e-05,2.24862940956256807e-01,3.03212466527799165e+02,4.58812726310451113e-01,3.01301661455533795e+04,2.28772689300535319e+02,-5.54209058257454744e+04,4.79514052343128157e+01,-9.13393242848142982e+04,1.63757477243655245e+01,2.78758547950565116e+00,-7.71916766696162284e+01,2.01037362697913125e+00,8.52419003599971620e+04,6.09570346078780062e+02
1.45000000000000062e+00,1.28026565106238821e+06,-5.01081100016684178e+06,3.73579739735681051e+06,4.30977137434897315e+02,4.31084122108000599e+02,-2.32994977788848701e-01,9.14812859269138426e+03,-1.32064728489660399e+00,6.28751273252767917e-01,9.79233980494823086e+00,7.85576855046861144e-01,-1.24227951770759099e-02,-3.09744161801424507e-03,2.79960220131684904e-04,1.23886511145706571e-04,-8.47816459823441952e-05,2.32994977788848701e-01,3.03212417380868430e+02,4.58812093310189073e-01,3.01301148090882816e+04,2.28772615138184818e+02,-5.54206466991811612e+04,3.85510042573562188e+01,-9.13361841867267358e+04,7.23057553440452416e+00,3.07055657361343037e+00,-6.00404922096731113e+01,2.01037087105239243e+00,8.52415214152277767e+04,6.09569411643878084e+02
1.50000000000000067e+00,1.28028339942938136e+06,-5.01079339452277403e+06,3.73581483216957003e+06,4.30974516278957879e+02,4.31085409025835190e+02,-2.41113069316412520e-01,9.14814044539071620e+03,-1.32064311722892724e+00,6.28754657886282597e-01,9.79233982653864743e+00,7.85576453387703322e-01,-1.24097030139629309e-02,-3.08514240176381571e-03,2.86521619986860113e-04,1.25934992656905260e-04,-1.13153129317411535e-04,2.41113069316412520e-01,3.03212366471875214e+02,4.58811437615813555e-01,3.01300616321429588e+04,2.28772538316907969e+02,-5.54203874603721342e+04,2.50408257852169314e+01,-9.13342037050828076e+04,-2.30669812177411959e+00,3.09501874494890217e+00,-3.65928339479119771e+01,2.01036810864351345e+00,8.52411367149662110e+04,6.09568471701387693e+02
1.55000000000000071e+00,1.28030114787340467e+06,-5.01077578912893217e+06,3.73583226707150228e+06,4.30971943259673139e+02,4.31086639901596413e+02,-2.49223121170643935e-01,9.14815270761679858e+03,-1.32063894953838656e+00,6.28758042498546943e-01,9.79233984687173376e+00,7.85574981279148266e-01,-1.23965125151772725e-02,-3.07337595789048280e-03,2.58654733001830654e-04,1.27926672094773005e-04,-1.27270576178265628e-04,2.49223121170643935e-01,3.03212313803898837e+02,4.58810759267069768e-01,3.01300066179426321e+04,2.28772458841352716e+02,-5.54201281032659826e+04,9.25100526974827275e+00,-9.13332701597309351e+04,-1.10740405710060159e+01,2.90760775669332361e+00,-9.98164077178437381e+00,2.01036533981505361e+00,8.52407462736901070e+04,6.09567526276483704e+02
1.60000000000000075e+00,1.28031889639125741e+06,-5.01075818398402631e+06,3.73584970206388738e+06,4.30969423738632599e+02,4.31087809398185641e+02,-2.57330328228761118e-01,9.14816537847183645e+03,-1.32063478182552063e+00,6.28761427089911118e-01,9.79233986595024319e+00,7.85573183255352747e-01,-1.23832274308777746e-02,-3.06376060457471278e-03,2.03850547397640313e-04,1.29738867438184606e-04,-1.27053972250553115e-04,2.57330328228761118e-01,3.03212259380794592e+02,4.58810058313701141e-01,3.01299497705233916e+04,2.28772376717337920e+02,-5.54198683912164342e+04,-6.83074881788059418e+00,-9.13332239684880187e+04,-1.82355244801315415e+01,2.55990748973636073e+00,1.65164650143670428e+01,2.01036256459804630e+00,8.52403501054979279e+04,6.09566575386342265e+02
1.65000000000000080e+00,1.28033664497925015e+06,-5.01074057908649277e+06,3.73586713714856096e+06,4.30966956267258979e+02,4.31088918978436993e+02,-2.65438973524339872e-01,9.14817845707200468e+03,-1.32063061409094629e+00,6.28764811660832534e-01,9.79233988377691489e+00,7.85571762116333727e-01,-1.23698569462873612e-02,-3.05747157677536442e-03,1.25011336663859781e-04,1.31283299760034337e-04,-1.11599960507031170e-04,2.65438973524339872e-01,3.03212203206357572e+02,4.58809334804680224e-01,3.01298910938589033e+04,2.28772291950592034e+02,-5.54196079153671817e+04,-2.13310637201191220e+01,-9.13338777408898459e+04,-2.27215525627342316e+01,2.10421528964070603e+00,3.97703154515661410e+01,2.01035978300382645e+00,8.52399482226407854e+04,6.09565619042045114e+02
1.70000000000000084e+00,1.28035439363352978e+06,-5.01072297443440557e+06,3.73588457232749602e+06,4.30964532697201889e+02,4.31089976797493648e+02,-2.73552324939544178e-01,9.14819194229319692e+03,-1.32062644633529369e+00,6.28768196211821118e-01,9.79233990035518609e+00,7.85571422200932457e-01,-1.23564138246455447e-02,-3.05544820873159635e-03,3.56158082254452463e-05,1.32505311990761154e-04,-8.43549874778941583e-05,2.73552324939544178e-01,3.03212145285415147e+02,4.58808588802274764e-01,3.01298305930011302e+04,2.28772204548400794e+02,-5.54193461552952285e+04,-3.25077159368855177e+01,-9.13350334608911071e+04,-2.42626979022846498e+01,1.59006413374663680e+00,5.70555391953063094e+01,2.01035699502348519e+00,8.52395406387040566e+04,6.09564657250611617e+02
1.75000000000000089e+00,1.28037214235059731e+06,-5.01070537002594303e+06,3.73590200760265999e+06,4.30962139545631260e+02,4.31090996340411778e+02,-2.81672612270369882e-01,9.14820583316683769e+03,-1.32062227855913195e+00,6.28771580743369474e-01,9.79233991568804996e+00,7.85572660535453271e-01,-1.23429134082668219e-02,-3.05794392733288760e-03,-5.31122822343536340e-05,1.33381044474819649e-04,-4.91940296009819002e-05,2.81672612270369882e-01,3.03212085622126438e+02,4.58807820360150387e-01,3.01297682723044163e+04,2.28772114517041842e+02,-5.54190825313836904e+04,-3.91939185281879574e+01,-9.13364970194223133e+04,-2.28246563014629373e+01,1.06160100778288324e+00,6.66104631740213620e+01,2.01035420064530479e+00,8.52391273650612711e+04,6.09563690016865735e+02
1.80000000000000093e+00,1.28038989112767391e+06,-5.01068776585954800e+06,3.73591944297570549e+06,4.30959759994054764e+02,4.31091994425881467e+02,-2.89801072766607604e-01,9.14822012888733298e+03,-1.32061811076290736e+00,6.28774965255889495e-01,9.79233992977799517e+00,7.85575759295389697e-01,-1.23293721807923827e-02,-3.06465905865085844e-03,-1.30602476963741459e-04,1.33913358671915563e-04,-1.07397765651607004e-05,2.89801072766607604e-01,3.03212024219950649e+02,4.58807029522958876e-01,3.01297041353922032e+04,2.28772021861736619e+02,-5.54188164527841654e+04,-4.08208935055289075e+01,-9.13380898570779391e+04,-1.87320837478637650e+01,5.55756353125616442e-01,6.76901482314809897e+01,2.01035139985974354e+00,8.52387084112027223e+04,6.09562717344884277e+02
1.85000000000000098e+00,1.28040763996296981e+06,-5.01067016193412431e+06,3.73593687844777294e+06,4.30957376076388357e+02,4.31092989020191339e+02,-2.97938050637156948e-01,9.14823482890520245e+03,-1.32061394294690371e+00,6.28778349749664844e-01,9.79233994262669682e+00,7.85580763118982173e-01,-1.23158066185355616e-02,-3.07480500850584740e-03,-1.88171124770376320e-04,1.34126833353743715e-04,2.62295381475924087e-05,2.97938050637156948e-01,3.03211961081246784e+02,4.58806216321185900e-01,3.01296381847390658e+04,2.28771926586046419e+02,-5.54185473570606409e+04,-3.74550652742180432e+01,-9.13396575963214564e+04,-1.26110637715148837e+01,1.01180574576574145e-01,6.06030254132698829e+01,2.01034859266544119e+00,8.52382837840625143e+04,6.09561739239013036e+02
1.90000000000000102e+00,1.28042538885582867e+06,-5.01065255824916251e+06,3.73595431401937362e+06,4.30954970890927939e+02,4.31093997026876593e+02,-3.06083134662799239e-01,9.14824993299227208e+03,-1.32060977511122002e+00,6.28781734224820088e-01,9.79233995423486725e+00,7.85587486036563698e-01,-1.23022322297876973e-02,-3.08722373873300147e-03,-2.19964854916837989e-04,1.34062270542160267e-04,5.73603271488412131e-05,3.06083134662799239e-01,3.03211896206993799e+02,4.58805380767546067e-01,3.01295704213784265e+04,2.28771828691450253e+02,-5.54182747411555247e+04,-2.97572754097603678e+01,-9.13410756762095116e+04,-5.29848188810911935e+00,-2.82119848001457285e-01,4.66195139874287605e+01,2.01034577907330769e+00,8.52378534875381156e+04,6.09560755704543794e+02
1.95000000000000107e+00,1.28044313780672639e+06,-5.01063495480481070e+06,3.73597174969035340e+06,4.30952530570330566e+02,4.31095032318077472e+02,-3.14235318892684745e-01,9.14826544126681983e+03,-1.32060560725577480e+00,6.28785118681310928e-01,9.79233996460214406e+00,7.85595545655012995e-01,-1.22886627986749288e-02,-3.10054535881993743e-03,-2.23516121407690805e-04,1.33771089551739048e-04,7.92230065607637157e-05,3.14235318892684745e-01,3.03211829596682662e+02,4.58804522855589370e-01,3.01295008447895125e+04,2.28771728177181473e+02,-5.54179981832955309e+04,-1.88729318203956318e+01,-9.13422521128699154e+04,2.26913873638635133e+00,-5.82528515413287096e-01,2.77701784646308099e+01,2.01034295910887018e+00,8.52374175223701022e+04,6.09559766748209540e+02
2.00000000000000089e+00,1.28046088681713515e+06,-5.01061735160184652e+06,3.73598918545994209e+06,4.30950045786397482e+02,4.31096104230913795e+02,-3.22393172431446828e-01,9.14828135418146849e+03,-1.32060143938033026e+00,6.28788503118935749e-01,9.79233997372712928e+00,7.85604419095233819e-01,-1.22751098374489307e-02,-3.11336298038105428e-03,-1.99864408577092497e-04,1.33309968924022606e-04,8.96749067722537148e-05,3.22393172431446828e-01,3.03211761248368191e+02,4.58803642560373592e-01,3.01294294529519175e+04,2.28771625040306589e+02,-5.54177173558649083e+04,-6.26981503111171623e+00,-9.13431276274256234e+04,9.17297317209458285e+00,-7.96051349145272980e-01,6.56330162890989932e+00,2.01034013281335877e+00,8.52369758863880124e+04,6.09558772378616936e+02
2.05000000000000071e+00,1.28047863588930597e+06,-5.01059974864163902e+06,3.73600662132687308e+06,4.30947512630483629e+02,4.31097216688047752e+02,-3.30555005971774563e-01,9.14829767251107842e+03,-1.32059727148453043e+00,6.28791887537358818e-01,9.79233998160743546e+00,7.85613513937928110e-01,-1.22615822383297032e-02,-3.12440598034477825e-03,-1.56007266668152592e-04,1.32736063989337589e-04,8.90666814590963774e-05,3.30555005971774563e-01,3.03211691158720953e+02,4.58802739839132556e-01,3.01293562423997573e+04,2.28771519275803456e+02,-5.54174320295191428e+04,6.48167816037753575e+00,-9.13436735197938688e+04,1.48252099784731914e+01,-9.25162642033683369e-01,-1.44306521593424648e+01,2.01033730024472845e+00,8.52365285747506423e+04,6.09557772606661501e+02
2.10000000000000053e+00,1.28049638502579392e+06,-5.01058214592571184e+06,3.73602405728952261e+06,4.30944932494341401e+02,4.31098368317379709e+02,-3.38719026113892596e-01,9.14831439700722694e+03,-1.32059310356797055e+00,6.28795271936178346e-01,9.79233998824075513e+00,7.85622287443958678e-01,-1.22480859805693988e-02,-3.13279140518361995e-03,-9.23633214507599683e-05,1.32103052601161090e-04,7.60811259183770357e-05,3.38719026113892596e-01,3.03211619324511787e+02,4.58801814650391548e-01,3.01292812097719689e+04,2.28771410878800964e+02,-5.54171420718493537e+04,1.79201226172477952e+01,-9.13438877944563865e+04,1.82669627060417241e+01,-9.77407367157866247e-01,-3.27412534112541636e+01,2.01033446146889361e+00,8.52360755835885939e+04,6.09556767445853552e+02
2.15000000000000036e+00,1.28051413422937528e+06,-5.01056454345608037e+06,3.73604149334621523e+06,4.30942312126254649e+02,4.31099552396309548e+02,-3.46883465303619687e-01,9.14833152881916612e+03,-1.32058893563022761e+00,6.28798656314936921e-01,9.79233999362355334e+00,7.85630169289899039e-01,-1.22346246124754744e-02,-3.13774938798696331e-03,-2.08315263720295452e-05,1.31458248062172570e-04,5.38516293453412590e-05,3.46883465303619687e-01,3.03211545740803160e+02,4.58800866930678730e-01,3.01292043499235842e+04,2.28771299841850407e+02,-5.54168474347353767e+04,2.66443457549971505e+01,-9.13437901797909726e+04,1.93528899903094107e+01,-9.63931989605043782e-01,-4.61937578786420531e+01,2.01033161657228643e+00,8.52356169057258085e+04,6.09555756912490551e+02
2.20000000000000018e+00,1.28053188350250293e+06,-5.01054694123462960e+06,3.73605892949529784e+06,4.30939662485061376e+02,4.31100757997292590e+02,-3.55046688557223433e-01,9.14834906894061714e+03,-1.32058476767093280e+00,6.28802040673199336e-01,9.79233999775276764e+00,7.85636772330509991e-01,-1.22211989493668099e-02,-3.13910455084973061e-03,4.96466287592846605e-05,1.30840640507391633e-04,2.55132317042974261e-05,3.55046688557223433e-01,3.03211470403325734e+02,4.58799896625128933e-01,3.01291256584077310e+04,2.28771186158511171e+02,-5.54165481441920056e+04,3.17499194820204629e+01,-9.13434165873227466e+04,1.80725404728408705e+01,-8.98033438559650676e-01,-5.34280714954539846e+01,2.01032876564576002e+00,8.52351525363362744e+04,6.09554741025553767e+02
2.25000000000000000e+00,1.28054963284704136e+06,-5.01052933926302101e+06,3.73607636573537672e+06,4.30936997092774050e+02,4.31101971634165352e+02,-3.63207273110674578e-01,9.14836701822839677e+03,-1.32058059968981678e+00,6.28805425010596108e-01,9.79234000062576548e+00,7.85641882337250963e-01,-1.22078075336966591e-02,-3.13712061016020163e-03,1.10710528713950918e-04,1.30280002894869599e-04,-5.22948801127950255e-06,3.63207273110674578e-01,3.03211393308397987e+02,4.58798903686455206e-01,3.01290451313921658e+04,2.28771069823230079e+02,-5.54162442840581425e+04,3.28124680210483106e+01,-9.13428136028090958e+04,1.46998525106246554e+01,-7.93873932128917659e-01,-5.38990053162619915e+01,2.01032590878385209e+00,8.52346824726453051e+04,6.09553719806323215e+02
2.29999999999999982e+00,1.28056738226405019e+06,-5.01051173754251376e+06,3.73609380206545396e+06,4.30934330283854251e+02,4.31103179011393991e+02,-3.71364060156309961e-01,9.14838537729158998e+03,-1.32057643168674232e+00,6.28808809326863116e-01,9.79234000224067458e+00,7.85645474718056680e-01,-1.21944470439288768e-02,-3.13244642617937054e-03,1.55553242042727610e-04,1.29796786195680717e-04,-3.45754262184101344e-05,3.71364060156309961e-01,3.03211314453402565e+02,4.58797888081075467e-01,3.01289627661562008e+04,2.28770950832059413e+02,-5.54159359800983802e+04,2.99136600231560692e+01,-9.13420334274801717e+04,9.74552825328945538e+00,-6.65406843334494624e-01,-4.78994140870617500e+01,2.01032304607963708e+00,8.52342067148990609e+04,6.09552693277774893e+02
2.34999999999999964e+00,1.28058513175367308e+06,-5.01049413607384916e+06,3.73611123848500708e+06,4.30931675447875023e+02,4.31104366779729503e+02,-3.79516181175432621e-01,9.14840414643287659e+03,-1.32057226366171832e+00,6.28812193621863691e-01,9.79234000259655346e+00,7.85647707666104700e-01,-1.21811127753959688e-02,-3.12601864822923759e-03,1.79657590323879248e-04,1.29402628651836349e-04,-5.90870736870322910e-05,3.79516181175432621e-01,3.03211233837037980e+02,4.58796849792361683e-01,3.01288785613541804e+04,2.28770829183037506e+02,-5.54156233846868708e+04,2.36052694253879416e+01,-9.13411295154651598e+04,3.88355190989737187e+00,-5.25539513335388619e-01,-3.64818032325861452e+01,2.01032017762079951e+00,8.52337252667766152e+04,6.09551661463895925e+02
2.39999999999999947e+00,1.28060288131514424e+06,-5.01047653485719953e+06,3.73612867499400536e+06,4.30929043476341235e+02,4.31105524087790855e+02,-3.87663061808865450e-01,9.14842332561314106e+03,-1.32056809561489730e+00,6.28815577895595168e-01,9.79234000169353003e+00,7.85648893776321300e-01,-1.21677991576899461e-02,-3.11893487489833593e-03,1.81219687802039323e-04,1.29101288021351977e-04,-7.60833183015147130e-05,3.87663061808865450e-01,3.03211151459470955e+02,4.58795788822595640e-01,3.01287925171740972e+04,2.28770704876417881e+02,-5.54153066630517933e+04,1.48188088867172034e+01,-9.13401530140846153e+04,-2.13802029321246101e+00,-3.85526916088565486e-01,-2.12930372509563917e+01,2.01031730348656401e+00,8.52332381355784601e+04,6.09550624389059863e+02
2.44999999999999929e+00,1.28062063094689767e+06,-5.01045893389216997e+06,3.73614611159286182e+06,4.30926441589090359e+02,4.31106643754394668e+02,-3.95804406793558883e-01,9.14844291445426643e+03,-1.32056392754655438e+00,6.28818962148180560e-01,9.79233999953276424e+00,7.85649454641160871e-01,-1.21545002716920824e-02,-3.11231405478867547e-03,1.61225475590620707e-04,1.28889842994902161e-04,-8.39213775911213863e-05,3.95804406793558883e-01,3.03211067322324141e+02,4.58794705192815622e-01,3.01287046353251280e+04,2.28770577914651312e+02,-5.54149859812629511e+04,4.73436898482932822e+00,-9.13391500141849247e+04,-7.59050943102390541e+00,-2.54574869977659546e-01,-4.34643181084975971e+00,2.01031442374627822e+00,8.52327453320709028e+04,6.09549582077572040e+02
2.49999999999999911e+00,1.28063838064672682e+06,-5.01044133317782264e+06,3.73616354828234436e+06,4.30923872666907243e+02,4.31107722935124457e+02,-4.03940169751479061e-01,9.14846291222982109e+03,-1.32055975945705861e+00,6.28822346379851238e-01,9.79233999611650141e+00,7.85649862934773346e-01,-1.21412103363892770e-02,-3.10715664943499691e-03,1.25541111825102383e-04,1.28760053209514249e-04,-8.30112951726937504e-05,4.03940169751479061e-01,3.03210981428716195e+02,4.58793598943329162e-01,3.01286149190792639e+04,2.28770448302446056e+02,-5.54146614966212801e+04,-5.39924674385694825e+00,-9.13381595739721088e+04,-1.20267348433871977e+01,-1.39628488082962576e-01,1.23195887219415710e+01,2.01031153845829946e+00,8.52322468705095962e+04,6.09548534553413333e+02
2.54999999999999893e+00,1.28065613041224936e+06,-5.01042373271313030e+06,3.73618098506343691e+06,4.30921335392900801e+02,4.31108762980701670e+02,-4.12070510679114932e-01,9.14848331823293120e+03,-1.32055559134680744e+00,6.28825730590877874e-01,9.79233999144688738e+00,7.85650548292927908e-01,-1.21279242308844019e-02,-3.10414928904608920e-03,7.42319809742095931e-05,1.28699792123712105e-04,-7.22372374001464633e-05,4.12070510679114932e-01,3.03210893781681818e+02,4.58792470113366047e-01,3.01285233716211260e+04,2.28770316044383719e+02,-5.54143333476968328e+04,-1.44243194348434152e+01,-9.13372124613611668e+04,-1.46690941068530556e+01,-4.53225387354905251e-02,2.67445459520904478e+01,2.01030864768014661e+00,8.52317427648317971e+04,6.09547481840141359e+02
2.59999999999999876e+00,1.28067388024084596e+06,-5.01040613249654789e+06,3.73619842193713738e+06,4.30918824198599395e+02,4.31109769490663950e+02,-4.20195749745289504e-01,9.14850413131993264e+03,-1.32055142321621877e+00,6.28829114781584764e-01,9.79233998552746954e+00,7.85651962863994524e-01,-1.21146374413619931e-02,-3.10389309610059009e-03,1.70355462541119533e-05,1.28694536823493073e-04,-5.42131414292090194e-05,4.20195749745289504e-01,3.03210804386131827e+02,4.58791318766319234e-01,3.01284299980950309e+04,2.28770181147876770e+02,-5.54140016523165687e+04,-2.12342524943062898e+01,-9.13363306304587022e+04,-1.54256593408869271e+01,2.59082211669010576e-02,3.72169605975472351e+01,2.01030575145538304e+00,8.52312330333353166e+04,6.09546423960853872e+02
2.64999999999999858e+00,1.28069163013018318e+06,-5.01038853252662905e+06,3.73621585890438315e+06,4.30916330216744768e+02,4.31110751360849406e+02,-4.28316315590848262e-01,9.14852535043656826e+03,-1.32054725506566073e+00,6.28832498952273333e-01,9.79233997836147729e+00,7.85654408308958385e-01,-1.21013466761465023e-02,-3.10650750644121156e-03,-3.89200199447854270e-05,1.28728711599829048e-04,-3.14750809747618140e-05,4.28316315590848262e-01,3.03210713246592775e+02,4.58790144960638302e-01,3.01283348032444228e+04,2.28770043619758241e+02,-5.54136665010978613e+04,-2.51279406855306426e+01,-9.13355273010441742e+04,-1.43014921929045666e+01,7.36119981520459987e-02,4.26868976951457526e+01,2.01030284982855445e+00,8.52307176932671282e+04,6.09545360938174099e+02
2.69999999999999840e+00,1.28070938007840072e+06,-5.01037093280208390e+06,3.73623329596587457e+06,4.30913842612790063e+02,4.31111719452318823e+02,-4.36432694364356166e-01,9.14854697460960597e+03,-1.32054308689542066e+00,6.28835883103189719e-01,9.79233996995189138e+00,7.85658047102795187e-01,-1.20880498441918293e-02,-3.11176312609461525e-03,-8.70173446321735177e-05,1.28786956341003035e-04,-6.99255139682294593e-06,4.36432694364356166e-01,3.03210620367243394e+02,4.58788948750293746e-01,3.01282377914495482e+04,2.28769903466336046e+02,-5.54133279568650833e+04,-2.57896971446947951e+01,-9.13348076367071917e+04,-1.15270040567060761e+01,9.89901454850041773e-02,4.27576903642274289e+01,2.01029994284470126e+00,8.52301967608886334e+04,6.09544292794175817e+02
2.74999999999999822e+00,1.28072713008428435e+06,-5.01035333332192525e+06,3.73625073312197626e+06,4.30911349985985794e+02,4.31112685190741331e+02,-4.44545383495182023e-01,9.14856900304276496e+03,-1.32053891870567952e+00,6.28839267234495791e-01,9.79233996030118270e+00,7.85662890269909320e-01,-1.20747460550742394e-02,-3.11912695820011805e-03,-1.21917212072603692e-04,1.28855155281993791e-04,1.62094720281260861e-05,4.44545383495182023e-01,3.03210525751502246e+02,4.58787730179468167e-01,3.01281389662969268e+04,2.28769760692771172e+02,-5.54129860555697524e+04,-2.33071221929892545e+01,-9.13341698928306869e+04,-7.51861664747539304e+00,1.04504345614259364e-01,3.76996503327177521e+01,2.01029703055173181e+00,8.52296702504590212e+04,6.09543219550274330e+02
2.79999999999999805e+00,1.28074488014734909e+06,-5.01033573408556916e+06,3.73626817037266213e+06,4.30908841765706143e+02,4.31113659170620906e+02,-4.52654852493850512e-01,9.14859143515862525e+03,-1.32053475049650082e+00,6.28842651346250725e-01,9.79233994941110808e+00,7.85668803886884537e-01,-1.20614355218574224e-02,-3.12784170671558592e-03,-1.40132874297395555e-04,1.28921183875518484e-04,3.54155833091157840e-05,4.52654852493850512e-01,3.03210429401847875e+02,4.58786489280240239e-01,3.01280383303915041e+04,2.28769615302806159e+02,-5.54126408088533208e+04,-1.81397666194302900e+01,-9.13336068727833044e+04,-2.81921200254381210e+00,9.34610368240100797e-02,2.83832197179000154e+01,2.01029411300131189e+00,8.52291381737792690e+04,6.09542141227134607e+02
2.84999999999999787e+00,1.28076263026783383e+06,-5.01031813509288058e+06,3.73628560771751124e+06,4.30906309436142919e+02,4.31114649931237636e+02,-4.60761512552466002e-01,9.14861427065264434e+03,-1.32053058226783371e+00,6.28846035438407336e-01,9.79233993728260188e+00,7.85675532603964388e-01,-1.20481193844824367e-02,-3.13702788490554003e-03,-1.40352621642261810e-04,1.28975351082697830e-04,4.85290613598398732e-05,4.60761512552466002e-01,3.03210331319586771e+02,4.58785226069595875e-01,3.01279358851142752e+04,2.28769467298414895e+02,-5.54122922080758581e+04,-1.10448841092093470e+01,-9.13331075091423845e+04,1.97346032700563923e+00,6.96149065443023574e-02,1.61437304227439462e+01,2.01029119025035197e+00,8.52286005396327091e+04,6.09541057844655711e+02
2.89999999999999769e+00,1.28078038044660888e+06,-5.01030053634417057e+06,3.73630304515575385e+06,4.30903747451649792e+02,4.31115663041991866e+02,-4.68865695718790221e-01,9.14863750949129462e+03,-1.32052641401953097e+00,6.28849419510819296e-01,9.79233992391576358e+00,7.85682736489366262e-01,-1.20347994761191499e-02,-3.14579531285983857e-03,-1.23485071867794187e-04,1.29010557219140824e-04,5.42909365441169678e-05,4.68865695718790221e-01,3.03210231504861270e+02,4.58783940549531033e-01,3.01278316306306260e+04,2.28769316679814722e+02,-5.54119402289974532e+04,-2.97138006865624194e+00,-9.13326583961636497e+04,6.28122975511515325e+00,3.68247906917531509e-02,2.59749757389022484e+00,2.01028826236126745e+00,8.52280573538304307e+04,6.09539969422065155e+02
2.94999999999999751e+00,1.28079813068540883e+06,-5.01028293784067500e+06,3.73632048268622393e+06,4.30901153685988788e+02,4.31116700653815940e+02,-4.76967643803362762e-01,9.14866115230135620e+03,-1.32052224575132748e+00,6.28852803563187512e-01,9.79233990930867471e+00,7.85690054679513805e-01,-1.20214779993132667e-02,-3.15339896598540101e-03,-9.72815459728393865e-05,1.29022218628212145e-04,5.42520695189902026e-05,4.76967643803362762e-01,3.03210129954977447e+02,4.58782632685517389e-01,3.01277255641439042e+04,2.28769163442943295e+02,-5.54115848338292490e+04,5.15665905167628047e+00,-9.13322451359865663e+04,1.00028986224587459e+01,-1.21774764920701273e-03,-1.08025699593519455e+01,2.01028532941375504e+00,8.52275086152699514e+04,6.09538875978129340e+02
2.99999999999999734e+00,1.28081588098497619e+06,-5.01026533958213311e+06,3.73633792030793242e+06,4.30898529022299158e+02,4.31117761909396961e+02,-4.85067507445961610e-01,9.14868519844580442e+03,-1.32051807746307182e+00,6.28856187595392191e-01,9.79233989346327682e+00,7.85697167099226434e-01,-1.20081572102140165e-02,-3.15933812799318184e-03,-5.49212070146804746e-05,1.29008043619421750e-04,4.50829002106158756e-05,4.85067507445961610e-01,3.03210026672669983e+02,4.58781302512941247e-01,3.01276176885275636e+04,2.28769007591929551e+02,-5.54112259882792350e+04,1.24150524889476461e+01,-9.13318534572507779e+04,1.20546113446784577e+01,-4.11847663453954738e-02,-2.23823302468918541e+01,2.01028239145058896e+00,8.52269543357579532e+04,6.09537777531331812e+02
3.04999999999999716e+00,1.28083363134741038e+06,-5.01024774157036562e+06,3.73635535801959923e+06,4.30895878106904775e+02,4.31118842190356872e+02,-4.93165345973380909e-01,9.14870964901708066e+03,-1.32051390915445888e+00,6.28859571607058854e-01,9.79233987637621262e+00,7.85703668484462603e-01,-1.19948397044115918e-02,-3.16301731840513273e-03,-8.14134237604816893e-06,1.28967747228493369e-04,3.01173455211162247e-05,4.93165345973380909e-01,3.03209921653244635e+02,4.58779949971519496e-01,3.01275079988963917e+04,2.28768849119692959e+02,-5.54108636451533603e+04,1.78365629479740697e+01,-9.13314700542824721e+04,1.25736030267503693e+01,-8.02520586330501828e-02,-3.06936670083764866e+01,2.01027944856393814e+00,8.52263945093412767e+04,6.09536674100199548e+02
3.09999999999999698e+00,1.28085138177419105e+06,-5.01023014380655345e+06,3.73637279582007881e+06,4.30893208279293049e+02,4.31119934187052763e+02,-5.01261138694985675e-01,9.14873450456373394e+03,-1.32050974082526840e+00,6.28862955597901840e-01,9.79233985804580520e+00,7.85709319163482411e-01,-1.19815275297429479e-02,-3.16435746836647366e-03,3.72847111761777936e-05,1.28902645284881322e-04,1.14421064444151344e-05,5.01261138694985675e-01,3.03209814894343765e+02,4.58778575031060010e-01,3.01273964928056339e+04,2.28768688022678305e+02,-5.54104977624578969e+04,2.08668044853874441e+01,-9.13310831974470057e+04,1.15730017565890364e+01,-1.16161290407035267e-01,-3.49096990032392469e+01,2.01027650083104303e+00,8.52258291357047565e+04,6.09535565703429711e+02
3.14999999999999680e+00,1.28086913226640900e+06,-5.01021254629175458e+06,3.73639023370843381e+06,4.30890528420979649e+02,4.31121029049322885e+02,-5.09354799857305807e-01,9.14875976558029652e+03,-1.32050557247534717e+00,6.28866339567681787e-01,9.79233983847052158e+00,7.85713993475477213e-01,-1.19682222707399710e-02,-3.16356119896410697e-03,7.60306913557545755e-05,1.28815319429329591e-04,-8.51965056508828886e-06,5.09354799857305807e-01,3.03209706393841316e+02,4.58777177664361879e-01,3.01272831680531490e+04,2.28768524297680415e+02,-5.54101283022136995e+04,2.12663990997504975e+01,-9.13306831354986498e+04,9.24814163427036817e+00,-1.47255533811403438e-01,-3.47367412419524939e+01,2.01027354832843841e+00,8.52252582151597599e+04,6.09534452359971397e+02
3.19999999999999662e+00,1.28088688282462955e+06,-5.01019494902678672e+06,3.73640767168401368e+06,4.30887847813171106e+02,4.31122117528234526e+02,-5.17446195326840552e-01,9.14878543243464082e+03,-1.32050140410462946e+00,6.28869723516229051e-01,9.79233981764921957e+00,7.85717688930984370e-01,-1.19549249631825324e-02,-3.16107458639862393e-03,1.03835210453960395e-04,1.28709259838016599e-04,-2.73158201841235108e-05,5.17446195326840552e-01,3.03209596150155448e+02,4.58775757851232757e-01,3.01271680230052661e+04,2.28768357942315049e+02,-5.54097552325946672e+04,1.91233365450719504e+01,-9.13302623506433010e+04,5.94352724448806047e+00,-1.72479416716669220e-01,-3.04218659419020234e+01,2.01027059112981865e+00,8.52246817493851704e+04,6.09533334089006530e+02
3.24999999999999645e+00,1.28090463344882731e+06,-5.01017735201215185e+06,3.73642510974649526e+06,4.30885175005822305e+02,4.31123191106316654e+02,-5.25535160185825134e-01,9.14881150532886386e+03,-1.32049723571314459e+00,6.28873107443457813e-01,9.79233979558130407e+00,7.85720520151210189e-01,-1.19416360783610627e-02,-3.15752161500256140e-03,1.17959350149465832e-04,1.28588508271946107e-04,-4.27604487075881114e-05,5.25535160185825134e-01,3.03209484162416231e+02,4.58774315580653180e-01,3.01270510567723104e+04,2.28768188955272450e+02,-5.54093785294842746e+04,1.48255073303559168e+01,-9.13298156686950679e+04,2.10370397890744920e+00,-1.91349097120109946e-01,-2.26953435787060798e+01,2.01026762930472191e+00,8.52240997418120678e+04,6.09532210909888136e+02
3.29999999999999627e+00,1.28092238413839368e+06,-5.01015975524798408e+06,3.73644254789588135e+06,4.30882516832863985e+02,4.31124242981642510e+02,-5.33621515778577304e-01,9.14883798424340785e+03,-1.32049306730101335e+00,6.28876491349369626e-01,9.79233977226681951e+00,7.85722699098874267e-01,-1.19283555706803691e-02,-3.15362061170776711e-03,1.17437741889751002e-04,1.28457307463719639e-04,-5.31817004765763922e-05,5.33621515778577304e-01,3.03209370430705860e+02,4.58772850853867542e-01,3.01269322694592229e+04,2.28768017336679378e+02,-5.54089981773393083e+04,8.99875500060270106e+00,-9.13293402223597950e+04,-1.78526599076058901e+00,-2.03892569297750015e-01,-1.26582190032187611e+01,2.01026466291674355e+00,8.52235121981812699e+04,6.09531082842080991e+02
3.34999999999999609e+00,1.28094013489221595e+06,-5.01014215873406548e+06,3.73645998613246158e+06,4.30879877683923212e+02,4.31125268795570378e+02,-5.41705084889059663e-01,9.14886486895475537e+03,-1.32048889886843468e+00,6.28879875234045538e-01,9.79233974770644089e+00,7.85724504676139301e-01,-1.19150829758332653e-02,-3.15009362390404396e-03,1.03103893391644916e-04,1.28319774051928269e-04,-5.75954561620714339e-05,5.41705084889059663e-01,3.03209254955982317e+02,4.58771363683404709e-01,3.01268116620861801e+04,2.28767843087984602e+02,-5.54086141693172831e+04,2.41964568724696161e+00,-9.13288352659977973e+04,-5.25624048754325468e+00,-2.10562481726810802e-01,-1.63131608967251607e+00,2.01026169202397442e+00,8.52229191263559333e+04,6.09529949905141621e+02
3.39999999999999591e+00,1.28095788570857048e+06,-5.01012456246954668e+06,3.73647742445681710e+06,4.30877259144405002e+02,4.31126266992346586e+02,-5.49785703831020101e-01,9.14889215879514813e+03,-1.32048473041569125e+00,6.28883259097674174e-01,9.79233972190224833e+00,7.85726234688590819e-01,-1.19018175776668105e-02,-3.14755056463913259e-03,8.06504128495259506e-05,1.28179618419241862e-04,-5.70330356707107709e-05,5.49785703831020101e-01,3.03209137741111931e+02,4.58769854106371333e-01,3.01266892376666328e+04,2.28767666213516208e+02,-5.54082265084784522e+04,-4.14423287254293893e+00,-9.13283018579889904e+04,-8.17485875769751580e+00,-2.12127641712868353e-01,9.16694383661389800e+00,2.01025871667219613e+00,8.52223205387941707e+04,6.09528812118730798e+02
3.44999999999999574e+00,1.28097563658629544e+06,-5.01010696645443421e+06,3.73649486286945827e+06,4.30874660284744721e+02,4.31127238530002217e+02,-5.57863229572490127e-01,9.14891985383350402e+03,-1.32048056194300178e+00,6.28886642940345797e-01,9.79233969485401268e+00,7.85728152823831572e-01,-1.18885586002662105e-02,-3.14639736587810082e-03,4.61931571148395200e-05,1.28039943086692465e-04,-4.94009244981313779e-05,5.57863229572490127e-01,3.03209018785796673e+02,4.58768322119124161e-01,3.01265649959093389e+04,2.28767486712827520e+02,-5.54078351988795694e+04,-9.94836566238882902e+00,-9.13277424243444984e+04,-9.77647250539690837e+00,-2.09554592758649960e-01,1.84140741233691934e+01,2.01025573692877213e+00,8.52217164404356154e+04,6.09527669502691651e+02
3.49999999999999556e+00,1.28099338752340479e+06,-5.01008937068743259e+06,3.73651230137105798e+06,4.30872077234105518e+02,4.31128187306265318e+02,-5.65937547860670520e-01,9.14894795305375010e+03,-1.32047639345067669e+00,6.28890026762306542e-01,9.79233966656486032e+00,7.85730574098643553e-01,-1.18753049690896451e-02,-3.14707625823773150e-03,8.38804900808353597e-06,1.27903152348086713e-04,-3.71601330033074405e-05,5.65937547860670520e-01,3.03208898094398762e+02,4.58766767778040763e-01,3.01264389413906938e+04,2.28767304592504132e+02,-5.54074402565991768e+04,-1.42385325724088556e+01,-9.13271603410688986e+04,-1.01345269734285619e+01,-2.03902610563091002e-01,2.49743253331401611e+01,2.01025275283072480e+00,8.52211068474168133e+04,6.09526522077035793e+02
3.54999999999999538e+00,1.28101113851833693e+06,-5.01007177516763657e+06,3.73652973996218946e+06,4.30869503996572007e+02,4.31129119342781223e+02,-5.74008573363556707e-01,9.14897645576950163e+03,-1.32047222493896621e+00,6.28893410563745259e-01,9.79233963703691046e+00,7.85733687859564767e-01,-1.18620559017049917e-02,-3.14963973545860816e-03,-2.80987484677099777e-05,1.27770894324031204e-04,-2.20175521404378012e-05,5.74008573363556707e-01,3.03208775669864281e+02,4.58765191121263571e-01,3.01263110772083273e+04,2.28767119856994810e+02,-5.54070416988598226e+04,-1.65790933423658196e+01,-9.13265594597832678e+04,-9.26799454404274847e+00,-1.96219094086700352e-01,2.82007346461113890e+01,2.01024976442512138e+00,8.52204917725428386e+04,6.09525369861974127e+02
3.59999999999999520e+00,1.28102888956985273e+06,-5.01005417989423871e+06,3.73654717864325177e+06,4.30866933376593806e+02,4.31130041860074243e+02,-5.82076247209755593e-01,9.14900536133442074e+03,-1.32046805640806397e+00,6.28896794344812826e-01,9.79233960627213662e+00,7.85737590599914881e-01,-1.18488108383488725e-02,-3.15391337743630611e-03,-5.89918065863833077e-05,1.27644128092272222e-04,-5.93935912808892937e-06,5.82076247209755593e-01,3.03208651514967357e+02,4.58763592184722513e-01,3.01261814062804515e+04,2.28766932510488743e+02,-5.54066395445719536e+04,-1.67903598978888624e+01,-9.13259437340472214e+04,-7.34205499439916309e+00,-1.87470623393892311e-01,2.78789836046569981e+01,2.01024677176064603e+00,8.52198712282483175e+04,6.09524212877861828e+02
3.64999999999999503e+00,1.28104664067714126e+06,-5.01003658486662526e+06,3.73656461741440510e+06,4.30864357904619112e+02,4.31130962352322626e+02,-5.90140532763427927e-01,9.14903466919809580e+03,-1.32046388785809343e+00,6.28900178105602281e-01,9.79233957427224055e+00,7.85742279201740890e-01,-1.18355694956949649e-02,-3.15952810038009875e-03,-8.09000545797850695e-05,1.27523220781420454e-04,9.09778239345469187e-06,5.90140532763427927e-01,3.03208525632070064e+02,4.58761970999042035e-01,3.01260499310951200e+04,2.28766742556553396e+02,-5.54062338127763724e+04,-1.49568677124414826e+01,-9.13253169381095795e+04,-4.64062154117055936e+00,-1.78498631277761888e-01,2.42306683895575325e+01,2.01024377488890860e+00,8.52192452259989950e+04,6.09523051145112959e+02
3.69999999999999485e+00,1.28106439183986979e+06,-5.01001899008443393e+06,3.73658205627554236e+06,4.30861770747552612e+02,4.31131887677342320e+02,-5.98201410173118120e-01,9.14906437894608825e+03,-1.32045971928910011e+00,6.28903561846139492e-01,9.79233954103847992e+00,7.85747656452691845e-01,-1.18223318790397700e-02,-3.16597413105581659e-03,-9.16785380948030755e-05,1.27408059729518691e-04,2.13439110301780365e-05,5.98201410173118120e-01,3.03208398022950348e+02,4.58760327587328876e-01,3.01259166535307122e+04,2.28766549997874961e+02,-5.54058245214959243e+04,-1.14035916502807328e+01,-9.13246824808979436e+04,-1.52610824194075323e+00,-1.69997222645179136e-01,1.78642233156224002e+01,2.01024077386529543e+00,8.52186137758561235e+04,6.09521884684112251e+02
3.74999999999999467e+00,1.28108214305817382e+06,-5.01000139554759208e+06,3.73659949522628915e+06,4.30859166495878185e+02,4.31132823269904179e+02,-6.06258870583644693e-01,9.14909449032880366e+03,-1.32045555070105558e+00,6.28906945566379494e-01,9.79233950657164698e+00,7.85753547542742403e-01,-1.18090982555349947e-02,-3.17266909954206982e-03,-9.06219399619725269e-05,1.27298158738253688e-04,2.94735571303885496e-05,6.06258870583644693e-01,3.03208268688678174e+02,4.58758661963572067e-01,3.01257815747262939e+04,2.28766354836071230e+02,-5.54054116869631252e+04,-6.64460994264620375e+00,-9.13240432948074013e+04,1.60809392695283115e+00,-1.62505756732571172e-01,9.68207687695862340e+00,2.01023776874958005e+00,8.52179768861615739e+04,6.09520713515151556e+02
3.79999999999999449e+00,1.28109989433259377e+06,-5.00998380125630274e+06,3.73661693426603824e+06,4.30856541739630813e+02,4.31133772566169000e+02,-6.14312910731257489e-01,9.14912500325404108e+03,-1.32045138209386925e+00,6.28910329266214152e-01,9.79233947087199930e+00,7.85759724998305820e-01,-1.17958690952643663e-02,-3.17903135312182792e-03,-7.84754827360917111e-05,1.27192750101054469e-04,3.27224887172166957e-05,6.14312910731257489e-01,3.03208137629647410e+02,4.58756974133057993e-01,3.01256446951151629e+04,2.28766157071739855e+02,-5.54049953231624386e+04,-1.31178557812028185e+00,-9.13234017719336989e+04,4.38637278113254325e+00,-1.56409213908773381e-01,7.57416329162109103e-01,2.01023475960565090e+00,8.52173345636097074e+04,6.09519537658411423e+02
3.84999999999999432e+00,1.28111764566446492e+06,-5.00996620721169282e+06,3.73663437339384016e+06,4.30853895294194217e+02,4.31134736778187857e+02,-6.22363528800264021e-01,9.14915591831225902e+03,-1.32044721346734528e+00,6.28913712945390890e-01,9.79233943393772144e+00,7.85765962401649976e-01,-1.17826449145517174e-02,-3.18461179015192995e-03,-6.24518807680161941e-05,1.27090862043584306e-04,3.29619716234890410e-05,6.22363528800264021e-01,3.03208004843319657e+02,4.58755264063313462e-01,3.01255060120684939e+04,2.28765956701053938e+02,-5.54045754380899816e+04,4.03682926878437964e+00,-9.13227597185686027e+04,6.91807539537683791e+00,-1.51941380456264596e-01,-8.07383851406782682e+00,2.01023174651662462e+00,8.52166868078629923e+04,6.09518357134007715e+02
