time,eiPosition_m_X,eiPosition_m_Y,eiPosition_m_Z,eiVelocity_m_s_X,eiVelocity_m_s_Y,eiVelocity_m_s_Z,feVelocity_m_s_X,feVelocity_m_s_Y,feVelocity_m_s_Z,altitudeMsl_m,longitude_rad,latitude_rad,localGravity_m_s2,eulerAngle_rad_Yaw,eulerAngle_rad_Pitch,eulerAngle_rad_Roll,bodyAngularRateWrtEi_rad_s_Roll,bodyAngularRateWrtEi_rad_s_Pitch,bodyAngularRateWrtEi_rad_s_Yaw,speedOfSound_m_s,airDensity_kg_m3,ambientPressure_Pa,ambientTemperature_K,aero_bodyForce_N_X,aero_bodyForce_N_Y,aero_bodyForce_N_Z,aero_bodyMoment_Nm_L,aero_bodyMoment_Nm_M,aero_bodyMoment_Nm_N,mach,dynamicPressure_Pa
0.0,6387281.000012401,0.0,0.0,0.0,465.76787589444,0.0,0.0,0.0,-0.0,9144.0,0.0,0.0,9.78607215813912,0.0,0.0,0.0,0.17453292519943295,0.3490658503988659,0.5235987755982988,303.2301256063032,0.4590404150549219,30148.940285576737,228.79937393444447,-0.0,0.0,-0.0,0.0,0.0,0.0,0.0,0.0
0.1,6387280.951061521,46.5767874702672,0.0,-0.9786072207912961,465.767872325232,0.0,0.0,7.111349181337201e-06,0.975210787860528,9143.9512394676,3.711203253905445e-14,0.0,9.786072307781787,0.05249879069859227,0.03481799694765475,0.017882093914719507,0.16489538343871882,0.35642356839803796,0.5199422158677142,303.2303350273728,0.45904311353924415,30149.159161179174,228.79968996833335,-0.0,0.0,-0.0,-3.9328312021466826e-06,-3.40034681806482e-05,-1.2400862457343464e-05,0.00321607265249,0.21828328197657984
0.2,6387280.80426984,93.1535742269976,0.0,-1.957214471465184,465.767861620656,0.0,0.0,2.8445397387496322e-05,1.950421605496968,9143.80495783992,2.968962584201495e-13,0.0,9.786072756740268,0.10534357999670571,0.06937008345025619,0.03662546909115451,0.15499477912002763,0.3628849103667858,0.5162999327017725,303.2309632902768,0.45905120906591007,30149.81579579097,228.80063806944446,-0.0,0.0,-0.0,-7.393524915878011e-06,-6.924100648107126e-05,-2.462841934527118e-05,0.00643213207695,0.8731485529818243
0.3,6387280.55963736,139.7303595566544,0.0,-2.935821781892064,465.76784378071204,0.0,0.0,6.40021461892032e-05,2.9256324826852325,9143.561155147441,1.00202491545457e-12,0.0,9.786073505014564,0.15863362859256855,0.10352142228060096,0.056217655960236,0.14487612633465757,0.3684326209678332,0.5126952277644247,303.232010392272,0.4590647018539557,30150.910212634055,228.8022182377778,-0.0,0.0,-0.0,-1.0366575898684986e-05,-0.00010545242547385884,-3.6685782026116815e-05,0.00964816504564,1.9646420892836431
0.4,6387280.217103121,186.30714274539602,0.0,-3.91442918196672,465.76781880540005,0.0,0.0,0.00011378159848135681,3.9008434491890402,9143.219831329201,2.3751703133548827e-12,0.0,9.786074552604672,0.21246323127902444,0.1371350575994163,0.07665044960278852,0.13458438216394847,0.3730549468607819,0.5091491092924069,303.2334763287864,0.4590835922698153,30152.442450443552,228.80443047388889,-0.0,0.0,-0.0,-1.2840732369740554e-05,-0.00014237309425774888,-4.857805447840434e-05,0.0128641583313,3.492841021504844
0.5,6387279.776728081,232.88392307968562,0.0,-4.89303670154736,465.767786691672,0.0,0.0,0.00017778375799793998,4.87605453482088,9142.780986446161,4.639004889588963e-12,0.0,9.786075899510598,0.2669203598217572,0.17007225178837232,0.09791850831751052,0.12416416275522779,0.37674550261893713,0.5056800757529537,303.2353610946384,0.45910788082474485,30154.412563467795,228.8072747777778,-0.0,0.0,-0.0,-1.4808954647419124e-05,-0.00017973646946349092,-6.031203482335635e-05,0.0160800987077,5.457853339830106
0.6,6387279.23851224,279.4606998459864,0.0,-5.87164437051048,465.767747442576,0.0,0.0,0.00025600862931278163,5.851265769317041,9142.244620437361,8.016201185641073e-12,0.0,9.786077545732338,0.3220851101656865,0.20219294957414527,0.12001765462777045,0.11365948737154488,0.3795031036227584,0.502303950674564,303.2376646819032,0.4591375681773982,30156.820621372564,228.81075115000002,-0.0,0.0,-0.0,-1.62683378907902e-05,-0.00021727652879968587,-7.189589344797809e-05,0.0192959729493,7.859817901381941
0.7,6387278.60242512,326.037472330152,0.0,-6.850252218787441,465.76770105811204,0.0,0.0,0.00034845621874072803,6.826477182456481,9141.61073327232,1.2729431973928716e-11,0.0,9.786079491239416,0.3780279415686197,0.23335638996319366,0.1429428899502096,0.10311354957254809,0.3813315722166115,0.4990337689754527,303.24038708113204,0.45917265513279726,30159.666709480476,228.81485959111114,-0.0,0.0,-0.0,-1.7220003446550897e-05,-0.00025473009182765436,-8.333883623723349e-05,0.0225117678323,10.69890443966746
0.8,6387277.86846672,372.61423981956,0.0,-7.82886027618768,465.76764753828,0.0,0.0,0.000455126532806328,7.801688804018161,9140.87932498152,1.9001370212293175e-11,0.0,9.78608173609279,0.43480771271314506,0.2634218865187763,0.16668614759346032,0.09256851393685968,0.38223952273307354,0.49587971402697717,303.24352828135204,0.45921314264130053,30162.950928483722,228.81960010111112,-0.0,0.0,-0.0,-1.7668962990535733e-05,-0.0002918390149493464,-9.465076128216092e-05,0.0257274701344,13.975313575988249
0.9,6387277.03663704,419.191001600064,0.0,-8.80746857261208,465.767586880032,0.0,0.0,0.000576019580474664,8.77690066381152,9140.050395504,2.70546892066642e-11,0.0,9.786084280231503,0.4924695426014294,0.2922497948400666,0.19123382792965085,0.08206533619455154,0.38224013024378894,0.4928491037817609,303.2470882703712,0.4592590318011802,30166.67339463556,228.82497268055556,-0.0,0.0,-0.0,-1.7623959225995316e-05,-0.0003283522511374959,-0.00010584191709159099,0.0289430666351,17.689276833277752
1.0,6387276.10696656,465.767756958432,0.0,-9.78607713796152,465.76751908641603,0.0,0.0,0.000711135370508736,9.75211279158504,9139.123944839761,3.711206242973775e-11,0.0,9.786087123686038,0.5510425522597364,0.31970268201198915,0.21656418457605306,0.07164360427564714,0.38135088713141685,0.4899464234741821,303.2510670335592,0.4593103238555301,30170.834239750362,228.83097733111111,-0.0,0.0,-0.0,-1.7097286401229775e-05,-0.00036402776787026743,-0.00011692256982466353,0.0321585441162,21.841056651662363
1.1,6387275.0794248,512.344505178384,0.0,-10.7646860021064,465.767444157432,0.0,0.0,0.00086047391320164,10.7273252170872,9138.09997295832,4.939616383827684e-11,0.0,9.786090266456393,0.6105375760811972,0.345646705479906,0.24264466040863697,0.06134139761441787,0.37959335069756817,0.48717340172371054,303.25546455506645,0.45936702019587294,30175.4336110599,228.8376140527778,-0.0,0.0,-0.0,-1.6104593386386956e-05,-0.0003986343189358439,-0.0001279026864159714,0.035373889362,26.430946406368644
1.2,6387273.954011761,558.9212455527841,0.0,-11.74329519491712,465.76736209308007,0.0,0.0,0.00102403521982488,11.702537970127441,9136.97847979872,6.412966758609219e-11,0.0,9.786093708542573,0.6709449668683272,0.3699531979132975,0.26942930503415596,0.05119516204208808,0.3769928842903352,0.4845291263427393,303.2602808172144,0.45942912235855304,30180.471671357074,228.84488284611112,-0.0,0.0,-0.0,-1.4664671532288719e-05,-0.0004319530672502478,-0.00013879163972189935,0.0385890891593,31.459270427641506
1.3,6387272.73075792,605.497977359256,0.0,-12.72190474629456,465.76727289031203,0.0,0.0,0.0012018193032532082,12.67775108048472,9135.75946533048,8.153524844763355e-11,0.0,9.786097449944576,0.7322326527108458,0.39250043963648634,0.2968564373841258,0.041239597751008696,0.37357839363216494,0.4820101957334255,303.265515800496,0.4594966320267976,30185.948599091604,228.85278371222222,-0.0,0.0,-0.0,-1.2799229072615022e-05,-0.0004637790567739804,-0.00014959794098316946,0.0418041302982,36.92638402281702
1.4,6387271.409632801,652.0746998906641,0.0,-13.700514686078641,465.767176552176,0.0,0.0,0.001393826176852104,13.652964577938,9134.442929553601,1.0183558149999083e-10,0.0,9.786101490662407,0.7943446314000865,0.4131755817074573,0.32484674295861965,0.03150755808371205,0.3693820594633436,0.4796109013828073,303.27116948388,0.4595695510312321,30191.864588130655,228.86131665222223,-0.0,0.0,-0.0,-1.0532653432395237e-05,-0.0004939225320021842,-0.0001603290040207124,0.0450189995716,42.832673500406166
1.5,6387269.99066688,698.651412433776,0.0,-14.679125044170242,465.767073078672,0.0,0.0,0.001600055855450088,14.62817849223576,9133.028872407122,1.2525334235048491e-10,0.0,9.78610583069607,0.8572001026373302,0.4318766617207826,0.353302008450343,0.022029957263812024,0.3644390670246888,0.4773234368118772,303.2772418445064,0.4596478813488498,30198.2198478546,228.87048166722224,-0.0,0.0,-0.0,-7.891762508927075e-06,-0.0005222101035409954,-0.00017099094465541787,0.0482336837765,49.17855619647688
1.6,6387268.47382968,745.2281142692641,0.0,-15.65773585047024,465.766962466752,0.0,0.0,0.0018205083545767202,15.60339285315696,9131.517293860561,1.5201120704486339e-10,0.0,9.786110470045564,0.9206934329980656,0.44851463276858616,0.38210469015612547,0.012835685626688777,0.3587873325295492,0.47513812811437695,303.28373285860084,0.459731625102496,30205.014603396423,228.88027875833333,-0.0,0.0,-0.0,-4.905545793958389e-06,-0.0005484857579736291,-0.00018158841792415754,0.0514481697132,55.96448050223308
1.7,6387266.8591212,791.8048046869441,0.0,-16.63634713481856,465.766844722512,0.0,0.0,0.0020551836910874402,16.578607690511042,9129.90819382248,1.8233185234027012e-10,0.0,9.78611540871089,0.9846951177375622,0.4630153067878705,0.41111848086160724,0.0039515313763783385,0.35246722650293827,0.4730436812053755,303.29064249934083,0.4598207845629298,30212.249095258656,228.89070792666666,-0.0,0.0,-0.0,-1.6048961208488174e-06,-0.0005726117099024756,-0.0001921244946949284,0.0546624441865,63.190925896381685
1.8,6387265.146541441,838.381482976632,0.0,-17.61495892714656,465.766719839856,0.0,0.0,0.002304081882950208,17.55382303404648,9128.20157229288,2.1643795549493291e-10,0.0,9.786120646692053,1.0490538444105808,0.4753210999142039,0.44018998036567936,-0.0045978916148064425,0.34552129370156803,0.47102744086303716,303.2979707392944,0.4599153621472778,30219.923579648566,228.90176917333335,-0.0,0.0,-0.0,1.9776671586785304e-06,-0.0005944690935952221,-0.00020260057841013995,0.0578764940051,70.85840297544087
1.9,6387263.336120881,884.958148419,0.0,-18.593571257263683,465.76658781878405,0.0,0.0,0.002567202949117488,18.52903891354224,9126.39742918032,2.545521945219345e-10,0.0,9.786126183989058,1.1135996780414086,0.4853924630565492,0.4691514891539683,-0.012790209978025945,0.33799396933727477,0.46907565673948814,303.30571754889604,0.4600153604200651,30228.038328286628,228.9134625,-0.0,0.0,-0.0,5.8082826434868514e-06,-0.0006139584914013401,-0.00021301636174924951,0.0610903059827,78.96745348969813
2.0,6387261.42782904,931.5348003008161,0.0,-19.57218415510128,465.76644866539203,0.0,0.0,0.002844546909654264,19.504255358777282,9124.4957644848,2.968972479066437e-10,0.0,9.786132020632385,1.178148284265634,0.4932088882017511,0.4978248413879646,-0.020605350570375505,0.3299312914170883,0.46717375161094166,303.3138828973608,0.4601207820926995,30236.593628598042,228.9257879077778,-0.0,0.0,-0.0,9.852037869175372e-06,-0.0006310002959968127,-0.00022336982215591874,0.0643038669378,87.51865037959922
2.1,6387259.4216964,978.111437911896,0.0,-20.55079765052976,465.766302373584,0.0,0.0,0.0031361137860885604,20.47947239953056,9122.4965780844,3.436957951118138e-10,0.0,9.786138156561073,1.242505998734953,0.49876940130947933,0.5260260852497584,-0.02802559295005944,0.3213806091859802,0.4653065873588946,303.32246675146564,0.4602316300224414,30245.589783616946,228.93874539833334,-0.0,0.0,-0.0,1.4073265413187529e-05,-0.0006455349037291979,-0.0002336572544278094,0.0675171636938,96.51259781548886
2.2,6387257.317662001,1024.6880605390081,0.0,-21.52941177345,465.76614894336,0.0,0.0,0.0034419036001617606,21.45469006558104,9120.399869979121,3.951705161098341e-10,0.0,9.786144591836095,1.3064754552402638,0.5020924848231005,0.5535707230400454,-0.035035613502939655,0.3123902879986686,0.4634587243853953,303.3314690770728,0.4603479072160106,30255.02711184285,228.95233497277778,-0.0,0.0,-0.0,1.8435842407482837e-05,-0.000657522736820503,-0.0002438733377522906,0.0707301830798,105.94993123735131
2.3,6387255.1158172805,1071.264667462824,0.0,-22.50802655367144,465.765988380816,0.0,0.0,0.0037619163752733603,22.429908386707684,9118.20564007752,4.515440916200949e-10,0.0,9.786151326426968,1.3698614178428103,0.5032154137778468,0.5802791565285992,-0.04162251990088521,0.3030094111894565,0.4616146705179394,303.3408898376064,0.46046961682597937,30264.905947671457,228.96655663388887,-0.0,0.0,-0.0,2.2903491414456583e-05,-0.0006669440931710276,-0.0002540112340195096,0.0739429119304,115.83131739838133
2.4,6387252.816070801,1117.841257976208,0.0,-23.48664202115592,465.765820679856,0.0,0.0,0.00409615213599024,23.405127392658958,9115.91388828816,5.130392033376256e-10,0.0,9.786158360333697,1.4324764365141394,0.5021930338643905,0.6059819576095015,-0.0477758744442072,0.29328748002046323,0.4597591157545083,303.35072899588084,0.4605967621528338,30275.22664101172,228.9814103827778,-0.0,0.0,-0.0,2.74400802919888e-05,-0.0006737988236977419,-0.00026406271361924846,0.0771553370865,126.15745441094937
2.5,6387250.418483521,1164.41783136288,0.0,-24.46525820574336,465.76564584352803,0.0,0.0,0.00444461090794608,24.3803471132748,9113.52461455008,5.798785338318653e-10,0.0,9.786165693586765,1.4941459662025038,0.4990960518369536,0.6305246051212423,-0.0534877048128869,0.2832741130172444,0.457877149677489,303.3609865116624,0.46072934664394266,30285.98955747728,228.99689622111111,-0.0,0.0,-0.0,3.2009918374654486e-05,-0.0006781058388680743,-0.00027401830454429154,0.0803674453948,136.92907179352414
2.6,6387247.92302496,1210.99438690656,0.0,-25.44387513730416,465.765463868784,0.0,0.0,0.004807292717597521,25.35556757824272,9111.0378188328,6.522847665222287e-10,0.0,9.786173326155696,1.554712652024583,0.49400894249701616,0.6537713918273361,-0.05875250081293302,0.2730187465348696,0.4559544587928166,303.371662344108,0.460867373895104,30297.19507843441,229.01301415055556,-0.0,0.0,-0.0,3.657804604620263e-05,-0.0006799024480003331,-0.00028386746024204303,0.0835792237088,148.14693051998927
2.7,6387245.32969512,1257.5709238970642,0.0,-26.422492845739203,465.76527475867204,0.0,0.0,0.00518419759280328,26.33078881743312,9108.453501014399,7.304805856135288e-10,0.0,9.786181258040497,1.6140395767018862,0.48702759823572256,0.6756082994256405,-0.06356719585651843,0.2625703386279084,0.45397750155333727,303.3827564505456,0.46101084764899886,30308.843600858338,229.02976417388888,-0.0,0.0,-0.0,4.111051459936221e-05,-0.000679243537114686,-0.00029359874151919794,0.0867906588886,159.8118230718328
2.8,6387242.63852448,1304.14744162116,0.0,-27.401111360949365,465.76507851319207,0.0,0.0,0.00557532556197072,27.306010860533522,9105.77166103392,8.146886766125938e-10,0.0,9.786189489271647,1.672012374089896,0.47825685464045903,0.6959447474031735,-0.06793113214615229,0.2519770786660395,0.45193365937342134,303.3942687861696,0.461159771797768,30320.935537524772,229.04714629222224,-0.0,0.0,-0.0,4.557465317904175e-05,-0.0006762005935401016,-0.00030320000764428196,0.0900017378014,171.92457349081556
2.9,6387239.8494825605,1350.7239393625682,0.0,-28.37973071277456,465.764875129296,0.0,0.0,0.0059806766554579205,28.28123373741432,9102.9922988304,9.051317258465569e-10,0.0,9.786198019818675,1.7285402175719886,0.4678080199533717,0.7147142268908284,-0.07184600883194349,0.2412861053254964,0.44981136247069337,303.4061993049552,0.46131415037940454,30333.471316962034,229.0651605088889,-0.0,0.0,-0.0,4.99393196067516e-05,-0.0006708605878851754,-0.00031265861191761147,0.0932124473217,184.48603743690606
3.0,6387236.962569361,1397.300416408056,0.0,-29.3583509310852,465.764664610032,0.0,0.0,0.00640025090374488,29.256457477763043,9100.115414281921,1.0020324206077184e-09,0.0,9.786206849712062,1.7835557804160245,0.4557965193184451,0.7318739190872757,-0.07531581275763417,0.2305432357628359,0.44760018995717393,303.418547958744,0.4614739875813612,30346.45138349892,229.08380682499998,-0.0,0.0,-0.0,5.417513197573144e-05,-0.0006633247264456393,-0.00032196159711380627,0.0964227743316,197.49710224477948
3.1,6387233.97781536,1443.87687204744,0.0,-30.33697204584312,465.76444695540005,0.0,0.0,0.00683404833923184,30.231682111419598,9097.141007297041,1.1056134494013824e-09,0.0,9.786215978921339,1.8370143279744993,0.4423397408322749,0.7474034607945639,-0.07834673179697367,0.21979270878973908,0.4452909441309645,303.4313146984632,0.4616392877395202,30359.876197168967,229.10308524333334,-0.0,0.0,-0.0,5.825467811153631e-05,-0.0006537070894058983,-0.000331095886470441,0.0996327057209,210.9586869831889
3.2,6387230.89519008,1490.453305561392,0.0,-31.315594086796803,465.764222162352,0.0,0.0,0.00728206899480672,31.206907668254402,9094.0690778148,1.216097501762597e-09,0.0,9.786225407476978,1.8888921362225102,0.42755514338550166,0.761303054315552,-0.0809470511834301,0.20907694489372972,0.4428756994676398,303.44449947260165,0.46181005533716174,30373.746233854064,229.12299576611113,-0.0,0.0,-0.0,6.215270027674262e-05,-0.0006421331722799113,-0.00034004846633028105,0.102842228388,224.87174252104037
3.3,6387227.71469352,1537.029716242776,0.0,-32.2942170838776,465.763990233936,0.0,0.0,0.00774431290457664,32.1821341777416,9090.89962574376,1.3337072684341787e-09,0.0,9.78623513534852,1.939184439974867,0.41155865949281406,0.7735911274874903,-0.0831270336341703,0.19843632575422054,0.44034782729047656,303.458102228124,0.46198629500651067,30388.06198533235,229.14353839555557,-0.0,0.0,-0.0,6.58462528851153e-05,-0.0006287383497762335,-0.000348806556972988,0.106051329239,239.23725158724292
3.4,6387224.43632568,1583.6061033722642,0.0,-33.2728410672912,465.76375117015203,0.0,0.0,0.008220780104233681,33.157361669904006,9087.63265093152,1.4586654415272815e-09,0.0,9.786245162596918,1.9879031017632567,0.3944634028626751,0.7843017375867888,-0.08489878445094419,0.1879089957182922,0.43770199755418004,303.472122910776,0.46216801152873627,30402.823959134574,229.164713135,-0.0,0.0,-0.0,6.931483143650499e-05,-0.0006136662826387142,-0.0003573577687362004,0.109259995188,254.0562288410928
3.5,6387221.06011704,1630.182466236624,0.0,-34.251466066298406,465.76350496795203,0.0,0.0,0.00871147062983568,34.132590174612,9084.2681533476,1.5911947140239794e-09,0.0,9.786255489161224,2.035074167171013,0.37637867136576947,0.7934818869201249,-0.08627610313655491,0.17753068739866756,0.43493415956248666,303.48656146447445,0.4623552098334369,30418.03267873561,229.18651998611114,-0.0,0.0,-0.0,7.254047139109225e-05,-0.0005970672889512036,-0.00036569024111838833,0.112468213161,269.3297209393056
3.6,6387217.58603712,1676.7588041287202,0.0,-35.2300921113792,465.763251627336,0.0,0.0,0.009216384518812081,35.107819721126404,9080.80613287008,1.7315177803968567e-09,0.0,9.786266115071921,2.080735439296696,0.35740922240396883,0.8011888848151301,-0.08727432335916206,0.1673345731601553,0.4320415037803595,303.5014178310024,0.46254789499967097,30433.688683506563,229.20895895166666,-0.0,0.0,-0.0,7.55078162497521e-05,-0.0005790967018054453,-0.00037379276314023554,0.115675970089,285.0588066068794
3.7,6387214.014116401,1723.335116326176,0.0,-36.2087192317944,465.7629911544,0.0,0.0,0.00973552181005536,36.0830503399272,9077.24658937704,1.879857336689295e-09,0.0,9.786277040329011,2.12493417052125,0.33765478898812595,0.8074878559935846,-0.08791014335549674,0.1573511438812257,0.4290224070969728,303.5166919512288,0.4627460722549257,30449.79252871481,229.232030035,-0.0,0.0,-0.0,7.82041546623845e-05,-0.0005599132351594622,-0.0003816548739151475,0.118883252916,301.24459671130865
3.8,6387210.34429392,1769.9114021188082,0.0,-37.187347458024,465.76272354,0.0,0.0,0.010268882542671361,37.058282060275204,9073.58952277704,2.0364360796131363e-09,0.0,9.786288264932509,2.167724938232861,0.31720980039812813,0.8124494627212685,-0.08820144904086906,0.14760811586041764,0.4258763641208258,303.5323837632792,0.46294974697614827,30466.344785571833,229.25573323833333,-0.0,0.0,-0.0,8.061942695265264e-05,-0.0005396773791646486,-0.000389266942905539,0.122090048593,317.88823433775656
3.9,6387206.576630641,1816.487660796432,0.0,-38.1659768196336,465.76244879328,0.0,0.0,0.01081646675771664,38.0335149123456,9069.83493291768,2.2014767078123022e-09,0.0,9.786299788851933,2.2091677425577037,0.2961632704940422,0.816147880185885,-0.08816713221706966,0.13813036631036557,0.4226039071267258,303.5484932049744,0.4631589246902612,30483.34604137689,229.28006856500002,-0.0,0.0,-0.0,8.27462019824411e-05,-0.0005185498451957896,-0.00039662022999234855,0.125296344083,334.99089486470604
4.0,6387202.711096081,1863.0638916397202,0.0,-39.1446073464936,465.762166908144,0.0,0.0,0.01137827449685736,39.008748925704,9065.982819738,2.3752019211629164e-09,0.0,9.786311612148253,2.24932634321824,0.2745988181958081,0.8186590420083217,-0.08782690631638967,0.12893989735636927,0.41920651735291964,303.56502021169683,0.4633736110736468,30500.796899229725,229.30503601833334,-0.0,0.0,-0.0,8.45796257823542e-05,-0.0004966900793485335,-0.0004037069259326456,0.128502126358,352.5537860477495
4.1,6387198.74772072,1909.6400939384882,0.0,-40.123239068779206,465.761877884592,0.0,0.0,0.01195430580297888,39.983984129916,9062.03318311608,2.5578344210071808e-09,0.0,9.786323734821476,2.2882668353096434,0.2525947879423732,0.8200591560390887,-0.0872011221065455,0.12005582800683236,0.4156865301843368,303.5819647166952,0.46359381195266247,30518.697978509368,229.33063560000002,-0.0,0.0,-0.0,8.611734382633377e-05,-0.0004742548613628835,-0.00041052017427236064,0.131707382401,370.57814809619805
4.2,6387194.6864436,1956.216266979504,0.0,-41.101872016056,465.76158172567204,0.0,0.0,0.0125445607199724,40.959220555156804,9057.986022869041,2.7495969102057316e-09,0.0,9.786336156810641,2.3260564530162258,0.23022444188909463,0.8204234786991066,-0.0863105857001362,0.11149441310439619,0.4120470367701249,303.5993266529136,0.4638195333026104,30537.049914491094,229.35686731444446,-0.0,0.0,-0.0,8.735939921244282e-05,-0.0004513970037538397,-0.0004170540761323223,0.134912099206,389.0652537616595
4.3,6387190.5273256805,2002.7924100464882,0.0,-42.0805062181944,465.761278428336,0.0,0.0,0.01314903929340552,41.934458230992,9053.8413389664,2.9507120935390687e-09,0.0,9.786348878146244,2.362762582819727,0.2075562000999512,0.8198253286732015,-0.08517638108537637,0.1032690878686623,0.40829178432869734,303.6171059505528,0.4640507812503139,30555.85335853795,229.38373116444447,-0.0,0.0,-0.0,8.830810933075037e-05,-0.00042826416364711943,-0.0004233036796111841,0.138116263777,408.01640842278647
4.4,6387186.27036696,2049.368522426208,0.0,-43.0591417053696,465.76096799563203,0.0,0.0,0.01376774156893728,42.909697187292004,9049.5991311948,3.1614026764858222e-09,0.0,9.786361898858766,2.398451963998896,0.1846539092968322,0.8183353165287554,-0.08381969920984221,0.09539053628255587,0.40442507724690574,303.63530253828964,0.4642875620725716,30575.10897814862,229.41122715333333,-0.0,0.0,-0.0,8.896792383760497e-05,-0.00040499777722149353,-0.0004292649557291471,0.14131986313,427.43295017241854
4.5,6387181.91550648,2095.94460340848,0.0,-44.0377785071472,465.76065042756005,0.0,0.0,0.01440066759387264,43.884937453622406,9045.2593994628,3.3818913667062862e-09,0.0,9.786375218948217,2.433190052980573,0.161577124783095,0.8160207650726622,-0.08226167543813286,0.08786678127244081,0.40045168080942445,303.6539163435816,0.4645298821961574,30594.817457101082,229.43935528444445,-0.0,0.0,-0.0,8.934526691909678e-05,-0.0003817321241903356,-0.00043493476299230144,0.144522884292,447.3162499095126
4.6,6387177.4628052,2142.520652273976,0.0,-45.0164166537024,465.76032571802403,0.0,0.0,0.01504781741655288,44.8601790601584,9040.82214364848,3.612400873606081e-09,0.0,9.786388838384124,2.4670405278581713,0.13838139379881637,0.8129452953313042,-0.08052323695511585,0.08070329439770016,0.3963767291099421,303.6729472917528,0.46477774819936646,30614.979495165324,229.46811556111112,-0.0,0.0,-0.0,8.94483669115171e-05,-0.0003585935270975712,-0.0004403108027116464,0.147725314303,467.66771143346614
4.7,6387172.91223264,2189.0966683155602,0.0,-45.995056174905606,465.75999387616804,0.0,0.0,0.0157091910863556,45.8354220361608,9036.287363629921,3.853153907830014e-09,0.0,9.78640275716649,2.5000649114878235,0.1151185316563148,0.8091685541011655,-0.07862496142410286,0.0739031225899139,0.39220563843745315,303.692395306908,0.46503116681098466,30635.595808390623,229.4975079872222,-0.0,0.0,-0.0,8.928707636167453e-05,-0.00033569968776003714,-0.00044539156718643953,0.150927140214,488.4887715350909
4.8,6387168.263788801,2235.672650810856,0.0,-46.973697100322404,465.75965489284806,0.0,0.0,0.01638478865399952,46.810666412109605,9031.65505919376,4.104373182291817e-09,0.0,9.786416975325809,2.5323222927069406,0.0918368845980804,0.8047460608625117,-0.07658694794296436,0.06746702937041592,0.38794402711852083,303.71226031132323,0.46529014491183457,30656.66712910553,229.52753256555556,-0.0,0.0,-0.0,8.887268555799854e-05,-0.0003131591608128629,-0.00045017628280322934,0.154128349088,509.7809000985968
4.9,6387163.517473681,2282.248599055776,0.0,-47.95233945982321,465.75930877720805,0.0,0.0,0.01707461017084344,47.7859122169608,9026.925230279041,4.366281411074596e-09,0.0,9.786431492862082,2.5638691283964232,0.06858157544540944,0.7997291539865984,-0.07442870105897241,0.06139364792125445,0.38359764253633466,303.7325422254456,0.4655546895332294,30678.19420591791,229.55818930111113,-0.0,0.0,-0.0,8.821773245191336e-05,-0.0002910709621153512,-0.0004546648499432921,0.157328928002,531.5456002011837
5.0,6387158.67331776,2328.824512330992,0.0,-48.930983283888004,465.75895552010405,0.0,0.0,0.017778655689648242,48.761159481194404,9022.097876702881,4.639101310670008e-09,0.0,9.786446309775322,2.5947591105214745,0.04539472976375392,0.7941650184008837,-0.0721690283464223,0.05567964339540194,0.3791722957995457,303.75324096850323,0.4658248078585193,30700.177803714883,229.58947819611112,-0.0,0.0,-0.0,8.73358117259957e-05,-0.00026952430780754474,-0.00045885778146645986,0.160528864044,553.7844082102373
5.1,6387153.73129056,2375.400389920224,0.0,-49.909628601777605,465.758595127632,0.0,0.0,0.0184969252640892,49.736408234071206,9017.17299834336,4.923055599070696e-09,0.0,9.78646142606553,2.6250430852705016,0.022315681565481783,0.7880967791055162,-0.06982595179329944,0.050319881900405934,0.3746738042685744,303.7743564575904,0.4661005072225754,30722.618703710774,229.62139925555556,-0.0,0.0,-0.0,8.62413855661243e-05,-0.0002485984780817056,-0.00046275614131290467,0.163728144316,576.4988938848364
5.2,6387148.691392081,2421.9762311163363,0.0,-50.888275443667204,465.75822759674406,0.0,0.0,0.019229418949182724,50.71165850576641,9012.150595017602,5.218366996032084e-09,0.0,9.786476841702243,2.654769013069618,-0.0006188414711367024,0.7815636470182823,-0.06741663301426999,0.045307603697359096,0.37010794195160795,303.7958886082776,0.4663817951138519,30745.517703494912,229.65395248277778,-0.0,0.0,-0.0,8.494959845864649e-05,-0.00022836279826729942,-0.00046636148453802227,0.166926755934,599.6906605002413
5.3,6387143.553622319,2468.552035203048,0.0,-51.8669238394272,465.757852930488,0.0,0.0,0.019976136800402403,51.6869103258456,9007.0306665732,5.525258223229458e-09,0.0,9.786492556746426,2.6839819604145063,-0.023374552599013103,0.7746011054857264,-0.06495731208858425,0.04063459828691928,0.3654803976027356,303.8178373352208,0.466668679170263,30768.87561722324,229.68713788222223,-0.0,0.0,-0.0,8.347609807598051e-05,-0.00020887672859698996,-0.0004696757999084563,0.170124686027,623.3613449292892
5.4,6387138.318011761,2515.12780146408,0.0,-52.8455738186232,465.75747112581604,0.0,0.0,0.0207370788754164,52.6621637241792,9001.81321288824,5.843952004624486e-09,0.0,9.786508571167603,2.7127241158750843,-0.04591945926923408,0.7672411275260285,-0.062463259643283774,0.036291379225152604,0.36079674018711866,303.840202550028,0.46696116718536723,30792.69327528308,229.72095545722223,-0.0,0.0,-0.0,8.183686404562153e-05,-0.0001901900531371585,-0.00047270145591749463,0.173321921737,647.5126177764605
5.5,6387132.98452992,2561.7035291892485,0.0,-53.824225411735206,465.757082185776,0.0,0.0,0.02151224523161856,53.637418730637606,8996.498233779841,6.174671065906712e-09,0.0,9.786524884965786,2.7410348242341462,-0.06822373362836394,0.759512415363226,-0.05994874163490055,0.0322673567009917,0.35606239127511785,303.8629841640024,0.4672592671037289,30816.971524676224,229.7554052127778,-0.0,0.0,-0.0,8.004804611767763e-05,-0.0001723431576288972,-0.00047544115089368085,0.176518450222,672.1461834784265
5.6,6387127.5531768,2608.27921766532,0.0,-54.8028786483288,465.75668610427203,0.0,0.0,0.02230163592868872,54.6126753747864,8991.085729095601,6.517638134633183e-09,0.0,9.786541498140986,2.7689506337857868,-0.09025959863953321,0.7514406550532995,-0.05742699615315857,0.02855100611078145,0.35128260381734416,303.8861820863136,0.4675629870234955,30841.71122897101,229.79048715277779,-0.0,0.0,-0.0,7.812581297110245e-05,-0.0001553673855827463,-0.00047789786762836626,0.179714258652,697.2637804285376
5.7,6387122.0239524,2654.854866172968,0.0,-55.781533558274404,465.75628288740006,0.0,0.0,0.02310525102688584,55.587933686496,8985.575698652641,6.873075940926577e-09,0.0,9.786558410723686,2.79650535321568,-0.11200122815319694,0.7430487802138933,-0.05491022146093059,0.02513003108215398,0.3464624467107122,303.9097962239976,0.46787233519639726,30866.91326820661,229.8262012811111,-0.0,0.0,-0.0,7.608621262545823e-05,-0.00013928546178334448,-0.0004800748328042139,0.182909334213,722.8671810773733
5.8,6387116.39685672,2701.430474005056,0.0,-56.760190171442396,465.75587253516005,0.0,0.0,0.023923090587261362,56.563193695332004,8979.96814229856,7.2412072161313066e-09,0.0,9.786575622683422,2.8237301148169047,-0.13342465926525174,0.7343572397054638,-0.052409574405115844,0.021991519617117695,0.3416067944870353,303.9338264834808,0.468187320027232,30892.578539132384,229.86254760277777,-0.0,0.0,-0.0,7.394504517177654e-05,-0.00012411197228342043,-0.00048197548131278194,0.186103664107,748.9581920715932
5.9,6387110.67192024,2748.006040442256,0.0,-57.738848517703204,465.755455041456,0.0,0.0,0.02475515467251264,57.5384554317744,8974.26305985048,7.622254694750826e-09,0.0,9.786593134050676,2.8506534421040004,-0.1545077153605822,0.7253842650593538,-0.049935178274112355,0.019122092245727078,0.3367203215115507,303.9582727687512,0.4685079500748956,30918.707955064277,229.8995261216667,-0.0,0.0,-0.0,7.171774828579921e-05,-0.00010985389024517484,-0.00048360342539068306,0.189297235548,775.5386543640631
6.0,6387104.849082001,2794.581564774384,0.0,-58.7175086269272,465.75503041238403,0.0,0.0,0.025601443345824718,58.513718924779205,8968.460451156001,8.01644111284194e-09,0.0,9.786610944825462,2.877301319940297,-0.17522993832918507,0.7161461340172735,-0.04749613914282535,0.016508041286933475,0.33180749999673514,303.9831349822728,0.46883423405238245,30945.30244602844,229.93713684222223,-0.0,0.0,-0.0,6.941929576534222e-05,-9.651113722382842e-05,-0.0004849624284238271,0.192490035768,802.6104433574948
6.1,6387098.92840296,2841.1570462882078,0.0,-59.6961705292896,465.754598644896,0.0,0.0,0.026461956672241924,59.4889842045216,8962.56031600176,8.42398920874782e-09,0.0,9.786629054977306,2.9036972663058527,-0.19557252856192414,0.7066574272413081,-0.045100569729223765,0.01413546052742114,0.32687260122578043,304.0084130252904,0.46916618082730055,30972.36295880911,229.97537977000002,-0.0,0.0,-0.0,6.706410913042317e-05,-8.407717003220063e-05,-0.00048605638314451146,0.195682052013,830.175468995419
6.2,6387092.909852641,2887.7324842644002,0.0,-60.67483425435601,465.75415973899203,0.0,0.0,0.02733669471711336,60.464251300872,8956.56265426584,8.845121723150398e-09,0.0,9.786647464536705,2.9298624048333366,-0.21551829144379683,0.6969312756811785,-0.04275561979116904,0.011990364813068618,0.32191969937661014,304.03410679722003,0.469503799421356,30999.8904569965,230.0142549088889,-0.0,0.0,-0.0,6.466598213552082e-05,-7.253958385720694e-05,-0.0004868892938674953,0.198873271547,858.235675924978
6.3,6387086.79343104,2934.307877995824,0.0,-61.653499831996804,465.75371369772,0.0,0.0,0.02822565754758648,61.4395202437008,8950.4674657044,9.280061398878346e-09,0.0,9.786666173534138,2.955815537884969,-0.23505158920867775,0.6869795965602092,-0.04046751210428319,0.010058799232226303,0.31695267739665756,304.060216195344,0.46984709901241484,31027.88592093892,230.0537622638889,-0.0,0.0,-0.0,6.223801788958606e-05,-6.188072298086788e-05,-0.00048746526238542455,0.202063681648,886.7930436118386
6.4,6387080.57916864,2980.8832267662,0.0,-62.6321672923872,465.75326051803205,0.0,0.0,0.029128845231052563,62.4147910622688,8944.27475013456,9.72903098113399e-09,0.0,9.786685181908664,2.981573219751624,-0.2541582971076433,0.6768133162800536,-0.03824158309757721,0.00832693773146178,0.311975234430987,304.08674111664004,0.4701960889324413,31056.350347886397,230.09390183944444,-0.0,0.0,-0.0,5.97925781355702e-05,-5.207829118026023e-05,-0.0004877884770992404,0.205253269611,915.849586483833
6.5,6387074.267004481,3027.458529862296,0.0,-63.6108366650928,465.752800199928,0.0,0.0,0.0300462578368536,63.390063786751206,8937.98450740392,1.0192253217842366e-08,0.0,9.786704489721249,3.007149830550076,-0.27282576299761846,0.6664425788828194,-0.03608232725619798,0.006781171153946628,0.30699089432553833,304.11368145473284,0.4705507786695595,31085.284751990694,230.1346736411111,-0.0,0.0,-0.0,5.7341244129654005e-05,-4.310595465325079e-05,-0.0004878632049442823,0.208442022747,945.4073540506583
6.6,6387067.85699952,3074.0337865708802,0.0,-64.5895079802888,465.75233274340803,0.0,0.0,0.030977895434788804,64.3653384470184,8931.5967373296,1.0669950858673843e-08,0.0,9.786724096910943,3.032557650382034,-0.2910427695218369,0.655876938991983,-0.03399344445720102,0.005408184821558251,0.30200301485468223,304.14103710324724,0.47091117786702247,31114.690164353196,230.1760776738889,-0.0,0.0,-0.0,5.489478846111388e-05,-3.4933931112853275e-05,-0.00048769378566331396,0.211629928386,975.4684310666712
6.7,6387061.3490928,3120.6089961787206,0.0,-65.5681812678456,465.751858148472,0.0,0.0,0.0319237580962728,65.34061507263601,8925.11143966776,1.1162346656056414e-08,0.0,9.786744003569195,3.057806934749824,-0.3087994981665305,0.645125538357677,-0.03197788945190378,0.00419502589717135,0.2970147972926061,304.1688079530648,0.47127729632475834,31144.567633120652,230.21811394222223,-0.0,0.0,-0.0,5.246315708434459e-05,-2.7529559503692753e-05,-0.000487284628029214,0.214816973873,1006.0349376457989
6.8,6387054.74334528,3167.18415796344,0.0,-66.54685655732881,465.75137641512,0.0,0.0,0.0328838458932384,66.31589369347441,8918.528614235522,1.1669663365297852e-08,0.0,9.78676420963506,3.082905991089072,-0.32608749458996394,0.6341972654059663,-0.030037922774347355,0.0031291608624691688,0.29202929607720196,304.1969938941528,0.47164914399988594,31174.918223437297,230.26078245166667,-0.0,0.0,-0.0,5.005546077354539e-05,-2.0857845595079252e-05,-0.00048664020759025064,0.218003146571,1037.1090294243331
6.9,6387048.039726481,3213.7592712240003,0.0,-67.5255338789136,465.75088754335206,0.0,0.0,0.0338581588991424,67.2911743390992,8911.84826085,1.21921237433291e-08,0.0,9.786784715108547,3.1078612572038047,-0.3428996346181847,0.6231008973802057,-0.028175162411943507,0.002198523529420491,0.2870494283151297,304.22559481434484,0.4720267310051685,31205.743017540626,230.30408320722225,-0.0,0.0,-0.0,4.767997517844423e-05,-1.488197949373584e-05,-0.0004857650655922069,0.22118843386,1068.6928976997824
7.0,6387041.2382364,3260.33433522888,0.0,-68.5042132627752,465.750391536216,0.0,0.0,0.034846697188356,68.2664570396856,8905.07037929784,1.2729950550275045e-08,0.0,9.786805520050628,3.132677381743577,-0.35923009048337384,0.611845224817923,-0.02639063564332429,0.001391554071554175,0.2820779829605035,304.2546105999504,0.47241006761055965,31237.043114857148,230.34801621444444,-0.0,0.0,-0.0,4.534414863218208e-05,-9.563821880328461e-06,-0.0004846638087139954,0.224372823139,1100.788769569725
7.1,6387034.33887504,3306.9093492770403,0.0,-69.48289473786961,465.749888387616,0.0,0.0,0.035849460836164804,69.2417418247992,8898.19496936568,1.3283366548791306e-08,0.0,9.78682662440035,-3.1258279998984375,-0.37507429681785126,0.6004391583300627,-0.024684830511417778,0.000697229614617227,0.27711762950837693,304.2840411363648,0.47279916424371904,31268.81963205026,230.39258147833334,-0.0,0.0,-0.0,4.3054616860039595e-05,-4.8643564973143445e-06,-0.00048334110935509267,0.227556301825,1133.3989080993895
7.2,6387027.341672881,3353.48431266744,0.0,-70.4615783349816,465.74937810364804,0.0,0.0,0.0368664499193784,70.21702872431041,8891.22203087064,1.385259450364535e-08,0.0,9.786848028188206,-3.1012829508049196,-0.3904289160703763,0.5888918178134905,-0.02305774646225646,0.00010508696632664224,0.27217092611750526,304.3138863065448,0.47319403149052763,31301.0737029245,230.437779005,-0.0,0.0,-0.0,4.0817223737823325e-05,-7.441071005782927e-07,-0.00048180170618328857,0.230738857351,1166.525612460508
7.3,6387020.24656896,3400.05922466856,0.0,-71.44026408367681,465.74886067821603,0.0,0.0,0.037897664515416,71.19231776808961,8884.151563568881,1.4437857182868405e-08,0.0,9.786869731414212,-3.0768729866350344,-0.4052918030148772,0.577212604334124,-0.021508943746172664,-0.0003947619066729967,0.26724032710653456,304.34414599192326,0.47359468009405675,31333.80647866493,230.4836087988889,-0.0,0.0,-0.0,3.863704727096465e-05,2.836482279927221e-06,-0.00048005040475158456,0.233920477172,1200.1712180988966
7.4,6387013.05362424,3446.6340845793598,0.0,-72.4189520141304,465.74833611741604,0.0,0.0,0.038943104703525605,72.1676089857024,8876.98356724704,1.503937735712715e-08,0.0,9.786891734108853,-3.05259975436873,-0.41966196806537637,0.5654112551850893,-0.020037591232489674,-0.0008116210300844605,0.2623281897398418,304.3748200733232,0.4740011209566301,31367.019127837153,230.53007086722224,-0.0,0.0,-0.0,3.651842998558579e-05,5.9167043419814935e-06,-0.00047809207799171037,0.23710114876,1234.3380968733086
7.5,6387005.76277776,3493.20889166832,0.0,-73.39764215560321,465.747804415152,0.0,0.0,0.040002770562650405,73.1429024070192,8869.71804169176,1.5657377799392102e-08,0.0,9.786914036211185,-3.0284662437550156,-0.43353953919814103,0.5534978826557192,-0.01864251235426708,-0.0011542075697861878,0.25743678035538603,304.4059084282152,0.4744133651382769,31400.712836291543,230.57716521444445,-0.0,0.0,-0.0,3.4465012960072654e-05,8.535282819269864e-06,-0.0004759316664378346,0.240280859605,1269.0286572373789
7.6,6386998.374090481,3539.7836452039205,0.0,-74.37633453857521,465.74726557752,0.0,0.0,0.041076662174781606,74.1181980619104,8862.354986689681,1.6292081285565926e-08,0.0,9.786936637812655,-3.004476688212165,-0.44692572227336874,0.5414829972985383,-0.017322228945020026,-0.0014306543466536435,0.25256827977697416,304.43741093437444,0.4748314238593096,31434.888807450523,230.62489184666669,-0.0,0.0,-0.0,3.247977276731764e-05,1.0730103668612895e-05,-0.0004735741780950505,0.243459597218,1304.2453443832658
7.7,6386990.887501441,3586.35834454608,0.0,-75.35502919261201,465.746719598424,0.0,0.0,0.042164779620996004,75.09349597994161,8854.89440199696,1.694371059460561e-08,0.0,9.786959538852319,-2.9806364625863297,-0.45982275963772257,0.5293775165494434,-0.01607500278636931,-0.0016485170985907184,0.24772478808424597,304.4693274668328,0.47525530849826164,31469.548262212826,230.67325076944445,-0.0,0.0,-0.0,3.056506063833457e-05,1.2537982294931526e-05,-0.00047102468783468044,0.24663734913,1339.9906404188062
7.8,6386983.3030716,3632.93298890232,0.0,-76.333726147584,465.74616648091205,0.0,0.0,0.0432671229848088,76.068796191288,8847.33628743072,1.761248850833049e-08,0.0,9.78698273933019,-2.956951978065264,-0.4722338869239415,0.5171927597098825,-0.014898874729526774,-0.0018147858864588514,0.24290832873514173,304.5016578990984,0.47568503059549555,31504.69243909711,230.72224198944443,-0.0,0.0,-0.0,2.872264321394318e-05,1.3994465615154304e-05,-0.0004682883363069106,0.249814102889,1376.2670645350986
7.9,6386975.62077048,3679.50757760208,0.0,-77.3124254336664,465.745606224984,0.0,0.0,0.0443836923503448,77.0440987255152,8839.68064268616,1.8298637811544415e-08,0.0,9.787006239307239,-2.933430574735857,-0.4841632879934205,0.5049404304359661,-0.013791701295914343,-0.0019359000627903829,0.2381208521124113,304.53440210346,0.47612060184907967,31540.32259409832,230.77186551166668,-0.0,0.0,-0.0,2.6953744298131887e-05,1.5133667459803384e-05,-0.0004653703282988954,0.252989846065,1413.0771731597183
8.0,6386967.84059808,3726.08210991384,0.0,-78.29112708072961,465.74503883064006,0.0,0.0,0.0455144878026432,78.0194036121888,8831.9274675804,1.90023812907791e-08,0.0,9.787030038722518,-2.9100804120996275,-0.49561604803397763,0.4926325879422798,-0.012751188701938943,-0.002017766248831695,0.23336423852907098,304.56755995068244,0.4765620341189114,31576.440001070758,230.82212134333332,-0.0,0.0,-0.0,2.5259087083109688e-05,1.5988135564108292e-05,-0.0004622759305722273,0.256164566249,1450.4235601578155
8.1,6386959.9625544,3772.65658510608,0.0,-79.2698311183392,465.74446429788,0.0,0.0,0.04665950942826721,78.99471088148401,8824.07676190008,1.9723941736964503e-08,0.0,9.787054137636998,-2.8869103584537585,-0.5065981048669129,0.48028160824510296,-0.01177492428619383,-0.002065778796114901,0.22864030074342306,304.601131309092,0.4770093394262018,31613.04595153652,230.87300949,-0.0,0.0,-0.0,2.363893636947703e-05,1.6588748200120164e-05,-0.0004590104691458782,0.25933825105,1488.308856970967
8.2,6386951.98663944,3819.23100253872,0.0,-80.2485375766704,465.743882626704,0.0,0.0,0.0478187573146944,79.97002056296641,8816.1285253404,2.046354194364856e-08,0.0,9.787078535989737,-2.8639298795739947,-0.5171161985558625,0.46790013682209836,-0.010860405348965027,-0.0020848422422584446,0.22395078603948837,304.63511604701523,0.47746252995244437,31650.14175478129,230.92452995722223,-0.0,0.0,-0.0,2.2093140360263163e-05,1.6964638356321466e-05,-0.0004555793260734201,0.2625108881,1526.7357328326389
8.3,6386943.912822721,3865.8053614192804,0.0,-81.2272464855936,465.74329381406403,0.0,0.0,0.048992231550316796,80.9453326865064,8808.082757688,2.1221404706648153e-08,0.0,9.78710323387218,-2.841148927816423,-0.5271778194553282,0.45550103410567944,-0.010005065439315832,-0.0020793953057536584,0.21929737793393808,304.6695140294256,0.47792161804147737,31687.728737997968,230.97668275277778,-0.0,0.0,-0.0,2.0621171659098328e-05,1.7143143263506593e-05,-0.00045198793572808366,0.26568246505,1565.7068949070376
8.4,6386935.7411652,3912.3796610467202,0.0,-82.2059578749792,465.742697866056,0.0,0.0,0.0501799322247456,81.92064728197441,8799.93945869904,2.199775282649254e-08,0.0,9.78712823119291,-2.81857783195229,-0.536791154890868,0.4430973152656603,-0.009206298148619485,-0.0020534360017937497,0.21468169754268662,304.704325120992,0.4783866161994831,31725.808246334556,231.0294678816667,-0.0,0.0,-0.0,1.9222167154988256e-05,1.7149777003327427e-05,-0.00044824178064310885,0.268852969574,1605.2250885189367
8.5,6386927.4716364,3958.95390075048,0.0,-83.18467177439281,465.742094776584,0.0,0.0,0.051381859428811204,82.89596437924081,8791.69862816016,2.2792809104758182e-08,0.0,9.78715352804337,-2.796227189184482,-0.5459650346803906,0.43070208571584956,-0.008461478488207046,-0.0020105474984714604,0.2101053046804492,304.7395491845544,0.4788575370939576,31764.38164279838,231.08288535111112,-0.0,0.0,-0.0,1.7894966527137146e-05,1.700822391088321e-05,-0.0004443463869412827,0.272022389365,1645.2930972973163
8.6,6386919.104236321,4005.52807976856,0.0,-84.1633882143144,465.74148454564806,0.0,0.0,0.0525980132542584,83.8712840075664,8783.36026573608,2.360679634738486e-08,0.0,9.787179124362622,-2.774107759764543,-0.5547088757426386,0.41832847377401144,-0.007767981944645273,-0.001953924370126392,0.2055696987159529,304.7751860808192,0.47933439355628715,31803.450308591262,231.1369351677778,-0.0,0.0,-0.0,1.6638149146244775e-05,1.674035049114007e-05,-0.00044030731940111794,0.275190712141,1685.9137433716733
8.7,6386910.63896496,4052.10219739992,0.0,-85.1421072243096,465.740867179344,0.0,0.0,0.0538283937934416,84.84660619743121,8774.924371274401,2.4439937363453952e-08,0.0,9.787205020181156,-2.7522303652574345,-0.5630326261017922,0.40598956182608026,-0.007123201319004866,-0.0018863989422174023,0.20107631924388872,304.81123566866404,0.47981719858071814,31843.01564287015,231.19161733777779,-0.0,0.0,-0.0,1.545006919859743e-05,1.6366233600962903e-05,-0.0004361301762220394,0.278357925638,1727.0898875826936
8.8,6386902.07582232,4098.676252974,0.0,-86.1208288345536,465.740242671576,0.0,0.0,0.055073001140544,85.821930978096,8766.39094440936,2.529245496466482e-08,0.0,9.787231215498984,-2.7306057911696153,-0.5709467085482394,0.39369831731584193,-0.006524561466008915,-0.0018104674581190553,0.19662654659280215,304.847697807576,0.48030596532538694,31883.079063082212,231.2469318677778,-0.0,0.0,-0.0,1.4328888892218751e-05,1.5904202717960123e-05,-0.00043182058350620567,0.281524017617,1768.8244296546213
8.9,6386893.4148084,4145.25024569832,0.0,-87.0995530743072,465.739611022344,0.0,0.0,0.0563318353906632,86.797258379736,8757.759984988561,2.6164571966905638e-08,0.0,9.787257710316123,-2.7092446947782043,-0.5784619643063303,0.3814675247661046,-0.0059695320566483375,-0.0017283158334880427,0.19222170222477372,304.884572356128,0.48080070711232076,31923.64200486914,231.302878765,-0.0,0.0,-0.0,1.3272609650403795e-05,1.537089419597938e-05,-0.00042738418953966825,0.28468897586,1811.1203083915684
9.0,6386884.655923201,4191.8241749328,0.0,-88.0782799740504,465.738972237744,0.0,0.0,0.0576048966407256,87.7725884319168,8749.03149264624,2.7056511189380677e-08,0.0,9.787284504663067,-2.688157518737181,-0.5855895970389778,0.3693097199117183,-0.0054556384917082345,-0.0016418447974727503,0.1878630490460875,304.921859164968,0.48130143742846776,31964.705922115005,231.3594580366667,-0.0,0.0,-0.0,1.2279101224004687e-05,1.4781315509049596e-05,-0.0004228266588782944,0.287852788172,1853.9805018881873
9.1,6386875.79913624,4238.39803991544,0.0,-89.05700956365361,465.73832631168,0.0,0.0,0.058892184987048006,88.74792116450881,8740.205467199521,2.7968495453039557e-08,0.0,9.787311598509348,-2.6673544111936693,-0.5923411174770875,0.35723712696371485,-0.004980471097611018,-0.0015526942519071088,0.18355179165681335,304.959558087792,0.48180816992466685,32006.272287185646,231.41666968833334,-0.0,0.0,-0.0,1.1346128690524909e-05,1.4148917605419299e-05,-0.0004181536663279346,0.291015442379,1897.4080277116157
9.2,6386866.84450848,4284.9718399452,0.0,-90.0357418729872,465.737673244152,0.0,0.0,0.060193700527776006,89.7232566070776,8731.2819083436,2.8900747583893352e-08,0.0,9.787338991885461,-2.646845152623731,-0.5987282890647687,0.34526159982312793,-0.004541692735545803,-0.0014622667093667893,0.1792890765497742,304.997668978296,0.48232091841822405,32048.34259073716,231.47451372833333,-0.0,0.0,-0.0,1.0471377331127993e-05,1.3485673614781561e-05,-0.00041337089081477045,0.294176926333,1941.4059431169376
9.3,6386857.792009441,4331.5455743210405,0.0,-91.0144769316168,465.73701303820803,0.0,0.0,0.061509443362884005,90.6985947897984,8722.260815773681,2.985349041039658e-08,0.0,9.78736668479142,-2.626639090050908,-0.604763074875145,0.33339456797753186,-0.004137044954713948,-0.0013717496988456947,0.17507599231300447,305.03619168408,0.4828396968913667,32090.918342051078,231.5329901627778,-0.0,0.0,-0.0,9.65247540260326e-06,1.2802162288849235e-05,-0.0004084840092122751,0.297337227907,1985.9773452578575
9.4,6386848.641608641,4378.11924231144,0.0,-91.99321476971761,465.736345693848,0.0,0.0,0.0628394135926512,91.6739357425416,8713.142189276401,3.082694676501804e-08,0.0,9.787394677196763,-2.6067450788394932,-0.6104575861353592,0.3216469876300768,-0.0037643528183738824,-0.0012821370532506095,0.1709135698189437,305.07512605884,0.4833645194938202,32134.0010688907,231.59209900000002,-0.0,0.0,-0.0,8.887014840705899e-06,1.210765469638134e-05,-0.0004034986901451252,0.300496334998,2031.1253713638564
9.5,6386839.39336704,4424.69284321536,0.0,-92.97195541716,465.73567120802403,0.0,0.0,0.064183611318576,92.649279494568,8703.92602854696,3.182133948336811e-08,0.0,9.787422969162462,-2.587171431975261,-0.6158240326243156,0.31002929850957167,-0.0034215285273889754,-0.0011942490162731175,0.16680278242078603,305.11447194408004,0.48389540054023134,32177.592317692626,231.6518402461111,-0.0,0.0,-0.0,8.17256994949727e-06,1.141020283124147e-05,-0.00039842058781345034,0.303654235526,2076.8531989987455
9.6,6386830.047223681,4471.2663763317605,0.0,-93.9506989035096,465.734989580736,0.0,0.0,0.065542036643376,93.62462607605279,8694.61233328056,3.2836891404722354e-08,0.0,9.787451560658052,-2.5679258772525393,-0.6208746751909976,0.29855138663911984,-0.0031065739622821394,-0.0011087511271749948,0.16274454618478354,305.154229190448,0.4844323545137755,32221.693653566774,231.71221390833335,-0.0,0.0,-0.0,7.506714145005083e-06,1.0716728937656777e-05,-0.00039325533584555434,0.306810917436,2123.164046228247
9.7,6386820.60320904,4517.83984089864,0.0,-94.9294452595512,465.73430081503204,0.0,0.0,0.0669146896706832,94.5999755168664,8685.201103233361,3.3873825371672475e-08,0.0,9.78748045168355,-2.549015521913843,-0.6256217806324708,0.2872225532203897,-0.0028175822591983324,-0.0010261718608204865,0.15873972014663518,305.194397639448,0.4849753960651265,32266.30666048786,231.77321999555556,-0.0,0.0,-0.0,6.887034833942465e-06,1.0033114494515855e-05,-0.00038800854122656255,0.309966368697,2170.0611718689715
9.8,6386811.06132312,4564.41323624544,0.0,-95.9081945142408,465.73360491091205,0.0,0.0,0.0683015705053488,95.57532784657441,8675.69233810056,3.4932364230824434e-08,0.0,9.78750964226945,-2.53044682493404,-0.6300775790991223,0.276051489678897,-0.0025527385296783382,-0.0009469190168677626,0.1547891066109852,305.23497713258405,0.4855245400114253,32311.4329411518,231.83485851333333,-0.0,0.0,-0.0,6.311146517037625e-06,9.364287937400113e-06,-0.0003826857783138413,0.3131205773,2217.547875684727
9.9,6386801.42156592,4610.9865616406405,0.0,-96.88694669805841,465.73290186228,0.0,0.0,0.0697026792531384,96.5506830950472,8666.086037577361,3.601273083210029e-08,0.0,9.787539132415768,-2.5122255763032992,-0.6342542241964345,0.26504625878128735,-0.002310319827864034,-0.0008712948664988743,0.15089345149542757,305.275967514408,0.4860798013398879,32357.074117262964,231.89712947055557,-0.0,0.0,-0.0,5.776702213793131e-06,8.714310327893225e-06,-0.0003772925829527482,0.316273531264,2265.627498621133
10.0,6386791.683937441,4657.5598163832,0.0,-97.86570184056961,465.73219167523206,0.0,0.0,0.0711180160210368,97.52604129215521,8656.38220135896,3.711514802873827e-08,0.0,9.787568922122517,-2.4943568833087966,-0.6381637559194275,0.25421428167801235,-0.002088694462175439,-0.0007995100774785785,0.1470534447219834,305.317368620328,0.48664119520677457,32403.231829534187,231.96003287444447,-0.0,0.0,-0.0,5.281403310171287e-06,8.086458304339995e-06,-0.00037183444672931975,0.319425218629,2314.3034230258672
10.1,6386781.848437681,4704.1329997416005,0.0,-98.8444599719496,465.731474349768,0.0,0.0,0.0725475809175528,98.5014024677688,8646.58082920152,3.8239838678688966e-08,0.0,9.787599011389718,-2.476845163239242,-0.6418180664546771,0.24356233058341828,-0.001886320742094495,-0.0007316964488898823,0.1432697206619852,305.3591802888,0.4872087369368745,32449.90773768676,232.0235687327778,-0.0,0.0,-0.0,4.823007933847681e-06,7.483303765694106e-06,-0.0003663168113517617,0.322575627464,2363.5790728737065
10.2,6386771.9150361605,4750.706111014801,0.0,-99.823221121764,465.73074987979203,0.0,0.0,0.0739913740511952,99.47676665114881,8636.68192076976,3.9387025643219084e-08,0.0,9.787629400217385,-2.45969414205843,-0.6452288689755745,0.23309652678607082,-0.0017017452436970024,-0.0006679184955789295,0.13954285863349597,305.40140236132805,0.48778244202556725,32497.10352064197,232.08773705333337,-0.0,0.0,-0.0,4.399337963234085e-06,6.906789849603554e-06,-0.00036074506319734936,0.325724745859,2413.457913991561
10.3,6386761.88379384,4797.27914950176,0.0,-100.80198532018801,465.7300182714,0.0,0.0,0.0754493955329112,100.4521338727752,8626.68547578936,4.055693178691148e-08,0.0,9.787660088605532,-2.442906858541668,-0.6484076693802084,0.22282234361581496,-0.0015336006708004896,-0.0006081839294348642,0.13587338345126207,305.44403466722406,0.48836232613779196,32544.820876521084,232.1525378438889,-0.0,0.0,-0.0,4.008284776173676e-06,6.358302866931775e-06,-0.0003551245280111794,0.328872561932,2463.9434543122406
10.4,6386751.75464976,4843.85211444048,0.0,-101.78075259739681,465.7292795245921,0.0,0.0,0.076921645473648,101.42750416221361,8616.59149389456,4.174977997766513e-08,0.0,9.78769107658466,-2.4264856734911153,-0.6513657410015449,0.2127446139137841,-0.0013806033823876764,-0.0005524530901123814,0.13226176603216838,305.48707704189604,0.4889484051101089,32593.061522693224,232.21797111222224,-0.0,0.0,-0.0,3.6478138433302204e-06,5.838739946931737e-06,-0.0003494604657866013,0.332019063826,2515.0392440755522
10.5,6386741.527634401,4890.4250051604,0.0,-102.75952298265122,465.72853363327204,0.0,0.0,0.07840812398587681,102.4028775493344,8606.39997484152,4.2965793089662176e-08,0.0,9.787722364154778,-2.410432283314445,-0.654114102248014,0.2028675415969517,-0.0012415506500467043,-0.0005006473819917288,0.128708424052878,305.530529317704,0.48954069495069963,32641.82719601479,232.28403686666667,-0.0,0.0,-0.0,3.315968268865972e-06,5.348572231052796e-06,-0.00034375806583410737,0.335164239709,2566.7488760964293
10.6,6386731.20274776,4936.99782093,0.0,-103.7382965061264,465.727780603536,0.0,0.0,0.07990883118328801,103.37825406370321,8596.11091829496,4.4205193998481045e-08,0.0,9.787753951285428,-2.394747737495589,-0.6566634970767666,0.19319471680933434,-0.001115317703231685,-0.0004526567770000965,0.12521372265913433,305.574391327008,0.49013921183885134,32691.1196526858,232.35073511555555,-0.0,0.0,-0.0,3.010871377952435e-06,4.88790352723856e-06,-0.0003380224420251235,0.338308077776,2619.075985980393
10.7,6386720.7799898395,4983.57056104824,0.0,-104.7170731979976,465.727020429288,0.0,0.0,0.08142376718018161,104.35363373549521,8585.724323919601,4.5468205584063485e-08,0.0,9.787785838037586,-2.3794324594165177,-0.6590243782612022,0.18372913422525994,-0.001000854614146693,-0.0004083464447613961,0.12177797522654983,305.618662896072,0.49074397212650317,32740.940668537176,232.4180658661111,-0.0,0.0,-0.0,2.730728447038112e-06,4.456524403022692e-06,-0.00033225862825001895,0.341450566248,2672.02425239168
10.8,6386710.25933016,5030.1432247836,0.0,-105.6958530878304,465.726253116624,0.0,0.0,0.08295293209268641,105.3290165939712,8575.24019144112,4.6755050732110826e-08,0.0,9.78781802438079,-2.36448627000645,-0.6612068933026712,0.17447321400605928,-0.0008971830683508331,-0.0003675625722151389,0.11840144416956636,305.66334385116,0.49135499233927693,32791.292038935,232.48602912722222,-0.0,0.0,-0.0,2.473827668214699e-06,4.0539617521722575e-06,-0.00032647157405915183,0.344591693371,2725.5973972782817
10.9,6386699.6407992,5076.71581143504,0.0,-106.67463620580001,465.725478662496,0.0,0.0,0.0844963260369312,106.30440266930641,8564.65852049376,4.806595232972065e-08,0.0,9.787850510315053,-2.349908413799619,-0.6632208728816322,0.16542882498030778,-0.0008033930619355611,-0.00033013743490619644,0.11508434179701543,305.708434021584,0.49197228917544633,32842.175578972,232.55462490722223,-0.0,0.0,-0.0,2.2385404345218504e-06,3.6795239192240526e-06,-0.00032066614052084485,0.347731447419,2779.799186135286
11.0,6386688.92439696,5123.28832027104,0.0,-107.653422581472,465.724697066904,0.0,0.0,0.0860539491314832,107.27979199137121,8553.97931077272,4.940113326975015e-08,0.0,9.787883295870877,-2.3356975867209147,-0.6650758217225976,0.15659730960377882,-0.0007186395610866683,-0.0002958937812099933,0.11182683121358084,305.75393323056,0.49259587950696765,32893.59312356333,232.62385321444444,-0.0,0.0,-0.0,2.023321027973471e-06,3.3323415074084238e-06,-0.0003148470962895138,0.350869816693,2834.6334282490657
11.1,6386678.110123441,5169.86075059056,0.0,-108.6322122450216,465.723908329848,0.0,0.0,0.08762580149490962,108.255184590036,8543.202561973201,5.076081644854715e-08,0.0,9.787916381048277,-2.3218519652852403,-0.6667809117035742,0.14797951028756112,-0.0006421391552339265,-0.00026464858947311786,0.10862902726245098,305.799841298256,0.49322578038051085,32945.54652739873,232.69371405722225,-0.0,0.0,-0.0,1.8267057869499174e-06,3.0114040295403517e-06,-0.0003090191138690329,0.354006789519,2890.1039769510417
11.2,6386667.197948161,5216.433101692561,0.0,-109.61100522631921,465.723112451328,0.0,0.0,0.0892118832473016,109.23058049456161,8532.32827375992,5.214522476682282e-08,0.0,9.787949765847271,-2.3083692369487907,-0.668344977073861,0.13957579671822118,-0.0005731667307100979,-0.0002362162559776282,0.10549099750759011,305.846158050936,0.4938620090184897,32998.03766522971,232.76420744444445,-0.0,0.0,-0.0,1.6473118240687499e-06,2.7155925887637426e-06,-0.00030318676611336886,0.357142354253,2946.214729881029
11.3,6386656.187932081,5263.00537284552,0.0,-110.5898015552352,465.72230943134406,0.0,0.0,0.09081219450996961,110.20597973512321,8521.35644576712,5.355458112912805e-08,0.0,9.787983450267879,-2.2952466308792054,-0.6697765116248705,0.13138609381972305,-0.0005110521878756227,-0.00021041126942251186,0.10241276325562869,305.89288330572,0.49450458281803167,33051.068431726024,232.83533338444445,-0.0,0.0,-0.0,1.4838353607522007e-06,2.4437087974703587e-06,-0.0002973545229156734,0.360276499276,3002.9696292457857
11.4,6386645.08001424,5309.577563348401,0.0,-111.56860126164001,465.721499269896,0.0,0.0,0.09242673540483361,111.18138234189601,8510.28707769,5.498910844490064e-08,0.0,9.788017434340595,-2.2824809491969624,-0.6710836676516578,0.12340991004207408,-0.00045517722112577635,-0.00018705042484242572,0.0993943006112639,305.94001688277604,0.4951535193525238,33104.640741714975,232.90709188611112,-0.0,0.0,-0.0,1.335049739103188e-06,2.1945001577101545e-06,-0.0002915267481346438,0.363409212997,3060.372662067994
11.5,6386633.874194641,5356.14967246968,0.0,-112.54740437540401,465.720681966984,0.0,0.0,0.0940555060553376,112.15678834383601,8499.12016919328,5.6449029626894515e-08,0.0,9.788051718004478,-2.2700685980247854,-0.6722742565288792,0.11564636569273096,-0.00040497217783732264,-0.00016595462705728487,0.09643554156547254,305.98755859617603,0.4958088363726431,33158.756530277235,232.97948295777778,-0.0,0.0,-0.0,1.199803166868228e-06,1.9666821376495375e-06,-0.0002857076967269684,0.366540483854,3118.427860483115
11.6,6386622.5705342395,5402.72169950832,0.0,-113.52621092670242,465.71985751956004,0.0,0.0,0.0956985065861448,113.13219777172802,8487.8557199112,5.793456759275055e-08,0.0,9.788086301350987,-2.2580056184497854,-0.6733557507894791,0.10809422106694397,-0.00035991300950345744,-0.00014695033060764187,0.09353637511444149,306.035508266088,0.49647055180481114,33213.41775269893,233.05250660944446,-0.0,0.0,-0.0,1.0770162459263895e-06,1.7589571838675002e-06,-0.00027990151209670184,0.369670300313,3177.13930198358
11.7,6386611.16897208,5449.293643732801,0.0,-114.5050209454056,465.71902593372005,0.0,0.0,0.0973557371222232,114.10761065452802,8476.49372950848,5.944594526394931e-08,0.0,9.788121184349663,-2.2462877168747366,-0.6743352875071388,0.10075190415782599,-0.00031951832548713223,-0.00012987066000264453,0.09069664840677273,306.08386570353605,0.4971386837548012,33268.626384758965,233.1261628488889,-0.0,0.0,-0.0,9.656793303600647e-07,1.5700309119098847e-06,-0.0002741122236602167,0.372798650866,3236.511109686918
11.8,6386599.66950816,5495.86550444208,0.0,-115.48383446107921,465.718187203368,0.0,0.0,0.0990271977903696,115.08302702241122,8465.034197680321,6.09833855663347e-08,0.0,9.788156366970037,-2.2349102947061255,-0.6752196728620572,0.09361753776637712,-0.0002833465576359454,-0.00011455625083888313,0.08791616791459923,306.132630722592,0.4978132505056768,33324.384422537434,233.20045168555558,-0.0,0.0,-0.0,8.648497552471431e-07,1.398625715827249e-06,-0.0002683437446267291,0.375925524034,3296.5474526421913
