time,feVelocity_m_s_X,feVelocity_m_s_Y,feVelocity_m_s_Z,altitudeMsl_m,longitude_rad,latitude_rad,localGravity_m_s2,eulerAngle_rad_Yaw,eulerAngle_rad_Pitch,eulerAngle_rad_Roll,bodyAngularRateWrtEi_rad_s_Roll,bodyAngularRateWrtEi_rad_s_Pitch,bodyAngularRateWrtEi_rad_s_Yaw,altitudeRateWrtMsl_m_s,speedOfSound_m_s,airDensity_kg_m3,ambientPressure_Pa,ambientTemperature_K,aero_bodyForce_N_X,aero_bodyForce_N_Y,aero_bodyForce_N_Z,aero_bodyMoment_Nm_L,aero_bodyMoment_Nm_M,aero_bodyMoment_Nm_N,mach,trueAirspeed_m_s
0.0,0.0,0.0,0.0,9144.0,0.0,0.0,9.786072474552002,0.0,0.0,0.0,0.1745329249997492,0.34906584999949847,0.5235987759992478,0.0,303.23005392984,0.459177273275918,30157.60192315531,228.79958955555557,0.0,0.0,0.0,0.0,0.0,0.0,1.01e-08,3.04550848e-06
0.1,0.0,6.4008e-06,0.9752108189928,9143.951238096,3.17649923862968e-14,0.0,9.786072593424,0.05243459037526549,0.03491076335811586,0.01770935432981273,0.16489661299976305,0.35642802499948784,0.5199420829992529,-0.9752108191960001,303.23026372368,0.45917985017000806,30157.81869145179,228.7999061666667,0.0,0.0,0.0,-3.5658012041115813e-06,-3.0505903837456498e-05,-1.1171939894250737e-05,0.003216074,0.975209974694144
0.2,0.0,2.703576e-05,1.9504216681608,9143.804958480001,2.7576202181510406e-13,0.0,9.786073014048,0.10519736129296878,0.06957466636944527,0.03627353877828746,0.1549956449997773,0.36288929399947856,0.5162995859992582,-1.9504216678560002,303.23089316616006,0.459188096231096,30158.471399930233,228.800856,0.0,0.0,0.0,-7.077369690289907e-06,-6.57571704940729e-05,-2.3455650506133218e-05,0.006432134,1.9504199787115961
0.3,0.0,6.186860880000001e-05,2.92563257646,9143.561155056,9.529497715889038e-13,0.0,9.786073730328,0.15839153594075583,0.1038524137304279,0.055689796807310184,0.14487660499979185,0.36843675699947065,0.5126946559992633,-2.9256325764600004,303.23193966648,0.45920149608036404,30159.557151834968,228.8024352777778,0.0,0.0,0.0,-1.0100843715068928e-05,-0.00010182192791968812,-3.5522430246282676e-05,0.009648168,2.92563004343344
0.4,0.0,0.0001109371416,3.900843573456,9143.219830872,2.286381320112572e-12,0.0,9.78607474836,0.21211266961164343,0.1376070475173443,0.07595069298265483,0.1345844609998066,0.373058661999464,0.5091483039992685,-3.9008435744720003,303.23340581544,0.459220049717812,30161.076473848843,228.80464783333335,0.0,0.0,0.0,-1.2622665098965333e-05,-0.00013869882029635388,-4.7453628191598994e-05,0.012864162,3.9008401971540962
0.5,0.0,0.00017422794720000002,4.876054690848,9142.780985928,4.50294947014537e-12,0.0,9.786076065096001,0.2664502696313646,0.17069980230859502,0.09705193698831405,0.1241638409998216,0.3767486219994587,0.5056790319992734,-4.876054691356001,303.2352915216,0.45924427252225797,30163.03177434889,228.80749361111114,0.0,0.0,0.0,-1.4642833841979118e-05,-0.0001760421140472456,-5.911366254724904e-05,0.016080103,4.876050471254648
0.6,0.0,0.00025174194,5.851265957592001,9142.244620224,7.819075048934597e-12,0.0,9.786077683584,0.321486277812037,0.20299053505929546,0.11899072671562702,0.11365877799983669,0.37950545799945473,0.5023026649992783,-5.85126595556,303.23759434656,0.459273649114884,30165.422579320537,228.8109687777778,0.0,0.0,0.0,-1.6134233585143657e-05,-0.00021358606885449043,-7.077369690289907e-05,0.019295978,5.851260894543961
0.7,0.0,0.0003434782056,6.82647740112,9141.61073376,1.2461650859239513e-11,0.0,9.786079597728001,0.37729334261111025,0.23433829688859212,0.1417637992715572,0.10311247399985185,0.3813329979994521,0.49903223799928303,-6.82647740112,303.24031672872,0.45930817949568997,30168.244632208764,228.81507722222224,0.0,0.0,0.0,-1.721888794380878e-05,-0.00025107172348995697,-8.216256766888284e-05,0.022511774,6.82647149891756
0.8,0.0,0.0004494373536,7.801689054960001,9140.879323488,1.8675022996339328e-11,0.0,9.786081813624001,0.43393288111776457,0.2646020689279284,0.16536521032647158,0.092567104999867,0.38223986299945084,0.4958779369992875,-7.801689054960001,303.24345869856,0.459348379043494,30171.502764131706,228.8198188888889,0.0,0.0,0.0,-1.7625633328308198e-05,-0.000288236049271669,-9.355143843486659e-05,0.025727477,7.80168230906876
0.9,0.0,0.000569619384,8.776900946544,9140.050395504,2.652900463031381e-11,0.0,9.786084328224002,0.4914529528928157,0.29364167959628656,0.18978388046046546,0.08206363699988209,0.38223923799945075,0.49284707699929187,-8.776900947560001,303.2470202256,0.459393732379478,30175.197018181596,228.82519377777777,0.0,0.0,0.0,-1.7625633328308198e-05,-0.00032482957569713347,-0.00010480472740601721,0.028943074,8.77689336100864
1.0,0.0,0.0007040239920000001,9.752113103304001,9139.123943712,3.647738136668149e-11,0.0,9.786087141528,0.5498859943568133,0.32131892342605095,0.21500097170660343,0.07164166599989708,0.3813486269994521,0.48994414199929615,-9.752113104320001,303.25099874952,0.45944475488246,30179.322141894016,228.83119811111112,0.0,0.0,0.0,-1.721888794380878e-05,-0.00036060825553565075,-0.00011578685278750155,0.032158552,9.752104685603841
1.1,0.0,0.0008526514824,10.727325561816,9138.099974208,4.86946861306418e-11,0.0,9.786090253535999,0.6092464955822731,0.3474988887349706,0.24098718504819938,0.061339280999911865,0.37958960199945463,0.48717085999930004,-10.7273255608,303.25539683064005,0.459500931173622,30183.885891870927,228.83783566666668,0.0,0.0,0.0,-1.62698153799768e-05,-0.0003953388881001079,-0.00012690455996381902,0.035373898,10.72731630343212
1.2,0.0,0.0010155015504000001,11.702538346464001,9136.978480896001,6.335545184739416e-11,0.0,9.786093667296,0.6695287376488352,0.3720514956102954,0.2677001054937713,0.05119293499992645,0.37698753999945833,0.4845263149993039,-11.70253834748,303.26021443848003,0.459562261252964,30188.881133953742,228.8451065,0.0,0.0,0.0,-1.477841563681226e-05,-0.0004288031867008235,-0.0001377416128248319,0.038589099,11.702528255649
1.3,0.0,0.0011925745008,12.677751487728,9135.759463776001,8.063421144213803e-11,0.0,9.786097376712,0.7307047403105963,0.3948532307660532,0.295081753380101,0.04123733299994075,0.3735713619994633,0.4820071009993074,-12.67775148468,303.26544898224,0.459628745120486,30194.312230034047,228.85300672222223,0.0,0.0,0.0,-1.3002294124498125e-05,-0.0004607937111917029,-0.00014855832841661982,0.041804141,12.67774056283224
1.4,0.0,0.0013838703336,13.652965016088002,9134.442928944,1.0070549784007282e-10,0.0,9.78610138788,0.7927226075985117,0.41578904733394045,0.323056527850776,0.03150533499995474,0.3693732669994693,0.4796075089993109,-13.652965018120002,303.27110302224,0.45970089815500603,30200.179749886935,228.86154022222223,0.0,0.0,0.0,-1.0778752689234629e-05,-0.000491117935424083,-0.00015929911820330116,0.045019011,13.65295326099292
1.5,0.0,0.0015893887440000002,14.628178962024,9133.028873352001,1.239183768915974e-10,0.0,9.786105697752,0.8555054703254016,0.43475437844967973,0.3515297512515939,0.022027858999968352,0.3644284569994764,0.4773197259993141,-14.628178963040002,303.27717649752,0.459778720356524,30206.47898209491,228.87070694444444,0.0,0.0,0.0,-8.175582228438341e-06,-0.0005196023147005774,-0.00016996940545666928,0.048233696,14.62816637585324
1.6,0.0,0.0018091303416,15.603393352968002,9131.517293952,1.5062191444711064e-10,0.0,9.786110306328,0.918951232489611,0.45165718766582585,0.38038701533022434,0.01283379899998156,0.35877486699948447,0.47513407599931734,-15.603393355000001,303.28366687824,0.45986169634622204,30213.21670171463,228.88050305555558,0.0,0.0,0.0,-5.2198991010758906e-06,-0.0005460882183212312,-0.00018057596926646585,0.051448183,15.603379943424281
1.7,0.0,0.0020430945168,16.578608222448,9129.908193792,1.8151424220741027e-10,0.0,9.786115216656,0.9829332969829122,0.46641996473576464,0.4094945133723656,0.0039499439999943235,0.3524528879994937,0.47303926099932037,-16.57860822448,303.29057666376,0.4599498261241,30220.38630605837,228.89093244444447,0.0,0.0,0.0,-1.952377845597216e-06,-0.0005704359970373665,-0.0001911201654506391,0.054662458,16.578593989428242
1.8,0.0,0.0022912815744000003,17.553823597896002,9128.201572872,2.1467549799530252e-10,0.0,9.786120425688,1.0473024013278125,0.4789815527989075,0.43870048289090435,-0.004599089999993391,0.3455050819995036,0.47102262199932327,-17.55382359688,303.29790579312,0.460043109690158,30227.992683700584,228.90199511111112,0.0,0.0,0.0,1.613423358514366e-06,-0.0005925263388695301,-0.00020160334982713751,0.057876508,17.55380854473176
1.9,0.0,0.0025536915144000003,18.529039506744,9126.397428144,2.530727415391778e-10,0.0,9.786125930375999,1.111889604634036,0.48929868776109137,0.4678378026758427,-0.012790930999981623,0.3379759039995144,0.46907040699932606,-18.52903950776,303.3056542968,0.46014206242321404,30236.035944765856,228.91369094444445,0.0,0.0,0.0,5.423271793325599e-06,-0.0006122548458357002,-0.00021202687821390932,0.061090321,18.52902363505704
2.0,0.0,0.0028303243368,19.504255985568,9124.495762656,2.949606435870417e-10,0.0,9.786131739864002,1.1765103704472424,0.4973471381691132,0.4967276873072588,-0.020605507999970393,0.329911411999526,0.46716803499932874,-19.50425598252,303.31381955352003,0.46024616894445003,30244.51328825904,228.92601622222222,0.0,0.0,0.0,9.436492920386544e-06,-0.0006295428804948739,-0.0002223893947930062,0.064303882,19.504239296415157
2.1,0.0,0.0031211800416,20.479473055704002,9122.496576408,3.420845333908886e-10,0.0,9.786137845008,1.2409695744477172,0.5031223420813743,0.525184308612633,-0.028025101999959733,0.32135897199953833,0.4653003659993315,-20.479473056720003,303.32240406264003,0.46035594463268403,30253.425331835486,228.9389747777778,0.0,0.0,0.0,1.3693761278147139e-05,-0.0006443267194034795,-0.00023268412047468653,0.06751718,20.479455554528318
2.2,0.0,0.0034262586288,21.454690753728002,9120.3998694,3.9269908169872415e-10,0.0,9.786144248856,1.3050671635059383,0.5066394767065169,0.5530200695282488,-0.03503439399994966,0.3123669689995512,0.4634519589993342,-21.45469075576,303.33140785464,0.46047087410909804,30262.772199983847,228.95256655555556,0.0,0.0,0.0,1.8032378712807617e-05,-0.000656565688023067,-0.00024290969944100194,0.0707302,21.4546724454076
2.3,0.0,0.0037455604032,22.429909107072003,9118.205638584,4.4854961776254265e-10,0.0,9.786150954456,1.3686041121422474,0.5079329281723981,0.580051175888297,-0.0416204969999402,0.30298450199956467,0.46160732199933674,-22.429909105040004,303.3408308076,0.46059095737369204,30272.556411205765,228.96679155555557,0.0,0.0,0.0,2.250657794230124e-05,-0.0006662394490844116,-0.00025305664096631413,0.073942929,22.42988998963076
2.4,0.0,0.00407908506,23.405128143168,9115.913887008,5.096361415823443e-10,0.0,9.78615795876,1.4313882866586032,0.5070551816712179,0.6061031181549902,-0.04777297899993136,0.2932610879995786,0.4597511449993394,-23.4051281452,303.35067039168,0.46071670980528406,30282.777596823234,228.98164594444447,0.0,0.0,0.0,2.6980777171794858e-05,-0.0006733439351336682,-0.00026311816596088144,0.077155354,23.40510822835332
2.5,0.0,0.004426832599200001,24.380347895544002,9113.524614672,5.759586531581287e-10,0.0,9.786165261768001,1.4932398334935815,0.5040751883549385,0.6310156785936536,-0.05348387599992315,0.28324636099959305,0.45786851799934214,-24.380347896560004,303.36092910624,0.46084761602505603,30293.433994842733,228.9971336111111,0.0,0.0,0.0,3.1590558196121616e-05,-0.000677896771804165,-0.0002730847836990656,0.080367463,24.380327182153042
2.6,0.0,0.0047888033255999995,25.355568391632,9111.037818528,6.492624817418907e-10,0.0,9.78617286348,1.5539957662967152,0.4990763137007486,0.6546471420540791,-0.058747684999915596,0.2729897689996077,0.4559451289993449,-25.355568389600002,303.37160439096004,0.460983676033008,30304.52524137428,229.0132507222222,0.0,0.0,0.0,3.6064757425615235e-05,-0.0006799345661805071,-0.00028294564763727985,0.083579242,25.35554688189656
2.7,0.0,0.005164996934400001,26.330789661912,9108.453498576,7.260569688296411e-10,0.0,9.786180766944,1.6135135155791274,0.4921539865525607,0.6768774736914936,-0.06356134899990867,0.26254028299962273,0.45396743999934774,-26.330789659880004,303.38270121408,0.461125405207958,30316.05489870916,229.0300048888889,0.0,0.0,0.0,4.0674538449942e-05,-0.0006795101951626792,-0.00029268855541398926,0.086790677,26.33076736359496
2.8,0.0,0.0055554137303999995,27.306011736864,9105.771660912,8.098327729253689e-10,0.0,9.786188969112,1.6716733184183423,0.4834131905592773,0.6976103442466235,-0.0679242189999024,0.251946100999638,0.4519228359993507,-27.30601173788,303.39421448544005,0.461272288171088,30328.019710989745,229.04738844444446,0.0,0.0,0.0,4.514873767943562e-05,-0.0006766928054660466,-0.0003023040163035556,0.090001757,27.305988652970438
2.9,0.0,0.005960053713600001,28.281234643920005,9102.992296392,9.00589894029074e-10,0.0,9.786197466935999,1.728379431985715,0.47296592908405244,0.7167739894458183,-0.07183800499989679,0.24125436899965336,0.4497997489993537,-28.281234643920005,303.40614420504,0.461424840301216,30340.41984100893,229.06540144444446,0.0,0.0,0.0,4.94873551140961e-05,-0.0006715691694393023,-0.00031177711630854706,0.093212467,28.2812107757452
3.0,0.0,0.006378916884,29.256458416608,9100.11541416,9.965830028887622e-10,0.0,9.786206269560001,1.7835602599082694,0.4609287861066622,0.7343209941038218,-0.0753067049998918,0.2305109109996688,0.44758776399935696,-29.256458413560004,303.41849531064,0.46158254621952405,30353.258855846005,229.08405150000002,0.0,0.0,0.0,5.382597254875658e-05,-0.0006642382617926744,-0.0003210956530674288,0.096422794,29.25643377307476
3.1,0.0,0.006812003241600001,30.23168308236,9097.141005072,1.0995574287564276e-09,0.0,9.78621536784,1.8371675452284506,0.44742067544690095,0.7502271560889626,-0.07833651699988745,0.21975996999968428,0.4452776889993602,-30.231683082360004,303.43126274256,0.46174540592601204,30366.533523583486,229.103331,0.0,0.0,0.0,5.7893426393750775e-05,-0.0006548126154158746,-0.0003302474242186657,0.099632726,30.231657665536883
3.2,0.0,0.0072593127864,31.2069086808,9094.069075224,1.2112585008840647e-09,0.0,9.786224764824002,1.8891748243914757,0.432560851787366,0.7644896354014818,-0.08093573699988371,0.20904396699969965,0.4428616029993637,-31.20690867064,303.4444489392,0.461913934799498,30380.246922922026,229.12324372222224,0.0,0.0,0.0,6.182529844391183e-05,-0.0006434183213780975,-0.0003392175157648263,0.102842249,31.2068824839982
3.3,0.0,0.0077208455184000005,32.18213520888,9090.899624616,1.3281955607676847e-09,0.0,9.78623446356,1.9395753656624193,0.4164672175295502,0.7771246005970371,-0.08311463999988059,0.19840328299971496,0.4403328839993673,-32.18213520888,303.45805390056,0.462087617461164,30394.396841793656,229.14378966666666,0.0,0.0,0.0,6.548600690440661e-05,-0.0006301896056562279,-0.0003479937253443754,0.10605135,32.1821082644698
3.4,0.0,0.0081966017424,33.157362742800004,9087.6326502,1.4521139376592822e-09,0.0,9.786244461,1.9883797876244511,0.3992549469507927,0.7881645792023647,-0.08488534099987805,0.18787606199973012,0.4376862069993712,-33.15736273264,303.47207497488,0.46226645391101,30408.98296418868,229.16496505555557,0.0,0.0,0.0,6.901113357006825e-05,-0.000615268829134841,-0.0003565652064137265,0.109260016,33.15733502752944
3.5,0.0,0.008686581153600001,34.13259128256,9084.268151976,1.5847589608108514e-09,0.0,9.786254757144,2.0356135301967475,0.381035415095717,0.7976556941609427,-0.08626165099987607,0.177498030999745,0.43491752899937514,-34.13259126732,303.486514692,0.46245095952785403,30424.00838317181,229.18677366666668,0.0,0.0,0.0,7.226509664606362e-05,-0.0005988064876062011,-0.0003649184007933963,0.112468234,34.132562809188194
3.6,0.0,0.009190783752000001,35.10782085864,9080.806129944001,1.7243853009703977e-09,0.0,9.786265355040001,2.081314339615042,0.36191541499606106,0.8056549313455132,-0.08725891299987462,0.1673023559997596,0.4320240459993792,-35.10782084848,303.50137296048,0.462640618932878,30439.473309416207,229.20921555555557,0.0,0.0,0.0,7.524789613239269e-05,-0.0005809571443164182,-0.000373042461939798,0.115675991,35.107791640312726
3.7,0.0,0.009709209842399999,36.08305150152,9077.246587152002,1.867502299633933e-09,0.0,9.786276248592001,2.1255298633679143,0.3419966279632497,0.8122275473950777,-0.08789383499987372,0.15731952199977395,0.42900414099938367,-36.08305149644,303.51664718952,0.4628359475049,30455.372634098218,229.23228683333335,0.0,0.0,0.0,7.79595320290555e-05,-0.0005618780741474987,-0.00038092654330934507,0.118883274,36.08302155176964
3.8,0.0,0.010241859424800001,37.05828324168,9073.589520552001,2.0245819323134225e-09,0.0,9.786287443896,2.1683154231566637,0.32137531239618905,0.8174446951944502,-0.0881843119998733,0.14757723399978798,0.4258573159993881,-37.05828324676,303.53233987848,0.463036429865102,30471.711882599735,229.25599138888887,0.0,0.0,0.0,8.040000433605201e-05,-0.0005417319752532425,-0.00038856115417639924,0.12209007,37.058252569281166
3.9,0.0,0.0107887324992,38.03351614008,9069.834930144001,2.1991148575128553e-09,0.0,9.786298937904,2.2097320322012823,0.3001421695654467,0.8213813085352024,-0.08814924199987335,0.13810036099980158,0.4225841079993929,-38.03351612992,303.54845090544,0.463242066013484,30488.49127038193,229.28032911111114,0.0,0.0,0.0,8.256931305338226e-05,-0.0005206788341515525,-0.0003959381596332704,0.125296366,38.03348471856948
4.0,0.0,0.011349829370400001,39.00875016624,9065.982815928,2.373647782712288e-09,0.0,9.786310730616,2.2498446499112,0.27838235391069444,0.8241142682982203,-0.08780834699987383,0.1289108909998148,0.4191860059993977,-39.0087501764,303.56498023992003,0.463453371328864,30505.70861889302,229.30530016666665,0.0,0.0,0.0,8.446745818104621e-05,-0.0004988786373603318,-0.00040304806895432026,0.128502147,39.00871804079012
4.1,0.0,0.011925149428800002,39.983985411599996,9062.033180952,2.548180707911721e-09,0.0,9.78632282508,2.2887206913741043,0.2561755884069721,0.8257208491106689,-0.08718198299987473,0.12002793099982755,0.4156653489994028,-39.9839854116,303.58192529112,0.463669830432424,30523.36366000354,229.33090055555556,0.0,0.0,0.0,8.595885792421075e-05,-0.00047648730394363886,-0.0004098854588677555,0.131707404,39.983952561665284
4.2,0.0,0.012514693284000001,40.95922187616,9057.98601912,2.7401669256310974e-09,0.0,9.786335215200001,2.326428775954866,0.2335963584707669,0.8262774384488543,-0.08629095999987602,0.11146772399983985,0.412025234999408,-40.959221871080004,303.59928849744,0.46389144332416404,30541.45952508244,229.35713422222221,0.0,0.0,0.0,8.717909407770902e-05,-0.000453659397147583,-0.00041644355028383446,0.13491212,40.95918830691716
4.3,0.0,0.0131184606312,41.9344595904,9053.841336528001,2.9321531433504735e-09,0.0,9.786347907072,2.363037701041941,0.21071415840050434,0.8258585046250371,-0.08515636699987765,0.10324368899985167,0.40826941499941344,-41.934459575160005,303.61706979792,0.464118725382902,30559.99406430609,229.38400116666668,0.0,0.0,0.0,8.826374843637413e-05,-0.000430544056946481,-0.0004227182757487122,0.138116285,41.934425307412404
4.4,0.0,0.0137364517752,42.90969855432001,9049.59912708,3.159045946109736e-09,0.0,9.786360897648,2.398615606034656,0.18759376870936606,0.8245357918415817,-0.0837993969998796,0.09536649699986298,0.40440219799941896,-42.90969856448,303.63526660176,0.46435116122982,30578.967009545042,229.41149750000002,0.0,0.0,0.0,8.894165741053983e-05,-0.0004072809325890109,-0.0004287042119905953,0.141319884,42.90966359916208
4.5,0.0,0.014368666716000001,43.884938859360005,9045.259396872001,3.368485456349056e-09,0.0,9.786374189976002,2.433229314354083,0.16429554899153842,0.8223777133399744,-0.08224118699988184,0.08784415499987377,0.4004283529994247,-43.884938859360005,303.65388134736,0.4645887508649181,30598.381530472434,229.43962705555558,0.0,0.0,0.0,8.934840279503925e-05,-0.00038400560587000573,-0.00043439864737358715,0.144522906,43.88490320274396
4.6,0.0,0.0150151054536,44.860180505520006,9040.822139808,3.595378259108319e-09,0.0,9.786387777960002,2.466943825552223,0.14087573288285604,0.8194489197809013,-0.08050266399988433,0.08068212199988407,0.39635301899943043,-44.86018050044,303.67291394328004,0.46483200966701405,30618.237885641665,229.46838988888888,0.0,0.0,0.0,8.94839845898724e-05,-0.0003608468794945571,-0.0004397988702617912,0.147725335,44.86014415931356
4.7,0.0,0.015675767988,45.8354234928,9036.287358936,3.839724354387525e-09,0.0,9.786401667696,2.4998219173769427,0.1173867165113673,0.8158100131847811,-0.07860440499988706,0.07388342899989385,0.3921816149994365,-45.83542350804,303.69236432856,0.465080937636108,30638.531526428134,229.49778594444447,0.0,0.0,0.0,8.934840279503925e-05,-0.00033792135380622144,-0.0004449035248372589,0.15092716,45.83538648944864
4.8,0.0,0.0163506543192,46.81066791264001,9031.655054256,4.084070449666731e-09,0.0,9.786415856136001,2.5319238717552754,0.09387733338669153,0.811517385488812,-0.07656650699989,0.0674488269999031,0.3879197629994426,-46.81066791264001,303.7122299124,0.465334504014564,30659.267030184605,229.52781144444447,0.0,0.0,0.0,8.894165741053983e-05,-0.000315340205876762,-0.0004497126110999904,0.154128369,46.810630224015846
4.9,0.0,0.017039764752000003,47.785913734560005,9026.925225768,4.345869837465881e-09,0.0,9.786430343280001,2.563307267099246,0.07039311164409753,0.8066231614747034,-0.07440847299989309,0.061376935999911814,0.3835732109994489,-47.7859137498,303.73251310272,0.465593739560018,30680.44518214732,229.55847016666667,0.0,0.0,0.0,8.826374843637413e-05,-0.00029320241041640686,-0.0004542261290499856,0.157328948,47.78587539902624
5.0,0.0,0.0177430989816,48.761161050000005,9022.097873472001,4.625122517784973e-09,0.0,9.786445129128001,2.5940268508968294,0.04697651133946852,0.8011752239014178,-0.07214910699989634,0.05566440699992002,0.3791477749994552,-48.76116104492,303.75321386904,0.465858128893652,30702.06385164475,229.58976211111113,0.0,0.0,0.0,8.745025766737528e-05,-0.00027159745140974606,-0.00045844272286929625,0.160528883,48.76112204020204
5.1,0.0,0.0184606576176,49.73640982848,9017.17299432,4.904375198104066e-09,0.0,9.786460216727999,2.6241344611721398,0.023667140381437326,0.7952173079274837,-0.06980642399989971,0.050306095999927726,0.37464927199946163,-49.73640982848001,303.77432952912,0.466128187394284,30724.122823215737,229.62168350000002,0.0,0.0,0.0,8.636560330871018e-05,-0.0002506080337516276,-0.0004623637483758707,0.163728164,49.73637017840988
5.2,0.0,0.0191924400504,50.711660130960006,9012.150591360001,5.201081170943102e-09,0.0,9.786475603031999,2.6536789845975255,0.0005019492403176631,0.7887891494639812,-0.06739758399990317,0.04529523199993492,0.3700834799994683,-50.711660130960006,303.79586258232,0.466403399683096,30746.62530962566,229.6542381111111,0.0,0.0,0.0,8.500978536037878e-05,-0.00023030194833946826,-0.00046599191720560543,0.166926776,50.71161983937196
5.3,0.0,0.0199384468896,51.686911987920006,9007.030661544,5.515240436302082e-09,0.0,9.78649128804,2.6827063599842282,-0.022484595060022688,0.781926674542766,-0.0649388189999067,0.04062359499994163,0.3654560869994749,-51.686911967600004,303.81781290672,0.46668428113890603,30769.569194567062,229.68742600000002,0.0,0.0,0.0,8.365396741204737e-05,-0.0002107402069809428,-0.0004693285851764491,0.170124705,51.6868710385216
5.4,0.0,0.0206986778304,52.662165399360006,9001.81320792,5.829399701661061e-09,0.0,9.786507271752,2.7112595939903468,-0.04526035444561653,0.7746622207987522,-0.062445393999910274,0.03628168899994786,0.36077266499948163,-52.6621653892,303.84018044136,0.466970316382896,30792.957202426685,229.72124711111113,0.0,0.0,0.0,8.202698587404969e-05,-0.0001919743307580879,-0.00047237646392429806,0.17332194,52.6621238787476
5.5,0.0,0.0214731328728,53.63742045672,8996.498230488,6.1610122595399835e-09,0.0,9.786523554168001,2.739378804754067,-0.06779538301094375,0.767024781292408,-0.0599315489999139,0.03225890599995365,0.3560386069994884,-53.6374204364,303.86296253448,0.467270266854972,30817.38143485115,229.75569761111115,0.0,0.0,0.0,8.026442254121888e-05,-0.00017404770584525015,-0.0004751450441747908,0.176518468,53.63737831375
5.6,0.0,0.0222618123216,54.61267712952,8991.085723152,6.492624817418906e-09,0.0,9.786540138336001,2.7671012655268945,-0.0900618038684993,0.7590402692762037,-0.05741045199991751,0.02854367799995899,0.35125905999949536,-54.61267710920001,303.88616162448005,0.467581040282226,30842.570879998588,229.7907813888889,0.0,0.0,0.0,7.836627741355491e-05,-0.0001569901602372928,-0.00047763568174587554,0.179714276,54.612634343528796
5.7,0.0,0.023064716481600002,55.58793547872,8985.575695056,6.8591439603377145e-09,0.0,9.786557021208,2.7944614675055073,-0.11203370434177161,0.7507317854045198,-0.05489429499992113,0.025123715999963905,0.3464390859995023,-55.587935458400004,303.90977765040003,0.46789696749766,30868.222537226087,229.8264983888889,0.0,0.0,0.0,7.633255049105781e-05,-0.00014082474283933752,-0.000479847020819604,0.182909351,55.5878921224172
5.8,0.0,0.0238818447432,56.56319550432,8979.968137056001,7.225663103256524e-09,0.0,9.786574202784001,2.8214911913902547,-0.13368704545246762,0.7421198856416875,-0.05239423499992472,0.021986119999968412,0.34158355799950924,-56.563195484000005,303.93380796048,0.46821907925891004,30894.336248528794,229.86284483333336,0.0,0.0,0.0,7.416324177372757e-05,-0.00012554874201548764,-0.00048178177303187297,0.186103681,56.5631515475264
5.9,0.0,0.024713197716,57.53845726728001,8974.263055248,7.609635538695277e-09,0.0,9.786591683064001,2.848219585924975,-0.15499958090232888,0.733222854056951,-0.04992039599992828,0.01911751999997253,0.3366971489995162,-57.538457287600004,303.95825496264,0.46854634480834,30920.908049421265,229.89982450000002,0.0,0.0,0.0,7.199393305639734e-05,-0.0001111770717631748,-0.00048344400583652725,0.189297253,57.5384127731896
6.0,0.0,0.025558775400000004,58.51372079808,8968.460446584,7.993607974134029e-09,0.0,9.786609465096,2.874673235964834,-0.17595078582879137,0.724056970034375,-0.04748188599993178,0.016504216999976288,0.3317843339995233,-58.5137208184,303.98311859592,0.46887927952476804,30947.943115759503,229.93743744444447,0.0,0.0,0.0,6.968904254423395e-05,-9.775447407469394e-05,-0.00048483643086946363,0.192490052,58.513675696518
6.1,0.0,0.026418577490400004,59.4889861272,8962.560311064,8.395033702092726e-09,0.0,9.786627545832001,2.9008762427614725,-0.19652179332736086,0.7146367707703652,-0.04508681799993522,0.014132312999979694,0.32684938299953037,-59.48898612720001,304.0083987384,0.46921788340819404,30975.43940784446,229.97568361111112,0.0,0.0,0.0,6.724857023723744e-05,-8.528094895004505e-05,-0.000485963115584527,0.195682067,59.488940471844806
6.2,0.0,0.027292604292,60.46425325464,8956.562648688001,8.831366015091307e-09,0.0,9.786645925272,2.9268502902855174,-0.21669533926430168,0.7049753019029489,-0.04274234499993859,0.011987829999982776,0.32189637099953755,-60.46425326480001,304.0340927688,0.46956164107980003,31003.399180836353,230.0145591666667,0.0,0.0,0.0,6.494367972507406e-05,-7.362091459439501e-05,-0.0004868267716176141,0.198873287,60.4642070477256
6.3,0.0,0.028180856109600003,61.43952221088001,8950.467459456,9.250245035569946e-09,0.0,9.786664603416002,2.952614725511727,-0.23645571113848987,0.6950843592398753,-0.04045468999994188,0.010056819999985549,0.3169291819995446,-61.43952223120001,304.06020309504004,0.46991158329722205,31031.820921718987,230.054068,0.0,0.0,0.0,6.250320741807754e-05,-6.290995280257697e-05,-0.0004874341780584666,0.202063697,61.4394754756048
6.4,0.0,0.029083332638400003,62.41479305688,8944.274743368002,9.704030641088472e-09,0.0,9.786683583312001,2.9781866352134783,-0.25578870249341296,0.6849747153023539,-0.03822919299994509,0.008325462999988037,0.3119515179995518,-62.4147930772,304.08672962568005,0.470267194681642,31060.705008746405,230.09421005555558,0.0,0.0,0.0,6.006273511108102e-05,-5.301248177975774e-05,-0.00048778804654298107,0.205253284,62.4147458069268
6.5,0.0,0.0300000338784,63.390065823120004,8937.984500424001,1.017526953912694e-08,0.0,9.786702861912,3.0035809157759377,-0.27468157190193265,0.6746563327788206,-0.03607034899994817,0.006780152999990258,0.30696690399955895,-63.3900658028,304.1136722388,0.47062795985424205,31090.05182974871,230.13498533333336,0.0,0.0,0.0,5.76222628040845e-05,-4.392850152593736e-05,-0.00048789380034295097,0.208442036,63.3900179902472
6.6,0.0,0.0309309604392,64.3653405096,8931.596730624,1.064650843716541e-08,0.0,9.786722439216,3.028810348245216,-0.2931230031727777,0.6641385620962104,-0.03398186199995117,0.005407581999992231,0.3019786999995661,-64.3653405096,304.14102831312005,0.47099439419384004,31119.863668614256,230.17639005555557,0.0,0.0,0.0,5.518179049708797e-05,-3.5658012041115815e-05,-0.0004877527952763245,0.211629941,64.3652921798992
6.7,0.0,0.031876112016,65.34061717728001,8925.111433968,1.1135200627723821e-08,0.0,9.786742315224,3.05388567861352,-0.3111030695712945,0.6534303222360666,-0.03196668699995407,0.004194799999993973,0.2969901089995733,-65.3406171468,304.16880022608,0.47136649770043604,31150.13662310194,230.21842805555556,0.0,0.0,0.0,5.274131819009145e-05,-2.820101332529312e-05,-0.00048737316625079165,0.214816986,65.3405683758828
6.8,0.0,0.0328354886088,66.31589582616,8918.528607408,1.1641346110802179e-08,0.0,9.786762489936,3.0788156841416554,-0.32861319769113145,0.64254026531909,-0.03002708699995686,0.003129275999995502,0.29200418799958044,-66.31589581600001,304.19698791672005,0.47174427037403,31180.87832532503,230.2610992222222,0.0,0.0,0.0,5.0300845883094936e-05,-2.1557505378469258e-05,-0.0004867562690843009,0.218003158,66.3158465267536
6.9,0.0,0.033809090522400005,67.29117648672,8911.848253992,1.2164944886400476e-08,0.0,9.7867829664,3.1036072588801695,-0.34564613411845013,0.6314769230382634,-0.028164681999959532,0.0021989469999968403,0.28702385799958763,-67.2911765172,304.2255887028,0.472127712214622,31212.08144481589,230.3043998888889,0.0,0.0,0.0,4.786037357609841e-05,-1.545632461097796e-05,-0.00048590888286659375,0.221188445,67.291126683956
7.0,0.0,0.0347969177568,68.26645921992,8905.070370672001,1.2705996954518719e-08,0.0,9.786803741568,3.128265488718502,-0.36219591174707094,0.6202488358132155,-0.026380499999962104,0.001392256999997999,0.2820519099995948,-68.2664592504,304.25460502272,0.47251630784339405,31243.751731993612,230.34833372222224,0.0,0.0,0.0,4.555548306393503e-05,-1.00737273561023e-05,-0.00048483371923356696,0.224372834,68.2664089503788
7.1,0.0,0.035798970007200004,69.24174405624001,8898.194960496001,1.324704902263696e-08,0.0,9.786824815440001,-3.1303915737641237,-0.3782578155700196,0.6088646648403595,-0.02467503099996455,0.0006981829999989955,0.27709101699960187,-69.2417440664,304.28403672408,0.472911088017982,31275.887204615483,230.39290083333336,0.0,0.0,0.0,4.325059255177166e-05,-5.314806357459087e-06,-0.0004835362014570138,0.227556312,69.241693326022
7.2,0.0,0.0368152478832,70.2170309652,8891.222023464,1.382300767579509e-08,0.0,9.786846188016002,-3.1059915985498794,-0.39382834969280434,0.5973332847698756,-0.023048276999966883,0.0001062659999998463,0.272143739999609,-70.21703096520001,304.31388121608,0.47331102198075004,31308.48776692098,230.4380973888889,0.0,0.0,0.0,4.108128383444142e-05,-1.1402428945467073e-06,-0.00048202175280872764,0.230738869,70.2169798108856
7.3,0.0,0.0378457513848,71.19232003824,8884.151556528,1.4416419621473162e-08,0.0,9.786867862344,-3.0817197287574025,-0.4089052013796334,0.5856638608492648,-0.02149979799996911,-0.00039338299999943337,0.2672125369996161,-71.1923200484,304.34414334504004,0.473716625110516,31341.55731157517,230.48393094444447,0.0,0.0,0.0,3.8911975117111176e-05,2.494705024929776e-06,-0.00048029444074255344,0.233920487,71.192268456414
7.4,0.0,0.038890480512,72.16761130584001,8876.983559688,1.5009831567151234e-08,0.0,9.786889835376,-3.057577273383632,-0.4234872068449615,0.5738659082645433,-0.020028763999971225,-0.0008100649999988352,0.2622997699996231,-72.167611316,304.37481802080003,0.47412789740728006,31375.092822121715,230.53039400000003,0.0,0.0,0.0,3.674266639978094e-05,5.62664448557531e-06,-0.00047835833271233616,0.237101158,72.16755926260721
7.5,0.0,0.03994943526480001,73.14290473752,8869.718032944,1.562069680534925e-08,0.0,9.786912107112,-3.0335669080183107,-0.43757431320531226,0.561949334551743,-0.018633998999973225,-0.001152496999998343,0.2574077079996302,-73.14290476800001,304.40590506048005,0.47454483887104204,31409.094753423095,230.57748644444445,0.0,0.0,0.0,3.470893947728384e-05,8.284047664304853e-06,-0.0004762202078078175,0.24028087,73.142852332354
7.6,0.0,0.041022615643200006,74.11820042472,8862.354976296001,1.6266468628587152e-08,0.0,9.786934680600002,-3.0096925893228526,-0.45116754060563363,0.5499244678712454,-0.017314025999975124,-0.0014288099999979467,0.25253853599963716,-74.1182004552,304.43740943232,0.47496744950180203,31443.56459455535,230.6252158888889,0.0,0.0,0.0,3.2675212554786734e-05,1.0521147279051664e-05,-0.00047388413348284255,0.243459606,74.11814761421
7.7,0.0,0.042110021952000004,75.09349839792,8854.894392792,1.6912240451825052e-08,0.0,9.786957549744,-2.9859594450746014,-0.4642689427748563,0.5378020676542903,-0.016067106999976915,-0.0016465599999976328,0.24769435799964412,-75.0934983776,304.46932589376,0.47539572929956003,31478.504179332413,230.67357483333336,0.0,0.0,0.0,3.077706742712278e-05,1.2365059688782369e-05,-0.00047135553300920444,0.246637358,75.09344515961959
7.8,0.0,0.0432116541912,76.06879862664,8847.336279384,1.7627825445142728e-08,0.0,9.78698072064,-2.9623736799190468,-0.47688156478892624,0.5255933240793769,-0.014891282999978604,-0.0018127339999973948,0.24287720099965102,-76.06879863680001,304.50165691368005,0.47582916288549804,31513.91208092256,230.722567,0.0,0.0,0.0,2.8878922299458818e-05,1.382934307298028e-05,-0.0004686384738407484,0.249814112,76.06874502002721
7.9,0.0,0.04432751236080001,77.04410120232001,8839.680633024002,1.832595714594046e-08,0.0,9.78700419024,-2.938942468904744,-0.4890093994375732,0.513309843411498,-0.013784410999980195,-0.0019337719999972208,0.23808901999965795,-77.044101182,304.53439977936,0.476268265638434,31549.788246657503,230.77218855555557,0.0,0.0,0.0,2.7116358966628e-05,1.504957922647854e-05,-0.0004657383792492675,0.252989856,77.04404719543281
8.0,0.0,0.045457596460800005,78.01940612496001,8831.92745676,1.902408884673819e-08,0.0,9.787027961592,-2.9156738405462517,-0.5006573434165468,0.5009636209495366,-0.012744195999981688,-0.0020155789999971034,0.2333316999996648,-78.0194061148,304.56755942856,0.47671355293718604,31586.136621870584,230.82244722222225,0.0,0.0,0.0,2.5353795633797177e-05,1.5863069995477378e-05,-0.0004626620283245036,0.256164575,78.0193517887252
8.1,0.0,0.0466019071008,78.99471342503999,8824.076750592001,1.9722220547535924e-08,0.0,9.787052028600002,-2.8925765825763547,-0.5118311486329296,0.488567004374352,-0.01176822699998309,-0.0020635489999970345,0.22860705599967154,-78.9947134352,304.60113067968,0.477163994024118,31622.954228409697,230.87333527777778,0.0,0.0,0.0,2.3726814095799497e-05,1.654097896964308e-05,-0.0004594121327023532,0.25933826,78.99465874846
8.2,0.0,0.047760443671200005,79.97002313304,8816.12851452,2.0420352248333655e-08,0.0,9.787076397360002,-2.869660114537026,-0.5225373749067154,0.4761326483702186,-0.010853999999984406,-0.0020825849999970077,0.2239168419996783,-79.97002314320001,304.63511594064005,0.4776201042780481,31660.242071760273,230.92485655555558,0.0,0.0,0.0,2.2235414352634956e-05,1.69477243541425e-05,-0.0004559968272905064,0.262510897,79.9699681260816
8.3,0.0,0.04893320678160001,80.94533527944002,8808.082745496,2.111848394913139e-08,0.0,9.787101064824,-2.846934391786318,-0.5327833386581284,0.46367346034508655,-0.009998948999985635,-0.002077125999997015,0.21926274299968496,-80.94533528960001,304.66951249872,0.4780813683201581,31698.00013277022,230.97700727777777,0.0,0.0,0.0,2.074401460947042e-05,1.708330614897564e-05,-0.0004524201795428082,0.265682475,80.9452799730344
8.4,0.0,0.050120196432,81.92064989472001,8799.939446568,2.199114857512855e-08,0.0,9.78712603404,-2.824409786815976,-0.5425770619440099,0.4512025409148544,-0.009200466999986782,-0.0020511669999970514,0.2146463859996916,-81.92064992520001,304.70432276184005,0.47854881690808404,31736.23185403015,231.02979127777778,0.0,0.0,0.0,1.9388196661139018e-05,1.708330614897564e-05,-0.0004486876127310518,0.26885298,81.9205942893184
8.5,0.0,0.0513214123176,82.89596703984,8791.698617736,2.2689280275926285e-08,0.0,9.787151298912,-2.8020969845316803,-0.5519272193998078,0.4387331191516533,-0.00845592799998785,-0.0020082919999971126,0.21006933399969813,-82.89596705000001,304.73954660808005,0.47902141928419006,31774.935325117734,231.08320844444444,0.0,0.0,0.0,1.8032378712807617e-05,1.69477243541425e-05,-0.000444805905944979,0.2720224,82.895911126378
8.6,0.0,0.05253685504800001,83.87128668432,8783.360252904,2.356194490192345e-08,0.0,9.787176865536,-2.780006868806647,-0.5608430834362392,0.4262784838178751,-0.0077627069999888455,-0.0019516939999971955,0.20553308999970465,-83.8712867148,304.77518388504,0.47950020620611206,31814.111058351737,231.13725888888888,0.0,0.0,0.0,1.681214255930936e-05,1.681214255930936e-05,-0.00044077777082048643,0.275190723,83.87123048421321
8.7,0.0,0.053766524318400004,84.8466089196,8774.924358168,2.443460952792061e-08,0.0,9.787202730864001,-2.7581504334698335,-0.5693344706576823,0.41385191442566643,-0.007118197999989771,-0.0018842039999972919,0.20103909799971115,-84.84660891960002,304.81123188,0.479984146916214,31853.761476473268,231.19193877777778,0.0,0.0,0.0,1.55919064058111e-05,1.6405397174809937e-05,-0.00043661269808321234,0.278357938,84.8465524657128
8.8,0.0,0.0550104204336,85.8219337152,8766.390933528,2.530727415391778e-08,0.0,9.787228897943999,-2.736538663623552,-0.5774116854880404,0.4014666089802982,-0.00651982399999063,-0.0018083169999974014,0.19658874299971754,-85.82193371520002,304.8476957136,0.480473756793314,31893.885732001752,231.2472557222222,0.0,0.0,0.0,1.4371670252312839e-05,1.599865179031052e-05,-0.0004323120435511051,0.281524029,85.8218770194324
8.9,0.0,0.0562685436984,86.79726116256,8757.759972888001,2.6179938779914944e-08,0.0,9.787255363728,-2.7151824605943116,-0.585085465541938,0.3891356152141922,-0.00596505399999143,-0.0017262189999975189,0.1921833489997239,-86.79726115240001,304.8845670648,0.480969035837412,31934.4827763595,231.30319822222222,0.0,0.0,0.0,1.3368364970547604e-05,1.545632461097796e-05,-0.00042788529794980315,0.28468899,86.7972042482608
9.0,0.0,0.05754089380800001,87.77259126168,8749.031479296,2.7052603405912108e-08,0.0,9.787282128216,-2.6940925372130597,-0.5923669259487161,0.3768717609482849,-0.005451414999992168,-0.0016398089999976437,0.18782418199973014,-87.77259123120001,304.9218541632,0.48146998404850805,31975.55716295915,231.35977783333334,0.0,0.0,0.0,1.2365059688782369e-05,1.477841563681226e-05,-0.0004233365287331513,0.287852802,87.7725341007536
9.1,0.0,0.0588274707624,88.74792401256,8740.205452752,2.7925268031909273e-08,0.0,9.787309191408001,-2.673279342766029,-0.5992675045490948,0.36468758899124565,-0.004976493999992849,-0.0015507249999977715,0.18351245099973632,-88.74792400240001,304.9595512176,0.481976086047784,32017.103519635642,231.41698683333334,0.0,0.0,0.0,1.1429545304433702e-05,1.4236088457479698e-05,-0.00041866980335499465,0.291015458,88.7478666283552
9.2,0.0,0.06012827517120001,89.72325947616001,8731.281896304,2.879793265790644e-08,0.0,9.787336553304,-2.652752986200246,-0.6057989079644993,0.35259529483122287,-0.004537955999993479,-0.0014603699999979015,0.17924930599974245,-89.723259466,304.99766097120005,0.482488372592876,32059.12778832912,231.47482911111112,0.0,0.0,0.0,1.0548263638018292e-05,1.3544621303830684e-05,-0.0004138932567230231,0.294176943,89.7232019339544
9.3,0.0,0.0614433067296,90.69859771344,8722.260800808,2.9845130209103035e-08,0.0,9.787364216952001,-2.632523162819706,-0.6119730583645165,0.34060666973811,-0.004133539999994061,-0.0013699299999980318,0.1750358379997485,-90.69859772360002,305.0361831192,0.483005812926148,32101.630519662558,231.53330461111113,0.0,0.0,0.0,9.721214689536137e-06,1.2853154150181672e-05,-0.0004090123121090301,0.297337246,90.6985399661068
9.4,0.0,0.0627725660472,91.67393869392,8713.142175408,3.07177948351002e-08,0.0,9.787392179304,-2.6125990931988476,-0.6178020425032827,0.3287330471819379,-0.0037610729999945952,-0.0012803979999981589,0.1708730819997545,-91.67393867360002,305.0751173568,0.48352892242641804,32144.60742356475,231.59241333333335,0.0,0.0,0.0,8.961956638470553e-06,1.2161686996532657e-05,-0.0004040323927848089,0.300496353,91.67388077625681
9.5,0.0,0.0641160525144,92.64928247856001,8703.926014008,3.17649923862968e-08,0.0,9.787420440360002,-2.592989477803992,-0.6232980611049338,0.31698525727978094,-0.0034184649999950876,-0.001192593999998286,0.16676201299976037,-92.6492824684,305.11446094080003,0.484058216472504,32188.06340297422,231.65215150000003,0.0,0.0,0.0,8.243373125854912e-06,1.1470219842883644e-05,-0.0003989575662042044,0.303654256,92.6492244158488
9.6,0.0,0.065473766436,93.62462906736,8694.612319656,3.281218993749339e-08,0.0,9.787449003168,-2.57370243416149,-0.6284733815651833,0.30537358525692115,-0.00310371899999554,-0.0011071809999984082,0.16270354999976624,-93.62462905720001,305.1542166144,0.48459266430677006,32231.999554348902,231.71252288888888,0.0,0.0,0.0,7.565464151689211e-06,1.0778752689234629e-05,-0.00039379461145695846,0.30681094,93.6245708848828
9.7,0.0,0.06684570842160001,94.59997855176,8685.201089304,3.3859387488689994e-08,0.0,9.787477864680001,-2.5547454724231127,-0.6333402925727617,0.29390773688932886,-0.002814927999995954,-0.001024687999998527,0.15869855499977198,-94.59997854160001,305.1943840728,0.48513226592921604,32276.411606769685,231.7735275,0.0,0.0,0.0,6.941787895456768e-06,1.0087285535585615e-05,-0.00038855030763281255,0.309966392,94.59992023480321
9.8,0.0,0.0682318781664,95.57533090128,8675.692322952,3.490658503988659e-08,0.0,9.787507024896001,-2.536125455223479,-0.6379110599525859,0.282596810229329,-0.0025502749999963344,-0.0009455209999986401,0.15474783199977765,-95.5753309216,305.23496057280005,0.48567805209747805,32321.30447753917,231.83516161111112,0.0,0.0,0.0,6.3587861776742655e-06,9.42293474090323e-06,-0.0003832287221856118,0.313120604,95.57527246561
9.9,0.0,0.0696322756704,96.55068617688,8666.086023648,3.595378259108319e-08,0.0,9.787536483816,-2.5178485802267634,-0.6421978866977203,0.271449273788985,-0.002308038999996684,-0.0008699829999987487,0.15085212899978326,-96.55068619720001,305.2759485528,0.48622899205392006,32366.67685952629,231.8974288888889,0.0,0.0,0.0,5.83001717782502e-06,8.772142125704157e-06,-0.0003778366342050978,0.316273561,96.550627680192
10.0,0.0,0.0710469012384,97.52604440904,8656.382185296,3.7000980142279785e-08,0.0,9.787566244488,-2.499920355692084,-0.6462128749211978,0.26047294961040557,-0.002086587999997001,-0.0007982839999988514,0.14701213799978874,-97.5260444192,305.317347708,0.48678611655617804,32412.531778763412,231.96032944444445,0.0,0.0,0.0,5.328364536942401e-06,8.1349076899884e-06,-0.00037237811114511566,0.319425251,97.52598582710479
10.1,0.0,0.0724757548704,98.50140562824,8646.580813992001,3.822271061867582e-08,0.0,9.787596303864001,-2.4823455987281777,-0.6499679904258377,0.24967500401549947,-0.001884379999997292,-0.0007305539999989504,0.1432284959997942,-98.5014056384,305.35915803840004,0.487348394846616,32458.86498827156,232.02386322222222,0.0,0.0,0.0,4.867386434509726e-06,7.5383477927225835e-06,-0.00036685993209540686,0.322575661,98.5013469577928
10.2,0.0,0.0739188368712,99.47676983448001,8636.681903640001,3.9269908169872415e-08,0.0,9.787626661944,-2.4651284230760906,-0.6534750307647186,0.23906194324265218,-0.0016999609999975576,-0.0006668579999990409,0.13950178199979954,-99.47676985480001,305.4013768008,0.487916342304052,32505.681429293465,232.08802644444447,0.0,0.0,0.0,4.433524691043678e-06,6.955346074940081e-06,-0.00036128752032776483,0.325724784,99.4767111237004
10.3,0.0,0.075376146936,100.45213708872001,8626.685460336,4.0491638646268444e-08,0.0,9.787657321776,-2.4482722495811564,-0.6567455960941807,0.22863961309766043,-0.0015319639999977982,-0.000607202999999127,0.13583252299980486,-100.4521371192,305.4440085672,0.48848995892848607,32552.982782426217,232.15282666666667,0.0,0.0,0.0,4.040337486027572e-06,6.399460716124207e-06,-0.0003556649432960345,0.3288726,100.452078376272
10.4,0.0,0.0768476856744,101.42750742144,8616.591477984,4.171336912266448e-08,0.0,9.787688280312,-2.4317798044476673,-0.659791062295756,0.21841320523691712,-0.0013791069999980186,-0.0005515479999992071,0.13222119099981003,-101.4275074316,305.4870460224,0.48906924471991803,32600.763206278218,232.21825255555555,0.0,0.0,0.0,3.6742666399780934e-06,5.8842498957582755e-06,-0.0003499976242720092,0.332019108,101.4274486640632
10.5,0.0,0.0783334530864,102.40288083264,8606.399956584,4.293509959906051e-08,0.0,9.787719537552,-2.415653138437494,-0.6626225582868868,0.20838726729032128,-0.001240184999998218,-0.0004998159999992818,0.12866820399981513,-102.4028808428,305.53049648160004,0.48965419967834806,32649.029801491877,232.28431550000002,0.0,0.0,0.0,3.348870332378558e-06,5.382597254875658e-06,-0.00034429234234543065,0.335164286,102.40282208996281
10.6,0.0,0.079833449172,103.37825738328002,8596.110902232,4.4156830075456535e-08,0.0,9.787751093496,-2.3998936390873924,-0.6652509447279092,0.19856571595124733,-0.0011140759999983976,-0.0004518959999993499,0.12517392799982013,-103.3782574036,305.5743544584,0.49024430842495803,32697.779704827703,232.35100783333334,0.0,0.0,0.0,3.037032204262336e-06,4.921619152442982e-06,-0.0003385531649701439,0.338308129,103.37819865397081
10.7,0.0,0.0813476739312,104.35363707335999,8585.724305784,4.537856055185257e-08,0.0,9.787782951192,-2.384502048162294,-0.6676867967432943,0.1889518546043705,-0.0009997279999985624,-0.00040765299999941275,0.1217386769998251,-104.35363706320001,305.6186251344,0.490840086338566,32747.017062716128,232.41833722222222,0.0,0.0,0.0,2.752310435112742e-06,4.487757408976934e-06,-0.0003327855154179421,0.341450619,104.35357840753161
10.8,0.0,0.08287612766880001,105.32901996384001,8575.240173336,4.677482395344803e-08,0.0,9.787815107592001,-2.3694784913259053,-0.6699403885627496,0.17954839304788742,-0.0008961629999987121,-0.0003669319999994725,0.11836271299982994,-105.329019974,305.6633005848,0.49144204879799,32796.73847565876,232.4862922777778,0.0,0.0,0.0,2.494705024929776e-06,4.081012024477514e-06,-0.00032699346114267036,0.344591753,105.3289613506452
10.9,0.0,0.0844188103848,106.30440608520001,8564.65850184,4.799655442984406e-08,0.0,9.787847562696001,-2.3548225008299863,-0.6720216809548494,0.17035747102055446,-0.0008024729999988461,-0.00032956699999952524,0.1150462489998347,-106.30440608520001,305.7083881248,0.49204916504559404,32846.94621796791,232.55488433333335,0.0,0.0,0.0,2.264215973713438e-06,3.7149411784280357e-06,-0.00032118242541612197,0.34773151,106.304347534756
11.0,0.0,0.0859757220792,107.27979543744,8553.979291296,4.939281783143953e-08,0.0,9.787880319552,-2.3405330347129736,-0.6739403118022558,0.16138068178108594,-0.0007178129999989674,-0.0002953789999995751,0.1117894469998394,-107.27979544760001,305.7538828776,0.492661950460196,32897.639868297294,232.62410583333335,0.0,0.0,0.0,2.047285101980414e-06,3.3624285118618717e-06,-0.0003153578315100903,0.350869885,107.279736959864
11.1,0.0,0.0875468633616,108.25518805104001,8543.202541704,5.061454830783556e-08,0.0,9.787913375112,-2.326608522178541,-0.6757055877241395,0.15261909893386455,-0.0006413979999990772,-0.0002641859999996201,0.10859242099984397,-108.2551880612,305.7997869768,0.49328040504179604,32948.82307512264,232.69396055555558,0.0,0.0,0.0,1.8439124097307038e-06,3.037032204262336e-06,-0.00030952374687842025,0.354006864,108.2551296774136
11.2,0.0,0.08913223392720002,109.23058398696001,8532.328253064,5.201081170943102e-08,0.0,9.787946729376,-2.313046875812903,-0.6773264781420593,0.14407330365607796,-0.0005725049999991763,-0.00023580199999966077,0.10545523899984849,-109.23058397680002,305.84610011760003,0.493904013411576,33000.4940716624,232.76444855555556,0.0,0.0,0.0,1.667656076447622e-06,2.738752255629428e-06,-0.00030368423897495693,0.357142433,109.23052573884921
11.3,0.0,0.0907318340808,110.20598327568,8521.356425376,5.340707511102648e-08,0.0,9.787980382344,-2.299845538708705,-0.6788116130110345,0.13574341288478606,-0.0005104629999992663,-0.00021004199999969742,0.1023779199998529,-110.2059832452,305.8928219952,0.49453380632717203,33052.65353302821,232.83556977777778,0.0,0.0,0.0,1.49139974316454e-06,2.4675886659631478e-06,-0.0002978460868894419,0.360276583,110.20592514417079
11.4,0.0,0.09234566351760001,111.1813859172,8510.28705864,5.497787143782138e-08,0.0,9.788014337064,-2.2870015019183167,-0.6801692798524857,0.12762910806249375,-0.0004546549999993465,-0.00018672299999973,0.09936043999985723,-111.18138591720002,305.93995047600004,0.49516875303094804,33105.30404954211,232.9073203888889,0.0,0.0,0.0,1.3476830406414114e-06,2.209983255780182e-06,-0.0002920106464398236,0.363409303,111.18132794482281
11.5,0.0,0.09397372315199999,112.15679194200001,8499.120149808,5.6374134839416846e-08,0.0,9.788048590488001,-2.2745113515777216,-0.6814074244523649,0.11972966400489687,-0.0004045109999994181,-0.00016566499999976118,0.09640272899986149,-112.156791942,305.9874873888,0.495811945795812,33158.600671846725,232.97970427777778,0.0,0.0,0.0,1.21074542785994e-06,1.979494204563844e-06,-0.0002861846967158436,0.366540581,112.1567341922496
11.6,0.0,0.0956160123744,113.13220141104,8487.855698880001,5.794493116621174e-08,0.0,9.788083145664,-2.262371286359808,-0.6825336515592894,0.11204398056115467,-0.00035950599999948213,-0.00014669499999978863,0.09350457499986566,-113.13220142120001,306.03543273360003,0.496488122805028,33214.24409716499,233.0527213888889,0.0,0.0,0.0,1.0873659945617828e-06,1.7761215123141337e-06,-0.0002803872191687785,0.369670403,113.1321438350068
11.7,0.0,0.09727253148960001,114.10761432432001,8476.493708904,5.9341194567807204e-08,0.0,9.788117996496,-2.2505771733249085,-0.6835552273280008,0.10457061729358222,-0.0003191589999995403,-0.00012964599999981202,0.09066575699986973,-114.107614304,306.08378376720003,0.49717048436006006,33270.39904644205,233.12636794444444,0.0,0.0,0.0,9.748331048502766e-07,1.586306999547738e-06,-0.0002746060114370934,0.372798762,114.10755692453881
11.8,0.0,0.0989432811072,115.08303071232001,8465.034176832,6.09119908946021e-08,0.0,9.788153149080001,-2.239124561883429,-0.6844790849044199,0.09730781328713728,-0.00028302799999959223,-0.00011435799999983476,0.08788609299987372,-115.083030692,306.132542928,0.49785903046090807,33327.06435618759,233.20064772222221,0.0,0.0,0.0,8.731467587254215e-07,1.410050666264656e-06,-0.00026884378515668495,0.375925644,115.0829735637344
11.9,0.0,0.10062826061760001,116.05845063600002,8453.477102664001,6.2482787221397e-08,0.0,9.788188603416,-2.2280087064851344,-0.6853118294871009,0.0902535123519748,-0.00025071099999963905,-0.00010067999999985465,0.08516535799987764,-116.058450636,306.18170960640003,0.498552730349936,33384.24078290973,233.2755607777778,0.0,0.0,0.0,7.809511382388863e-07,1.2568432381032077e-06,-0.00026310460778139813,0.379051036,116.0583937525936
12.0,0.0,0.1023274709352,117.03387409536,8441.8224864,6.40535835481919e-08,0.0,9.788224353408001,-2.2172245997804,-0.6860597453085484,0.08340538941282515,-0.00022183699999967987,-8.849999999987283e-05,0.08250328999988146,-117.03387408520001,306.23128410720005,0.49925261478478006,33441.93152022172,233.351107,0.0,0.0,0.0,6.98246243390671e-07,1.1144823535284108e-06,-0.0002573939025830263,0.382174928,117.03381743967199
12.1,0.0,0.10404091145040001,118.00930112088001,8430.070328040001,6.562437987498679e-08,0.0,9.788260405152,-2.206766993564166,-0.6867288017438701,0.07676087586862815,-0.00019607099999971786,-7.75999999998885e-05,0.0798995869998852,-118.00930114120001,306.2812633824,0.499958168386622,33500.136783584734,233.42728272222226,0.0,0.0,0.0,6.23676256232444e-07,9.870354663852591e-07,-0.0002517130253795177,0.38529731,118.00924477930279
12.2,0.0,0.1057685827728,118.98473174304,8418.220624536001,6.736970912698112e-08,0.0,9.788296758648,-2.196630435427848,-0.6873246613392912,0.0703171839573295,-0.0001731029999997506,-6.789999999990245e-05,0.07735391499988885,-118.9847317532,306.33165261360006,0.50066990653428,33558.8560032237,233.50409544444446,0.0,0.0,0.0,5.55885358815874e-07,8.731467587254215e-07,-0.00024606604362471747,0.388418166,118.98467572004161
12.3,0.0,0.1075104845976,119.9601660228,8406.273378936,6.894050545377602e-08,0.0,9.7883334078,-2.186809287957963,-0.6878526878406688,0.064071329986213,-0.0001526549999997804,-5.9399999999914653e-05,0.07486590199989243,-119.96016602280001,306.3824460096,0.501387313848936,33618.08884397679,233.58153761111112,0.0,0.0,0.0,4.94873551140961e-07,7.701045946522352e-07,-0.00024045702477247044,0.391537491,119.9601103133328
12.4,0.0,0.1092666175344,120.93560396016001,8394.22859124,7.068583470577035e-08,0.0,9.788370358704002,-2.1772977514254066,-0.6883179556182704,0.058020156427769025,-0.0001344689999998051,-5.1799999999925575e-05,0.07243514299989592,-120.93560395,306.4336438752,0.50211039033059,33677.83853776148,233.65960922222223,0.0,0.0,0.0,4.40640833207705e-07,6.792647921140315e-07,-0.0002348886804586734,0.394655273,120.93554855917641
12.5,0.0,0.11103698158320001,121.91104558560001,8382.0862584,7.243116395776468e-08,0.0,9.78840761136,-2.1680898899653918,-0.6887252580443535,0.05216035284619212,-0.00011831599999982987,-4.5099999999933456e-05,0.07006120099989935,-121.91104558560001,306.4852510872,0.50283965135806,33738.104524378774,233.7383178888889,0.0,0.0,0.0,3.9047556911944314e-07,5.96559897265816e-07,-0.00022936372231922294,0.397771494,121.9109905604612
12.6,0.0,0.11282157674400001,122.88649096008,8369.846383464,7.4176493209759e-08,0.0,9.788445159672001,-2.159179654266732,-0.6890791169179442,0.04648847556724179,-0.0001039849999998505,-3.919999999994367e-05,0.06774360799990267,-122.88649092960001,306.5372618544,0.503574581552528,33798.88649739498,233.81765594444445,0.0,0.0,0.0,3.470893947728384e-07,5.233457280559204e-07,-0.0002238862178079641,0.40088615,122.8864363171872
12.7,0.0,0.11462040332159999,123.86194005312,8357.508960336,7.592182246175333e-08,0.0,9.788483009736002,-2.150560893789143,-0.6893837925877465,0.0410009663009055,-9.129999999986707e-05,-3.399999999995115e-05,0.06548186699990592,-123.8619400328,306.58967892000004,0.504315696292812,33860.19070518391,233.8976272777778,0.0,0.0,0.0,3.077706742712278e-07,4.582664665360131e-07,-0.00021845752274284513,0.403999226,123.86188582935439
12.8,0.0,0.116433461316,124.83739295616,8345.073995112,7.766715171374766e-08,0.0,9.788521158504,-2.142227388179171,-0.6896432940750525,0.0356941693852518,-7.999999999988505e-05,-2.939999999995776e-05,0.06327544999990908,-124.837392946,306.6425019792,0.505062480200094,33922.0106120902,233.97823183333335,0.0,0.0,0.0,2.725194076146114e-07,4.013221127060944e-07,-0.00021308306039565948,0.407110712,124.83733909696281
12.9,0.0,0.1182607507272,125.81284963872,8332.541481696,7.958701389094143e-08,0.0,9.788559609024,-2.134172852506179,-0.6898613878003879,0.03056434805289886,-7.009999999989927e-05,-2.5399999999963507e-05,0.06112380499991219,-125.81284966920002,306.6957285936,0.505814933274374,33984.35137002973,234.0594657777778,0.0,0.0,0.0,2.399797768546578e-07,3.498010306695012e-07,-0.00020776147494845873,0.410220598,125.8127962743456
13.0,0.0,0.12010227186000001,126.78831019224002,8319.911423136002,8.150687606813519e-08,0.0,9.788598358248,-2.1263909651876167,-0.6900416084045536,0.0256076994582994,-6.129999999991192e-05,-2.189999999996853e-05,0.05902635199991519,-126.78831020240001,306.749360592,0.50657357089447,34047.21190169668,234.141333,0.0,0.0,0.0,2.1286341788802976e-07,3.0505903837456497e-07,-0.00020249954549098458,0.413328872,126.78825725861401
13.1,0.0,0.12195802501920001,127.76377461672001,8307.183819432,8.342673824532896e-08,0.0,9.788637406175999,-2.1188753714796777,-0.6901872688715361,0.020820368692734535,-5.359999999992299e-05,-1.8899999999972846e-05,0.05698248699991812,-127.76377459640001,306.80339766960003,0.507337877681564,34110.59548688877,234.22383344444447,0.0,0.0,0.0,1.8710287686973317e-07,2.64384499924623e-07,-0.00019729591620528864,0.416435521,127.7637221526568
13.2,0.0,0.12382801020480001,128.73924294264,8294.358670584,8.534660042252271e-08,0.0,9.788676755856,-2.111619711402567,-0.6903014692551527,0.01619846166484368,-4.679999999993276e-05,-1.629999999997658e-05,0.05499158399992099,-128.7392429528,306.8578401312,0.508107853635656,34174.502963510546,234.30696716666668,0.0,0.0,0.0,1.654097896964308e-07,2.2913323326800656e-07,-0.00019215465454521598,0.419540535,128.739190956474
13.3,0.0,0.1257122277216,129.71471517,8281.435970496,8.726646259971648e-08,0.0,9.78871640424,-2.1046176162498447,-0.6903871073255603,0.011738056986316749,-4.079999999994138e-05,-1.3899999999980028e-05,0.053052991999923776,-129.71471517,306.9126849288,0.5088840141355641,34238.929701540954,234.3907302777778,0.0,0.0,0.0,1.450725204714598e-07,1.993052384047158e-07,-0.00018707711632871487,0.422643906,129.7146637729544
13.4,0.0,0.12761067726480002,130.69019139024002,8268.415725264,8.918632477691024e-08,0.0,9.788756351328,-2.0978627400043504,-0.6904468879940338,0.007435216984921727,-3.549999999994899e-05,-1.1899999999982901e-05,0.05116604199992649,-130.6901914004,306.9679348056,0.50966584380247,34303.88200681011,234.47512666666668,0.0,0.0,0.0,1.2758246893798474e-07,1.7218887943808781e-07,-0.00018206601319168203,0.42574562,130.6901404992092
13.5,0.0,0.12952335913920002,131.66567160336,8255.29793184,9.128071987930343e-08,0.0,9.788796600168,-2.091348750611558,-0.6904833322141446,0.0032859977052413,-3.089999999995386e-05,-1.0199999999985345e-05,0.04933004599992912,-131.6656715932,307.0235888472,0.510453342636374,34369.36074116268,234.5601562777778,0.0,0.0,0.0,1.1199056253217363e-07,1.49139974316454e-07,-0.00017712405677001408,0.428845666,131.66562128957162
13.6,0.0,0.1314502739544,132.64115583984002,8242.082593272,9.32005820564972e-08,0.0,9.788837147712,-2.085069359650172,-0.6904987867556052,-0.0007135419458018756,-2.6799999999961495e-05,-8.71999999998747e-06,0.04754429499993169,-132.64115585,307.0796470536,0.5112470260160941,34435.364305398,234.6458191111111,0.0,0.0,0.0,9.816121945919336e-08,1.2798921432248416e-07,-0.0001722498912457627,0.431944032,132.64110609259723
13.7,0.0,0.1333914214056,133.61664409968,8228.769700416,9.52949771588904e-08,0.0,9.788877993960002,-2.079018311860154,-0.6904954325818486,-0.00456733182136476,-2.3299999999966522e-05,-7.429999999989325e-06,0.045808065999934186,-133.61664412000002,307.1361094248,0.512046378562812,34501.89601283,234.7321151666667,0.0,0.0,0.0,8.595885792421076e-08,1.1009241740450967e-07,-0.00016744893989072121,0.435040709,133.6165949597304
13.8,0.0,0.1353468014928,134.59213647432,8215.359262416,9.738937226128359e-08,0.0,9.788919141960001,-2.0731894113226588,-0.6904752939257416,-0.008279282959954977,-2.019999999996923e-05,-6.3199999999909194e-06,0.04412061799993661,-134.592136454,307.1929732176,0.5128519156553459,34568.95372321111,234.8190406666667,0.0,0.0,0.0,7.511231433755955e-08,9.450051099869857e-08,-0.00016271849106899296,0.438135688,134.59208794241562
13.9,0.0,0.1373164148256,135.56763293328,8201.851273176,9.965830028887623e-08,0.0,9.788960588664,-2.0675765179693784,-0.6904402464926311,-0.011853280726286856,-1.7399999999975e-05,-5.369999999992285e-06,0.04248119899993896,-135.5676329536,307.25024056560005,0.5136626065360601,34636.53887294909,234.90659944444445,0.0,0.0,0.0,6.562158869923976e-08,8.094233151538458e-08,-0.00015806396805237126,0.441228955,135.5675850920972
14.0,0.0,0.139300261404,136.543133568,8188.245735744001,1.0175269539126942e-07,0.0,9.789002334072,-2.0621735563091868,-0.6903920260124582,-0.015293178597909287,-1.5099999999978304e-05,-4.549999999993463e-06,0.04088903899994125,-136.543133568,307.307911164,0.514479997341408,34704.65479929798,234.9947913888889,0.0,0.0,0.0,5.721551741958508e-08,6.91467153649014e-08,-0.0001534840150229078,0.444320499,136.54308635733082
