time,gePosition_m_X,gePosition_m_Y,gePosition_m_Z,feVelocity_m_s_X,feVelocity_m_s_Y,feVelocity_m_s_Z,altitudeMsl_m,longitude_rad,latitude_rad,localGravity_m_s2,eulerAngle_rad_Yaw,eulerAngle_rad_Pitch,eulerAngle_rad_Roll,bodyAngularRateWrtEi_rad_s_Roll,bodyAngularRateWrtEi_rad_s_Pitch,bodyAngularRateWrtEi_rad_s_Yaw,altitudeRateWrtMsl_m_s,speedOfSound_m_s,airDensity_kg_m3,ambientPressure_Pa,ambientTemperature_K,aero_bodyForce_N_X,aero_bodyForce_N_Y,aero_bodyForce_N_Z,aero_bodyMoment_Nm_L,aero_bodyMoment_Nm_M,aero_bodyMoment_Nm_N,mach,dynamicPressure_Pa,trueAirspeed_m_s
0.0,6387280.999951441,0.0,0.0,0.0,0.0,0.0,9144.0,0.0,0.0,9.78607229664024,0.0,-0.0,0.0,0.17453292519874922,0.34906585039849847,0.5235987755972477,0.0,303.2314967110032,0.45935725912772696,30180.52669774471,228.79957777777778,0.0,0.0,-0.0,0.0,-0.0,-0.0,0.0,0.0,0.0
0.1,6387280.95136632,2.370449814058632e-07,0.0,0.0,7.087644931575361e-06,0.9752108015369041,9143.95140198696,3.711203299353818e-14,0.0,9.786072445809362,0.05249883755162457,0.03481807480434997,0.017882154252674306,0.16489595594276305,0.3564230766094879,0.5199426722152529,-0.975210801536904,303.231706656024,0.4593598618995028,30180.73568047168,228.79989272000003,0.0,0.0,0.0,-3.935465260336767e-06,-3.436741963146904e-05,-1.24091015985412e-05,0.00321606953888,0.21843545471067286,0.9752134108045198
0.2,6387280.80506232,1.8963598526148479e-06,0.0,0.0,2.8421693845662963e-05,1.9504216328405761,9143.80512035928,2.968962709620856e-13,0.0,9.78607289477976,0.10534366016184865,0.06936981822550033,0.03662558230704738,0.1549952874947773,0.36287790858047864,0.5163002841452582,-1.9504216328405761,303.2323385972544,0.459367696329075,30181.364725520645,228.80084070611113,0.0,0.0,0.0,-7.398468660311715e-06,-6.998082310294467e-05,-2.4644760976429738e-05,0.00643212565292,0.8737567151228705,1.9504268155025895
0.3,6387280.561283281,6.4002145246456796e-06,0.0,0.0,6.39784440457008e-05,2.925632523693024,9143.561317666801,1.0020249562010267e-12,0.0,9.78607364306376,0.15863368054577204,0.10351993720485127,0.05621777828491924,0.14487672294879184,0.36841459686147066,0.5126954687162635,-2.9256325236930243,303.23339183274004,0.4593807537127261,30182.413133983475,228.8024206827778,0.0,0.0,0.0,-1.0373502393021777e-05,-0.00010657588512334323,-3.671007739189387e-05,0.00964815500442,1.9660085055228853,2.925640234342725
0.4,6387280.219937759,1.5170878952049841e-05,0.0,0.0,0.0001137578978877624,3.90084350387016,9143.21999387904,2.3751704058224267e-12,0.0,9.786074690630882,0.21246311549369468,0.13713102842280298,0.07665048602058987,0.1345853489838066,0.373021330471464,0.5091492582312684,-3.9008435038701603,303.23486636217604,0.4593990340499407,30183.880905860162,228.80463265111112,0.0,0.0,0.0,-1.2849328528554037e-05,-0.00014388376739911306,-4.861014672517052e-05,0.0128641442567,3.49526539036088,3.900853687779219
0.5,6387279.7811172,2.96306231588028e-05,0.0,0.0,0.0001777600592532624,4.87605460315704,9142.781148965521,4.639005049757828e-12,0.0,9.786076037542081,0.2669198162286165,0.17006391059675563,0.0979182859757593,0.12416590851382159,0.3766917219604588,0.5056801637862735,-4.876054603157041,303.236762186172,0.45942253734123417,30185.768041198582,228.80747660944445,0.0,0.0,0.0,-1.4818937307330854e-05,-0.00018163370239683926,-6.035176138867524e-05,0.0160800800746,5.4616317749403605,4.87606719654931
0.6,6387279.244730161,5.12017172475672e-05,0.0,0.0,0.000255984933270156,5.85126585130824,9142.24478292624,8.016201466324923e-12,0.0,9.78607768376688,0.32208370717353724,0.20217809745470952,0.12001688894982755,0.11366254302383669,0.37942463970845486,0.5023040095852782,-5.85126585130824,303.2390793044232,0.4594512635881527,30188.07454004663,228.81095255944444,0.0,0.0,0.0,-1.6279469248477207e-05,-0.0002195554802679073,-7.194308673675261e-05,0.0192959491248,7.865241906204374,5.851280781765778
0.7,6387278.6108376,8.13064314334464e-05,0.0,0.0,0.00034843252569184804,6.826477278133201,9141.61089579168,1.2729432421413683e-11,0.0,9.786079629274802,0.3780250170324569,0.23333241920066475,0.1429411431767946,0.10311856219685184,0.3812240128504522,0.49903381918828293,-6.826477278133201,303.2418177172344,0.4594852127906962,30190.80040250005,228.81506050055557,0.0,0.0,0.0,-1.7232105604869007e-05,-0.00025738182101402396,-8.339332256850657e-05,0.0225117380767,10.706259874143182,6.82649446498383
0.8,6387277.879439521,0.0001213670360626992,0.0,0.0,0.000455102843722896,7.8016889133804,9140.8794874704,1.900137090536342e-11,0.0,9.786081874096322,0.4348023077613753,0.26338581294362157,0.16668278010276052,0.09257623921496698,0.382098614490451,0.49587975291028746,-7.801688913380401,303.2449774243008,0.459524384950411,30193.94562865462,228.81980043277778,0.0,0.0,0.0,-1.7681931380127545e-05,-0.00029485061834056786,-9.47123581694802e-05,0.0257274336022,13.984879612766239,7.801708268375999
0.9,6387277.050505441,0.00017280580163352721,0.0,0.0,0.000575995895475552,8.7769007868288,9140.050557992881,2.705469017026048e-11,0.0,9.78608441826192,0.49246032993629246,0.2921983007745802,0.19122794347772526,0.08207662961948207,0.38206182811145106,0.49284909467929183,-8.7769007868288,303.248558426232,0.459568780068843,30197.510218558204,228.82517235611112,0.0,0.0,0.0,-1.763777469661021e-05,-0.00033170704524457505,-0.00010591042898913007,0.0289430223769,17.701324902050906,8.776922214577825
1.0,6387276.12406584,0.00023704499881725842,0.0,0.0,0.000711111689956656,9.752112928257361,9139.124107298161,3.7112063767532616e-11,0.0,9.786087261710641,0.5510277614612084,0.3196321700135409,0.2165545715856889,0.07165941119679704,0.38113140130045225,0.489946285821296,-9.752112928257361,303.2525607227232,0.4596183981465077,30201.494172354447,228.83117627111113,0.0,0.0,0.0,-1.7112025799679997e-05,-0.0003677055144529223,-0.0001169977825385404,0.03215849108,21.85584936952252,9.75213632704795
1.1,6387275.10009024,0.00031550689847846406,0.0,0.0,0.0008604502377702,10.72732536744504,9138.100135386241,4.9396165584653294e-11,0.0,9.78609040450344,0.610514919429123,0.3455533627505035,0.24262973248865138,0.06136274223381184,0.37932919007245497,0.4871730025723,-10.727325367445042,303.2569843137744,0.45967323918546654,30205.897490186995,228.83781217833334,0.0,0.0,0.0,-1.612043845640777e-05,-0.0004026114889517868,-0.00012798436043877617,0.0353738263947,26.448736492265333,10.727350629965244
1.2,6387273.9786091205,0.00040961377170604805,0.0,0.0,0.001024011550145016,11.70253813414032,9136.97864222664,6.412966988381815e-11,0.0,9.78609384657936,0.6709115703190361,0.3698330707174686,0.2694070450606129,0.05122313546142641,0.37668089627245877,0.48452827356630385,-11.702538134140323,303.26182919999525,0.4597333031867504,30210.720172151607,228.84508007666668,0.0,0.0,0.0,-1.4681915991501359e-05,-0.00043620313953238925,-0.00013887950278681328,0.038589015009,31.480299598837757,11.702565148331683
1.3,6387272.759592,0.0005207878898166001,0.0,0.0,0.001201795639693728,12.677751258183122,9135.7596277584,8.15352513378988e-11,0.0,9.786097587968882,0.732184997611948,0.39234951648043626,0.2968243504925735,0.0412753451614407,0.37321579983446374,0.48200863311030745,-12.67775125818312,303.2670953813856,0.4597985901534515,30215.962218391924,228.85297996777777,0.0,0.0,0.0,-1.2818283737518545e-05,-0.00046827284712947496,-0.00014969168017662962,0.0418040436155,36.95088187161847,12.677779907920916
1.4,6387271.443038881,0.0006504515243958481,0.0,0.0,0.001393802519787912,13.652964769260961,9134.44309195104,1.0183558506901462e-10,0.0,9.78610162870248,0.7942785132408589,0.41298988333240666,0.32480182450553335,0.03155226518955467,0.3689664869894699,0.4796083057323109,-13.652964769260961,303.27278285794563,0.4598691000860851,30221.623629051584,228.86151185111112,0.0,0.0,0.0,-1.0554049279600063e-05,-0.0004986285482252255,-0.0001604282577989489,0.0450188989118,42.86085634867377,13.652994935484028
1.5,6387270.028980241,0.0008000269473099361,0.0,0.0,0.0016000322053353361,14.628178697244241,9133.02903480456,1.2525334668501012e-10,0.0,9.786105968719202,0.8571106133307685,0.4316523351543798,0.35324073326149247,0.022084836035268268,0.36396857502847707,0.4773194172483142,-14.628178697244241,303.27889162967523,0.45994483298774363,30227.704404369986,228.87067572722222,0.0,0.0,0.0,-7.916151579878759e-06,-0.0005270949216251804,-0.00017109529513364597,0.0482335676011,49.21062592615156,14.628210258543772
1.6,6387268.51741608,0.00097093643072676,0.0,0.0,0.001820484711853368,15.603393071850961,9131.51745619704,1.520112123169795e-10,0.0,9.786110608080001,0.9205749726686773,0.448248045979356,0.3820230288294511,0.01290195948378146,0.3582604338054852,0.47513222746231726,-15.60339307185096,303.2854216974888,0.460025788861004,30234.2045444429,228.8804715961111,0.0,0.0,0.0,-4.933699870222129e-06,-0.0005535144146741314,-0.00018169738378158226,0.0514480363918,56.000623360052934,15.603425905497462
1.7,6387266.90831592,0.001164602247140352,0.0,0.0,0.00205516005639252,16.578607922860083,9129.90835615896,1.82331858658362e-10,0.0,9.7861155467544,0.9845414406045855,0.4627031398643352,0.4110119475984094,0.004030419920024207,0.3518829038874944,0.47303537952732033,-16.57860792286008,303.2923730607768,0.4601119677074122,30241.124049605474,228.89089945833334,0.0,0.0,0.0,-1.6377031220401213e-06,-0.000577748106646414,-0.00019223752504102422,0.0546622919978,63.23131126929652,16.578641905668402
1.8,6387265.201679761,0.001382446669398312,0.0,0.0,0.0023040582566952,17.553823280050562,9128.20173459888,2.1643796299984868e-10,0.0,9.786120784742401,1.048858141088493,0.47496042835731755,0.4400537144843677,-0.004505188191943526,0.3448790111425045,0.47101616100632326,-17.553823280050562,303.2997457201488,0.4602033695295452,30248.462919905603,228.90195931444444,0.0,0.0,0.0,1.939209073976387e-06,-0.0005996764066789581,-0.00020271704789285973,0.057876321139,70.9031821344257,17.553858289203006
1.9,6387263.39753808,0.001625891970704856,0.0,0.0,0.002567179331750448,18.52903917323184,9126.39759148632,2.545522032695247e-10,0.0,9.786126322044,1.1133546935284004,0.48498082875630316,0.4689803694953262,-0.012682526650281778,0.33729367751351536,0.469060771741326,-18.52903917323184,303.3075396759096,0.4602999943315261,30256.221155678442,228.9136511638889,0.0,0.0,0.0,5.763073260165493e-06,-0.000619199583346999,-0.00021313556718310502,0.0610901105405,79.01675830416822,18.529075086916478
2.0,6387261.49589088,0.001896360424666536,0.0,0.0,0.0028445233019341438,19.50425563212192,9124.49592676032,2.9689725806446e-10,0.0,9.786132158659202,1.1778464675083076,0.4927443541702921,0.497613629371285,-0.02048157323517058,0.32917342787352705,0.46715459375632884,-19.50425563212192,303.3157549280592,0.4604018421149009,30264.398757163388,228.9259750077778,0.0,0.0,0.0,9.798885330438921e-06,-0.0006362381229769331,-0.00022349098086788295,0.0643036469335,87.57259199160573,19.504292330395675
2.1,6387259.496707681,0.0021952743052952883,0.0,0.0,0.00313609018789344,20.479472686560722,9122.49674032944,3.43695806695564e-10,0.0,9.78613829461848,1.2421396762482153,0.49825058709628406,0.5257695890552446,-0.027884673990459935,0.32056609300753935,0.46528245863833145,-20.479472686560722,303.3243914769024,0.4605089128832773,30272.995724504093,228.93893084666666,0.0,0.0,0.0,1.401089877527766e-05,-0.0006507329140050191,-0.00023377950445933334,0.0675169170546,96.5712652794407,20.47951005189624
2.2,6387257.39998848,0.00252405588704196,0.0,0.0,0.00344188001236032,21.45469036626624,9120.40003219368,3.951705292242381e-10,0.0,9.786144729860881,1.3060370184981236,0.5015185808572794,0.5532639726592051,-0.03487658694744989,0.3115205090945524,0.4634289080673342,-21.454690366266245,303.33344932304885,0.460621206640263,30282.012058083586,228.95251868,0.0,0.0,0.0,1.836292619757063e-05,-0.0006626452553007451,-0.00024399574001098632,0.0707299076459,106.01339011855987,21.454728284239692
2.3,6387255.20576376,0.002884127444808504,0.0,0.0,0.00376189279856664,22.42990870104792,9118.2058022616,4.515441064903001e-10,0.0,9.78615146444736,1.3693435126480327,0.502586174366278,0.5799175778671668,-0.04144451595774046,0.302086214378566,0.46157844350533683,-22.42990870104792,303.34292846619365,0.4607387233889503,30291.44775814128,228.96673850944447,0.0,0.0,0.0,2.2818642007987826e-05,-0.0006719566873702048,-0.00025413277638727864,0.0739426054551,115.89960832899202,22.429947060710568
2.4,6387252.914003041,0.0032769112539876005,0.0,0.0,0.00409612857068304,23.40512772068472,9115.914050441761,5.130392201625995e-10,0.0,9.78615849837792,1.4318721421679428,0.5015087501772795,0.60556153366713,-0.047578133178331636,0.29231314410358006,0.4597157614053395,-23.405127720684725,303.3528289069464,0.46086146313294674,30301.30282491656,228.98159033444443,0.0,0.0,0.0,2.73418838805122e-05,-0.0006786686466753983,-0.00026418231697211366,0.0771549972353,126.23059160182304,23.405166414953495
2.5,6387250.524736799,0.00370382959045656,0.0,0.0,0.00444458735458704,24.380347454925122,9113.5247766732,5.798785527669423e-10,0.0,9.78616583162208,1.4934489537678541,0.49835750760828396,0.6300420135500947,-0.053269588732123466,0.28225132518159446,0.45782597074034226,-24.380347454925122,303.363150645612,0.46098942587586006,30311.577258744608,228.99707415555557,0.0,0.0,0.0,3.189695025138291e-05,-0.0006828019450448812,-0.0002741348305469941,0.0803670697448,137.00704149728082,24.38038638107612
2.6,6387248.03793456,0.00416630473058952,0.0,0.0,0.0048072691766438405,25.35556793360904,9111.037980925441,6.522847877279792e-10,0.0,9.78617346417984,1.5539173131477673,0.4932173562672913,0.6532241107040614,-0.05851350613291593,0.27195057243160925,0.45589479011734496,-25.35556793360904,303.37389368249524,0.4611226116218132,30322.27105996057,229.0131899738889,0.0,0.0,0.0,3.644889089325268e-05,-0.0006843960781903418,-0.0002839797207628427,0.083578809747,148.22968944665044,25.35560699323752
2.7,6387245.4536268,0.00466575895137936,0.0,0.0,0.0051841740646512,26.330789186424,9108.453663076561,7.304806094041118e-10,0.0,9.78618139608168,1.613141117917682,0.48618455655830145,0.6749946762820302,-0.06330696222780904,0.2614601885726244,0.4539087222543479,-26.330789186424003,303.385058017596,0.4612610203754447,30333.38422885174,229.02993778888887,0.0,0.0,0.0,4.09637874290403e-05,-0.0006835083695997618,-0.00029370550941404877,0.0867902040106,159.89929675035884,26.330828285853993
2.8,6387242.771783041,0.00520361453030664,0.0,0.0,0.0055753020472603205,27.306011243209923,9105.771823065601,8.146887031258904e-10,0.0,9.78618962729712,1.671006874747599,0.47736424088631413,0.695264030075001,-0.0676494506464028,0.25082867045563956,0.4518552041423507,-27.30601124320992,303.3966436518288,0.4614046521398467,30344.916765753274,229.04731760222222,0.0,0.0,0.0,4.540902055280176e-05,-0.0006802129585372749,-0.00030330002863922093,0.0900012393092,172.01665457941147,27.30605029344474
2.9,6387239.99240328,0.00578129374546152,0.0,0.0,0.005980653154433041,28.281234133745762,9102.99246080112,9.051317552379015e-10,0.0,9.78619815785664,1.727424652837518,0.4668679429913292,0.7139665578869743,-0.0715428280519972,0.240103424214655,0.44972273176935385,-28.281234133745762,303.40865058519364,0.46155350691965774,30356.86867109609,229.0653294138889,0.0,0.0,0.0,4.975352073606079e-05,-0.0006745996433935179,-0.00031275061729243514,0.0932119024213,184.58258397299798,28.281273050477512
3.0,6387237.115518,0.006400218875574241,0.0,0.0,0.006400227417198001,29.256457887779998,9100.11557619168,1.0020324531249476e-09,0.0,9.78620698772976,1.7823280130874393,0.4548112457643465,0.7310602976959495,-0.07499124284579226,0.22933049218567048,0.4475009588623571,-29.25645788778,303.4210788183,0.4617075847200315,30369.239945167476,229.08397322444443,0.0,0.0,0.0,5.39679993032513e-05,-0.0006667725940585474,-0.0003220443168331679,0.0964221801303,197.5979358394501,29.256496591265712
3.1,6387234.141127201,0.007061812199954161,0.0,0.0,0.00683402486734584,30.2316825350916,9097.14116917632,1.1056134852626625e-09,0.0,9.786216116946962,1.8356730745573624,0.4413116337243659,0.7465256787859272,-0.07800104636508792,0.21855429445568603,0.44518076965036035,-30.2316825350916,303.43392835114804,0.46186688554509103,30382.03058835047,229.1032490338889,0.0,0.0,0.0,5.802515697210978e-05,-0.0006568489493756252,-0.00033116806244510585,0.0996320592247,211.06359095480502,30.23172095022565
3.2,6387231.0692004,0.0077674959986116805,0.0,0.0,0.007282045538191201,31.206908105337604,9094.0692396636,1.21609754124369e-09,0.0,9.78622554550824,1.887436913507288,0.42648660918238723,0.7603636118469076,-0.08058068701958422,0.2078173878737014,0.44275432618536387,-31.206908105337604,303.447199184652,0.46203140939999016,30395.240601076,229.1231568438889,0.0,0.0,0.0,6.189986725218636e-05,-0.000644957317759775,-0.0003401088654560275,0.102841526498,224.98045996328443,31.206946161413523
3.3,6387227.8997376,0.0085186925521668,0.0,0.0,0.00774428946381072,32.1821346288456,9090.8997875316,1.3337073118230638e-09,0.0,9.78623527338312,1.9376154981672158,0.41045210447341024,0.77259313585489,-0.08274058821418112,0.19716024521071673,0.4402150912653675,-32.1821346288456,303.4608913185072,0.4622011562898827,30408.86998367922,229.14369665444443,0.0,0.0,0.0,6.556933249257599e-05,-0.0006312362008397748,-0.00034885398363667216,0.106050568748,239.34948337490013,32.182172258679735
3.4,6387224.63276928,0.009316824142001521,0.0,0.0,0.008220756679622162,33.157362134724,9087.63281268888,1.4586654889531132e-09,0.0,9.78624530063256,1.9862213498971462,0.3933211991714348,0.7832488148978746,-0.0844930112895786,0.18662105690073189,0.4375578284433713,-33.157362134724,303.4750047539328,0.46237612621992225,30422.918736686814,229.1648684666667,0.0,0.0,0.0,6.901321082349226e-05,-0.0006158323613299343,-0.0003573910764934166,0.109259172779,254.17163156641215,33.157399275823266
3.5,6387221.2682649605,0.010163313050198882,0.0,0.0,0.00871144722186624,34.132590652843206,9084.26831507448,1.59119476581837e-09,0.0,9.7862556271956,2.0332810954970784,0.37520313236246094,0.7923780518628616,-0.08585190505917664,0.17623555751374673,0.4347785809983753,-34.132590652843206,303.48953949062405,0.46255631919474754,30437.386860433948,229.18667228055557,0.0,0.0,0.0,7.221371275680474e-05,-0.0005988991571867469,-0.00036570834327427187,0.112467325399,269.4479047803706,34.132627246231536
3.6,6387217.80625512,0.01105958155951248,0.0,0.0,0.009216361127911441,35.1078202133784,9080.806294536,1.7315178368739659e-09,0.0,9.786266253102722,2.078833042277013,0.35620258652948816,0.8000384526578506,-0.08683274382557524,0.1660368786997614,0.43187463205137955,-35.1078202133784,303.5044955294952,0.4627417352210582,30452.274355351543,229.20910809666668,0.0,0.0,0.0,7.515566676112322e-05,-0.0005805948645190318,-0.0003737946420327483,0.115675013422,285.17933312511605,35.10785620298328
3.7,6387214.24670928,0.012007051953579841,0.0,0.0,0.00973549843668072,36.0830508455904,9077.246750982002,1.8798573978805384e-09,0.0,9.78627717835392,2.1229248733369497,0.3364192110325166,0.8062953398818415,-0.08745235600007434,0.15605542992177576,0.4288444482623838,-36.08305084559041,303.5198728708512,0.4629323743034928,30467.581221966288,229.23217591666668,0.0,0.0,0.0,7.782655369265888e-05,-0.0005610810115574837,-0.0003816395887205221,0.118882223668,301.36697657286425,36.083086179105806
3.8,6387210.589627441,0.01300714651667856,0.0,0.0,0.01026885918758472,37.0582825796544,9073.589684321041,2.036436145970554e-09,0.0,9.7862884029492,2.165611528256888,0.31594734895854604,0.8112194824088343,-0.08772874563207395,0.14631880782878978,0.4256876096973884,-37.0582825796544,303.5356715153016,0.4631282364482358,30483.307460709093,229.25587574000002,0.0,0.0,0.0,8.021651052968924e-05,-0.0005405207453414643,-0.000389233635861483,0.122088942962,318.0119249625788,37.05831720706054
3.9,6387206.835040079,0.014061287534000641,0.0,0.0,0.010816443421100882,38.033515445440806,9069.8350944312,2.201476779615147e-09,0.0,9.78629992691904,2.2069533070568292,0.29487593031657633,0.8148850794738292,-0.08768090926447403,0.13685173462080338,0.4224047285413931,-38.033515445440806,303.5518914631512,0.4633293216609565,30499.453072058768,229.28020756833334,0.0,0.0,0.0,8.231830439644207e-05,-0.0005190772517138454,-0.00039656813097393,0.125295158135,335.1152979966197,38.03354931936033
4.0,6387202.982947201,0.01517089729153056,0.0,0.0,0.011378251179444002,39.0087494722104,9065.98298119056,2.375201998760255e-09,0.0,9.786311750202481,2.2470142135067714,0.27328849619560736,0.8173680155728256,-0.08732865057607453,0.12767602526881655,0.418997359325398,-39.0087494722104,303.5685327150096,0.46353562994887004,30516.018056541994,229.30517140222224,0.0,0.0,0.0,8.412727836481533e-05,-0.0004969122475972168,-0.00040363535537001337,0.128500856024,352.67824524361606,39.00878254805506
4.1,6387199.03328784,0.01633739807604528,0.0,0.0,0.011954282505377521,39.9839846904432,9062.03334450768,2.557834504748078e-09,0.0,9.78632387286048,2.2858605374367156,0.25126332172963894,0.8187443858048237,-0.08669239524807544,0.1188105829848293,0.41546790330040295,-39.983984690443194,303.5855952711816,0.4637471613171303,30533.002414589693,229.3307672422222,0.0,0.0,0.0,8.56412709694985e-05,-0.00047418456266595224,-0.0004104285444482622,0.131706023474,370.7019461365509,39.98401692504024
4.2,6387194.98615344,0.01756221217529712,0.0,0.0,0.012544537442731681,40.9592211290952,9057.986184230162,2.74959700047416e-09,0.0,9.78633629483208,2.323559664556661,0.22887360983067115,0.8190892795928232,-0.08579300840637676,0.11027142188184157,0.4118195094244083,-40.959221129095205,303.60307913227683,0.4639639157724372,30550.40614677643,229.35699508944444,0.0,0.0,0.0,8.686051175602907e-05,-0.0004510488252738952,-0.00041694189095025855,0.134910647334,389.1876099751552,40.9592524820056
4.3,6387190.84145256,0.0188467618778004,0.0,0.0,0.01314901603652544,41.9344588186464,9053.84150023608,2.9507121903175754e-09,0.0,9.78634901620872,2.3601790954166084,0.20618773204470373,0.818475803355824,-0.08465161685467835,0.10207171535885334,0.4080559742714137,-41.9344588186464,303.62098429890483,0.4641858933214906,30568.229253628884,229.38385494444444,0.0,0.0,0.0,8.778749548990147e-05,-0.0004276542650827194,-0.00042317053294537945,0.138114714462,408.13647592447154,41.9344892504866
4.4,6387186.59924616,0.02019246947310576,0.0,0.0,0.013767718333240801,42.909697788662406,9049.59929240352,3.161402780298006e-09,0.0,9.786362036929441,2.3957856509465585,0.1832694972697367,0.8169743185518261,-0.08328943812438032,0.09422186838766462,0.4041816429464193,-42.9096977886624,303.6393107716752,0.4644130939715059,30586.47173572163,229.4113468077778,0.0,0.0,0.0,8.842683788953801e-05,-0.0004041436422436923,-0.00042911052851225205,0.141318211722,427.54981301629033,42.90972726191575
4.5,6387182.25950376,0.02160075725161728,0.0,0.0,0.014400644379756,43.8849380687088,9045.259560641041,3.3818914779535723e-09,0.0,9.78637535699424,2.430444841256508,0.16017843309576985,0.8146518698428294,-0.08172761814768258,0.08672961160317541,0.400201312824425,-43.8849380687088,303.6580585511976,0.4646455177286676,30605.133593533454,229.43947068055556,0.0,0.0,0.0,8.87851159004947e-05,-0.00038065231036341887,-0.0004347588192252207,0.144521125986,447.4289201501077,43.8849665474169
4.6,6387177.8222558405,0.02307304750474488,0.0,0.0,0.0150477942247476,44.8601796889608,9040.822304765761,3.61240099255027e-09,0.0,9.786388976433601,2.4642203741364592,0.13697006816780322,0.811571778223834,-0.07998707910858506,0.07960011483338564,0.3961201416444308,-44.860179688960805,303.6772276377768,0.46488316460070633,30624.214827686803,229.4682265638889,0.0,0.0,0.0,8.887069560650571e-05,-0.0003573074178226721,-0.00044011318457310333,0.147723444133,467.77512609408274,44.86020713821682
4.7,6387173.28747192,0.024610762524782403,0.0,0.0,0.01570916791716648,45.83542267867921,9036.28752465576,3.85315403497725e-09,0.0,9.78640289521704,2.4971737813564117,0.11369620703283663,0.8077933750628393,-0.0780883787613878,0.07283611756499535,0.3919435612434368,-45.83542267867921,303.6968180320224,0.4651260345948375,30643.71543875625,229.49761445833335,0.0,0.0,0.0,8.869355087920643e-05,-0.0003342272495322022,-0.0004451721894510737,0.150925153052,488.5897894826438,45.83544906538791
4.8,6387168.65518248,0.02621532460515144,0.0,0.0,0.0163847655078228,46.81066706803921,9031.65522018912,4.104373317886447e-09,0.0,9.786417113375041,2.529364142826366,0.09040519153047011,0.8033718548648457,-0.07605158222919073,0.06643807371880453,0.38767719786644295,-46.8106670680392,303.71682973484883,0.465374127717761,30663.63542731635,229.527634365,0.0,0.0,0.0,8.826507580777051e-05,-0.00031152070873504924,-0.00044993512676210894,0.154126239637,509.87429882702213,46.81069235984827
4.9,6387163.92535704,0.02788815604021848,0.0,0.0,0.01707458704834968,47.785912886606404,9026.92539118296,4.366281555657672e-09,0.0,9.7864316309076,2.5608478909863206,0.06714214487940354,0.7983582267088529,-0.07389614702189382,0.060404308073613217,0.38332679977644923,-47.7859128866064,303.7372627465608,0.46562744397772277,30683.97479398955,229.55828628444448,0.0,0.0,0.0,8.7597893831469e-05,-0.00028928693629421955,-0.0004544019570275019,0.157326690793,531.6300724980147,47.78593705267031
5.0,6387159.097995601,0.02963067912535584,0.0,0.0,0.01777863259117272,48.761160164556,9022.09803754584,4.639101464485875e-09,0.0,9.78644644781472,2.591678679866276,0.04394919626883686,0.7927993465628609,-0.07164082174539707,0.05473118168502136,0.3788981725844557,-48.761160164556,303.7581170680728,0.4658859833824537,30704.733539446173,229.5895702177778,0.0,0.0,0.0,8.670566632895297e-05,-0.0002676150629088201,-0.00045857324675408937,0.160526493433,553.8585587489669,48.761183174772114
5.1,6387154.17312864,0.031444316157216004,0.0,0.0,0.01849690219008912,49.73640893114881,9017.17315909488,4.923055762381154e-09,0.0,9.7864615640964,2.6219073059362334,0.02086568502517002,0.7867380148988694,-0.06930355872270043,0.049413263710729,0.3743971224884621,-49.7364089311488,303.7793926996896,0.4661497459396843,30725.911664212897,229.62148616611114,0.0,0.0,0.0,8.560290321116418e-05,-0.0002465840879283391,-0.0004624501070794218,0.163725634479,576.5612356961417,49.73643075717466
5.2,6387149.150695201,0.0333304894329696,0.0,0.0,0.01922939590014576,50.71165921656,9012.15075570816,5.218367169221105e-09,0.0,9.78647697975264,2.6515816695461902,-0.0020716556133970223,0.780213126116879,-0.06690144051100388,0.04444350716043615,0.3698294074274686,-50.71165921656,303.8010896420208,0.46641873165766073,30747.50916905581,229.65403413055554,0.0,0.0,-0.0,8.430477782303493e-05,-0.00022626287700708064,-0.00046603413401408796,0.166924100862,599.7396113378718,50.71167983074458
5.3,6387144.03078672,0.035290621251890406,0.0,0.0,0.01997611377699912,51.6869110503552,9007.0308272028,5.525258406838095e-09,0.0,9.78649269478344,2.6807467679361485,-0.024828534414464327,0.773259858144889,-0.0644506200927074,0.0398134262311428,0.36520069593447535,-51.68691105035521,303.82320789598083,0.46669294054411364,30769.52605454948,229.6872141116667,0.0,0.0,-0.0,8.282694819855098e-05,-0.00020671026961103768,-0.0004693273513563555,0.170121879521,623.3952235449835,51.686930426451404
5.4,6387138.81334224,0.0373261339131912,0.0,0.0,0.02073705587786016,52.66216446210001,9001.81337345688,5.843952198949445e-09,0.0,9.786508709188801,2.709444712236107,-0.047372956593331926,0.7659098923338996,-0.06196627432991097,0.03551327306344898,0.36051653335548195,-52.6621644621,303.845747462484,0.46697237260780444,30791.96232136422,229.72102611055556,0.0,0.0,-0.0,8.118538644028231e-05,-0.00018797528647973084,-0.0004723321571400738,0.173318957407,647.5296400512206,52.66218257577912
5.5,6387133.498361761,0.0394384497182184,0.0,0.0,0.02151222226051896,53.63741948227441,8996.498394257042,6.174671271279606e-09,0.0,9.7865250229992,2.7377147610960666,-0.0696750948136999,0.7581916561469106,-0.05946253107221457,0.0315321864741547,0.35578225349548886,-53.6374194822744,303.86849862419524,0.46727508657047917,30816.74808335593,229.75547596444443,0.0,0.0,-0.0,7.939923450855573e-05,-0.00017010386399429512,-0.00047506955275206173,0.176515443303,672.1704357584769,53.637436309079895
5.6,6387128.08584528,0.041628990968928005,0.0,0.0,0.02230161298471632,54.61267614013921,8991.08588951184,6.517638351595062e-09,0.0,9.78654163618416,2.7655933538760267,-0.09170717019266825,0.7501305902889223,-0.05695239982061818,0.02785834344805997,0.35100287214949566,-54.61267614013921,303.89155665275524,0.46759287874395006,30843.006530888026,229.79056102277778,0.0,0.0,-0.0,7.748285818761106e-05,-0.00015312129578729877,-0.0004775341210908536,0.179711274426,697.3098639137671,54.61269165824929
5.7,6387122.57582328,0.043899179968495204,0.0,0.0,0.02310522811016256,55.587934465260005,8985.575858977441,6.873076169669429e-09,0.0,9.78655854877416,2.7931141742759866,-0.11344335417983702,0.7417494104559343,-0.054447975874421774,0.024479262162464828,0.34618340789650254,-55.58793446526,303.9150301548048,0.46791639708634697,30869.73811883413,229.826278265,0.0,0.0,-0.0,7.545058871870084e-05,-0.00013704569246272686,-0.00047971955262578187,0.182906375986,722.9367731329545,55.58794865363948
5.8,6387116.968265281,0.046250439021924,0.0,0.0,0.02392306769833584,56.56319448811681,8979.968302562402,7.241207457405622e-09,0.0,9.78657576073872,2.8203082249259483,-0.13485968539480625,0.7330683686279468,-0.05196032405662534,0.021381867493569278,0.3413287018465096,-56.56319448811681,303.9389191306488,0.46824564160797744,30896.942848056093,229.86262769222225,0.0,0.0,-0.0,7.33181421080102e-05,-0.00012189076319479606,-0.0004816292234438684,0.186100735149,749.0530128389222,56.56320732663154
5.9,6387111.263171281,0.048684190434523204,0.0,0.0,0.024755131811872562,57.5384562379704,8974.263220022882,7.622254948853314e-09,0.0,9.78659327210832,2.847203895235909,-0.15593399342477596,0.7241055209199595,-0.04949947648072888,0.018552631946273344,0.33644339559051656,-57.53845623797041,303.9632235815064,0.4685806123196645,30924.62071927212,229.899609305,0.0,0.0,-0.0,7.110086599927483e-05,-0.000107662551355586,-0.0004832666845014667,0.189294339095,775.6604652190149,57.53846770912103
6.0,6387105.46057176,0.0512018565137352,0.0,0.0,0.025601420514171122,58.5137197446912,8968.46061123696,8.01644138017402e-09,0.0,9.786611082852481,2.8738270317658707,-0.17664583158074618,0.7148769914679729,-0.04707444962703236,0.01597771519747704,0.3315319296135237,-58.51371974469121,303.9879435076824,0.46892130923016956,30952.77173343982,229.93722310444443,0.0,0.0,-0.0,6.881363931993254e-05,-9.436000926782538e-05,-0.0004846356361497981,0.192487175013,802.7610451963105,58.513729831460125
6.1,6387099.56043624,0.053804859567611996,0.0,0.0,0.02646193386981864,59.4889850384544,8962.560476021761,8.423989489815645e-09,0.0,9.78662919303216,2.900201010115833,-0.19697641728271698,0.7053972292339865,-0.04469326886153579,0.013643093877080398,0.3265985448395307,-59.48898503845441,304.013078910396,0.46926773235134633,30981.395891373144,229.97546909222223,0.0,0.0,-0.0,6.647078497295546e-05,-8.197559801088842e-05,-0.0004857399070085971,0.195679230103,830.3567004535596,59.48899372554435
6.2,6387093.56276472,0.0564946219057296,0.0,0.0,0.027336671944682398,60.464252148216005,8956.56281416392,8.845122018390295e-09,0.0,9.7866476025864,2.9263468076757952,-0.21690857882968836,0.6956792552670005,-0.042362999421939135,0.011534681098183426,0.3216472867225379,-60.464252148216005,304.038629789952,0.4696198816929871,31010.49319398183,230.0143472688889,0.0,0.0,-0.0,6.408599541559603e-05,-7.049590283984856e-05,-0.0004865834368312834,0.198870491574,858.4494114331861,60.46425942326924
6.3,6387087.467587681,0.0592725658388832,0.0,0.0,0.028225634805178323,61.43952110476081,8950.467625541522,9.28006170884882e-09,0.0,9.78666631157616,2.952283076795758,-0.23642670739366034,0.6857348983770147,-0.040089782912842396,0.009638435428356152,0.31668201132854495,-61.43952110476081,304.0645961472648,0.4699777572659146,31040.063642079836,230.0538576361111,0.0,0.0,-0.0,6.167227080507407e-05,-5.9902255457785374e-05,-0.000487170262992881,0.202060946649,887.0411913133472,61.43952695498699
6.4,6387081.274874641,0.0621401136800016,0.0,0.0,0.02912882251961208,62.414791937044804,8944.27490988024,9.729031306428455e-09,0.0,9.78668531997096,2.9780262184557214,-0.2555167132476329,0.6755750175540294,-0.03787887838244557,0.007940459156408591,0.3117063929085521,-62.414791937044804,304.0909779835536,0.4703413590814674,31070.107236624768,230.094000195,0.0,0.0,-0.0,5.924186925551445e-05,-5.017135512276568e-05,-0.0004875045101397032,0.205250582559,916.1340860510255,62.414796352593136
6.5,6387074.9846256,0.0650986877420136,0.0,0.0,0.030046235156502725,63.39006467524321,8937.98466708864,1.0192253558757528e-08,0.0,9.786704627770801,3.0035904561956843,-0.2741659852956061,0.6652097097570443,-0.03573470709704865,0.006427085861530764,0.3067239325125593,-63.3900646752432,304.1177752991232,0.4707106871499529,31100.62397847847,230.1347749472222,0.0,0.0,-0.0,5.6806268636691625e-05,-4.1275881367870485e-05,-0.00048759038258592625,0.208439386547,945.7301743341482,63.39006764798319
6.6,6387068.5968405595,0.06814971034059121,0.0,0.0,0.030977872786320002,64.36533934892161,8931.5968968924,1.0669951215820569e-08,0.0,9.786724234975681,3.028987910915648,-0.2923633531335799,0.6546485020240594,-0.03366090017515164,0.005084957419362694,0.30173796726556645,-64.36533934892161,304.14498809488805,0.4710857414837403,31131.61386869431,230.17618189277778,0.0,0.0,-0.0,5.437613924955274e-05,-3.3185091923011515e-05,-0.00048743215900556175,0.211627345868,975.831567619892,64.36534087202381
6.7,6387062.1115500005,0.0712946037917112,0.0,0.0,0.0319237354801128,65.3406159882552,8925.11159913912,1.1162347030045566e-08,0.0,9.786744141616081,3.0542286765056117,-0.3100990509065545,0.6439005270460748,-0.03166034830145451,0.0039010906975443936,0.29675167996357366,-65.3406159882552,304.1726163717624,0.4714665220931371,31163.076908086252,230.2182210338889,0.0,0.0,-0.0,5.196132664407228e-05,-2.5865400256227648e-05,-0.0004870341890090162,0.214814447789,1006.4404101203189,65.34061605609605
6.8,6387055.528723441,0.0745347904131792,0.0,0.0,0.032883823309692,66.31589462280961,8918.52877361544,1.1669663756338871e-08,0.0,9.786764347692001,3.0793208970055757,-0.32736468236452965,0.6329746816090905,-0.029735252801057273,0.0028629342905458852,0.2917681087125808,-66.3158946228096,304.2006601306608,0.4718530289905125,31195.01309765978,230.26089237166667,0.0,0.0,-0.0,4.9570843787369716e-05,-1.9280927971066558e-05,-0.0004864008911920692,0.218000679586,1037.5588788023758,66.31589323260991
6.9,6387048.84836088,0.0778716925249344,0.0,0.0,0.0338581363488192,67.2911752821504,8911.84842013848,1.2192124152102663e-08,0.0,9.78678485317296,3.1042708454955394,-0.34415318655950555,0.6218797674971064,-0.027887177415559936,0.0019584157264071846,0.2867901563945879,-67.2911752821504,304.2291193721928,0.4722452621877201,31227.422438420374,230.3041959077778,0.0,0.0,-0.0,4.721287175476991e-05,-1.3394028099598555e-05,-0.0004855367523047571,0.221186028549,1069.189183387895,67.29117243243202
7.0,6387042.0704928,0.08130673244722081,0.0,0.0,0.0348466746715608,68.2664579964528,8905.07053849488,1.2729950977304754e-08,0.0,9.78680565808944,3.129083005275504,-0.3604588036984821,0.6106246146381227,-0.026117100189562474,0.0011759796454483102,0.2818205997645951,-68.2664579964528,304.2579940975776,0.47264322169609835,31260.304931325652,230.3481316427778,0.0,0.0,-0.0,4.489476809804705e-05,-8.16577610513458e-06,-0.00048444632720391905,0.22437048198,1101.3335663631697,68.26645368694349
7.1,6387035.19508872,0.0848413325027208,0.0,0.0,0.035849438353812005,69.2417427952824,8898.195128471281,1.3283366994461131e-08,0.0,9.78682676244144,-3.129425153565504,-0.3762770407434593,0.599218186460139,-0.024425464939964905,0.0005046175037942739,0.2768620980676022,-69.2417427952824,304.28728430742484,0.4730469075285316,31293.660577428975,230.39269957833335,0.0,0.0,-0.0,4.2623082034382e-05,-3.5564261486036824e-06,-0.000483134239287059,0.227554027191,1133.9943029741667,69.24173702803981
7.2,6387028.22214864,0.088476915015336,0.0,0.0,0.0368664274717728,70.2170297085096,8891.2221898848,1.3852594968740689e-08,0.0,9.78684816625944,-3.1048818587555385,-0.39160463639043736,0.5876696675921557,-0.022812231843567225,-6.611060582940353e-05,0.27191720105360934,-70.2170297085096,304.3169900026488,0.4734563196963583,31327.48937764006,230.43789971611113,0.0,0.0,-0.0,4.040357560946024e-05,4.741691361869618e-07,-0.0004816051811675431,0.230736651508,1167.1737012169494,70.21702248658762
7.3,6387021.15167256,0.0922149023098824,0.0,0.0,0.0378976421031672,71.19231876570001,8884.151722461122,1.443785766793031e-08,0.0,9.78686986948248,-3.0804727889755736,-0.406439525098416,0.5759885342051725,-0.021276926743669426,-0.0005460613965332149,0.26698835635061635,-71.19231876570001,304.3471111844688,0.4738714582134936,31361.79133310804,230.48373205666667,0.0,0.0,-0.0,3.824125000440745e-05,3.966176466330996e-06,-0.0004798639153755574,0.233918342268,1200.8741018568314,71.19231009499691
7.4,6387013.98369096,0.0960567167139192,0.0,0.0,0.038943082326633606,72.1676099970288,8876.98372604784,1.5039377862539597e-08,0.0,9.78689187217152,-3.056199751965609,-0.42078079992139544,0.5641846074631894,-0.019818688834971527,-0.0009445004573066423,0.26207791613962345,-72.1676099970288,304.3776478531896,0.4742923230912758,31396.5664448384,230.53019660222222,0.0,0.0,-0.0,3.614037618161384e-05,6.9594378504371805e-06,-0.00047791527490585815,0.237099086823,1235.0978784235865,72.16759988361989
7.5,6387006.71814288,0.10000378055561521,0.0,0.0,0.0400027482220296,73.1429034320616,8869.718200401121,1.5657378325800857e-08,0.0,9.786914174296081,-3.032065895055644,-0.4346286739143755,0.5522680906892066,-0.01843631644227351,-0.001270100309238174,0.25718814314863053,-73.1429034320616,304.4086000103352,0.47471891434310476,31431.81471388451,230.57729335444446,0.0,0.0,-0.0,3.410452910286749e-05,9.493164629422804e-06,-0.00047576416347266617,0.240278872536,1269.8474371970858,73.14289188435205
7.6,6386999.355089281,0.104057516164968,0.0,0.0,0.0410766398707368,74.1181991006688,8862.35514527712,1.6292081833704027e-08,0.0,9.78693677585616,-3.0080756052556783,-0.44798443993035636,0.5402495910102239,-0.01712831066577539,-0.0015309438094777993,0.25232121594263746,-74.1181991006688,304.4399676565152,0.4751512319823804,31467.536141299726,230.62502231388888,0.0,0.0,-0.0,3.213662478765517e-05,1.1605669123554965e-05,-0.00047341555537679596,0.243457686781,1305.1252172312386,74.11818612908894
7.7,6386991.89453016,0.10821934587441359,0.0,0.0,0.04216475735413681,75.093497032416,8854.89456049296,1.694371116506648e-08,0.0,9.78695967691272,-2.9842344061557124,-0.4608504286903379,0.5281401263812412,-0.01589291671327716,-0.0017345322752675071,0.24747923356464444,-75.09349703241601,304.4717507929488,0.4755892760219872,31503.730728233182,230.67338348222222,0.0,0.0,-0.0,3.0238959535077463e-05,1.333413297433584e-05,-0.00047087449489147077,0.246635516948,1340.933690334838,75.09348264818277
7.8,6386984.33640456,0.11249069201669282,0.0,0.0,0.04326710075544,76.0687972574784,8847.3364458048,1.7612489101567902e-08,0.0,9.7869828774048,-2.9605488520757466,-0.4732299650443201,0.5159511190172587,-0.014728162787178839,-0.001887797717907287,0.24266421953565137,-76.0687972574784,304.5039494202456,0.47603304647480954,31540.39847573824,230.72237686111112,0.0,0.0,-0.0,2.8413250672821585e-05,1.4714410909147942e-05,-0.0004681460951397049,0.249812350438,1377.2753610907157,76.06878147352904
7.9,6386976.68074296,0.11687297692698481,0.0,0.0,0.04438367015907601,77.0440998051168,8839.680800968801,1.829863842764564e-08,0.0,9.787006377362882,-2.9370264197357803,-0.48512732237430306,0.5036943763762762,-0.013631896436380415,-0.0019971185997571294,0.2378781252866582,-77.0440998051168,304.5365635396248,0.4764825433552781,31577.539384964028,230.77200245222224,0.0,0.0,-0.0,2.6660678256020306e-05,1.5780868353406387e-05,-0.00046523553641715715,0.252988174667,1414.1527668365875,77.0440826359944
8.0,6386968.92757584,0.12136762294229761,0.0,0.0,0.0455144656497792,78.0194047055064,8831.927625771601,1.9002381930791336e-08,0.0,9.78703017678696,-2.9136753981458137,-0.4965476751632866,0.491382060939294,-0.012601818321681894,-0.002068338554927028,0.23312283303966508,-78.0194047055064,304.5695931520008,0.4769377666767927,31615.153457059663,230.82226025722224,0.0,0.0,-0.0,2.4981927190210748e-05,1.656625106667011e-05,-0.0004621480639685894,0.256162977063,1451.568477684207,78.0193861674744
8.1,6386961.07687272,0.12597605240116322,0.0,0.0,0.0466594873147224,78.99471198851761,8824.07691993888,1.972394240158588e-08,0.0,9.787054275707522,-2.8905047772358468,-0.5074970497812709,0.47902665011531176,-0.01163551337758328,-0.0021067875461169725,0.22840015822267185,-78.99471198851761,304.60303825859285,0.4773987164527532,31653.24069312641,230.87315027666668,0.0,0.0,-0.0,2.337722930711063e-05,1.7101584782597513e-05,-0.00045888898521386276,0.259336745069,1489.525096509789,78.9946920983212
8.2,6386953.1286336,0.1306996876433328,0.0,0.0,0.047818735240468806,79.97002168371601,8816.128683287761,2.0463542633053615e-08,0.0,9.7870786740636,-2.8675241360058803,-0.5179822735822558,0.46664088767532946,-0.010730479381884584,-0.002117304964126957,0.22371185144967856,-79.97002168371601,304.6368988603152,0.4778653926975902,31691.80109436126,230.9246725127778,0.0,0.0,-0.0,2.184640497629813e-05,1.7416102685159774e-05,-0.00045546366645194476,0.262509466141,1528.025258949221,79.97000046043033
8.3,6386945.0828584805,0.1355399510113008,0.0,0.0,0.04899220951602,80.945333820972,8808.08291554392,2.122140542188408e-08,0.0,9.78710337194664,-2.844743530965913,-0.5280109224782414,0.45423772812634733,-0.009884152974065799,-0.002104264213076976,0.21905960012568526,-80.945333820972,304.6711749580824,0.4783377954257343,31730.834661913344,230.97682696777778,0.0,0.0,-0.0,2.0388903889300395e-05,1.753719845273342e-05,-0.0004518775290795324,0.265681127747,1567.071633422005,80.94531128466846
8.4,6386936.93957784,0.14049826484847602,0.0,0.0,0.0501799102309872,81.920648430156,8799.939616433041,2.199775356755934e-08,0.0,9.7871283692652,-2.8221733856959452,-0.5375912671492276,0.4418302755173652,-0.009093933182016935,-0.0020715983619470223,0.2144450297386919,-81.920648430156,304.7058665528088,0.47881592465161615,31770.34139697967,231.02961364166669,0.0,0.0,-0.0,1.9003844704252696e-05,1.7490402541319285e-05,-0.0004481360453486982,0.268851717373,1606.6669211025269,81.9206246019022
8.5,6386928.698730721,0.1455760515007056,0.0,0.0,0.051381837475896,82.8959655408336,8791.69878577224,2.279280987270305e-08,0.0,9.787153666110722,-2.799824382455977,-0.5467322181382145,0.429431718093383,-0.008357202538487991,-0.0020228264812770934,0.2098697048636985,-82.89596554083361,304.7409736460184,0.4792997803896663,31810.32130080512,231.0830325377778,0.0,0.0,-0.0,1.769005328715039e-05,1.7299379356713e-05,-0.00044424473372321364,0.272021222516,1646.8138559487866,82.89594044299822
8.6,6386920.360378081,0.15077473331536081,0.0,0.0,0.0525979913424912,83.87128518318,8783.360423256721,2.3606797142905932e-08,0.0,9.78717926242224,-2.7777073565660095,-0.555443270065202,0.41705526024340084,-0.007671345882488978,-0.0019610803222471825,0.20533512995670494,-83.87128518318002,304.7764962383208,0.4797893626548307,31850.774374586705,231.13708365666668,0.0,0.0,-0.0,1.6446099335474526e-05,1.6985942978603667e-05,-0.0004402091538620227,0.275189630688,1687.515204678457,83.87125883933759
8.7,6386911.92448944,0.15609573264164162,0.0,0.0,0.0538283719237368,84.846607386456,8774.924528642641,2.4439938187249358e-08,0.0,9.787205158260722,-2.7558331945760406,-0.5637344452611901,0.4047140531084185,-0.007033766953969895,-0.0018891310331572847,0.20084274994771145,-84.846607386456,304.81243433124,0.4802846714615401,31891.700619569314,231.191767,0.0,0.0,-0.0,1.5270331208476997e-05,1.6570089138082497e-05,-0.00043603490129765665,0.278356929418,1728.7737667832482,84.8465798212725
8.8,6386903.3910648,0.16154047183027198,0.0,0.0,0.055072979313511204,85.82193218083681,8766.39110168616,2.529245581778176e-08,0.0,9.7872313535652,-2.7342127368660716,-0.5716162371201786,0.39242112514443617,-0.006441902899390744,-0.0018094156451574001,0.19639395069871782,-85.82193218083681,304.848787924776,0.48078570682525573,31933.100036997825,231.24708257,0.0,0.0,-0.0,1.4160908835729403e-05,1.6070041223935327e-05,-0.0004317276018421286,0.281523106246,1770.5923745384837,85.82190342018404
8.9,6386894.76010416,0.16711037323471922,0.0,0.0,0.056331813606912,86.7972595961928,8757.76014211296,2.6164572849867704e-08,0.0,9.78725784839664,-2.712856685596102,-0.579099553487168,0.3801893138544537,-0.005893236812601532,-0.0017240630949375223,0.19199005934372415,-86.7972595961928,304.885557021672,0.48129246876143905,31974.972628069252,231.30303036777778,0.0,0.0,-0.0,1.3115834605001442e-05,1.5502308174306466e-05,-0.00042729290577861033,0.284688148728,1812.9738929743723,86.79722966693885
9.0,6386886.031607521,0.1728068592096696,0.0,0.0,0.0576048748999512,87.7725896620896,8749.0316496792,2.7056512102187873e-08,0.0,9.78728464272456,-2.691775518476133,-0.5861956604201578,0.36803119978647125,-0.005385308440142261,-0.0016349195856776495,0.1876323445457304,-87.7725896620896,304.922741621928,0.4818049572855513,32017.318394172118,231.35961039555556,0.0,0.0,-0.0,1.2132982171575537e-05,1.488175222543016e-05,-0.00042273648186464855,0.287852044438,1855.9212199143121,87.77255859137466
9.1,6386877.205574881,0.17863135211194323,0.0,0.0,0.058892163290164806,88.7479224080928,8740.205624080081,2.796849639691362e-08,0.0,9.787311736579442,-2.6709794091361623,-0.5929161266441482,0.3559590437624886,-0.004915723182452937,-0.0015435731202577824,0.1833220166987366,-88.74792240809282,304.960341728592,0.48232317241356937,32060.137336551317,231.41682265444445,0.0,0.0,-0.0,1.1210123155522475e-05,1.4221664603421536e-05,-0.00041806401122556144,0.291014780961,1899.4372859509501,88.74789022538704
9.2,6386868.28200624,0.1845852743004936,0.0,0.0,0.0601936788753936,89.72325786468241,8731.28206510224,2.8900748559357868e-08,0.0,9.78733912996128,-2.650478154396192,-0.599272769046139,0.34398472818850573,-0.0044821595228035594,-0.001451377070477914,0.1790602280997427,-89.7232578646824,304.998357338616,0.48284711416043913,32103.429456499605,231.4746671466667,0.0,0.0,-0.0,1.034495172333159e-05,1.3533847382205522e-05,-0.00041328118113801327,0.294176345899,1943.5250544461833,89.72322459829927
9.3,6386859.26093208,0.1906700481357984,0.0,0.0,0.0615094217553072,90.6985960611192,8722.260972440881,2.9853491418324225e-08,0.0,9.78736682287008,-2.630281108876221,-0.6052775994961304,0.33211970315152284,-0.004082375015034135,-0.0013594726739880455,0.1748480730997488,-90.6985960611192,305.036788458096,0.48337678254265276,32147.194755357636,231.53314387444445,0.0,0.0,-0.0,9.53510707263293e-06,1.2828699867396587e-05,-0.00040839367877020286,0.29733672687,1988.1875215503096,90.69856174200687
9.4,6386850.142291441,0.19688709598107842,0.0,0.0,0.0628393920301848,91.67393702727361,8713.1423457912,3.082694780593241e-08,0.0,9.787394815275361,-2.61039712731625,-0.6109427733211221,0.3203749378355397,-0.0037142109586446623,-0.0012688103766481755,0.17068658826175476,-91.67393702727361,305.075635083984,0.483912177576187,32191.433234466058,231.59225283833334,0.0,0.0,-0.0,8.77819385907249e-06,1.2115308011462017e-05,-0.00040340718489900306,0.300495911508,2033.427716187664,91.67390168634763
9.5,6386840.92614528,0.20323784020046878,0.0,0.0,0.0641835898018296,92.649280793016,8703.92618493984,3.182134055796733e-08,0.0,9.787423107238082,-2.5908345144062777,-0.6162805396901145,0.30876087770655636,-0.0033755958860851483,-0.0011801699609883035,0.16657675253676069,-92.649280793016,305.114897222376,0.48445329927753394,32236.144895165515,231.65199404111112,0.0,0.0,-0.0,8.0718006213358e-06,1.14015355104655e-05,-0.00039832736763930314,0.30365388746,2079.2487000614065,92.6492444616737
9.6,6386831.61243264,0.2097237031614576,0.0,0.0,0.0655420151729592,93.6246273882168,8694.61248955152,3.283689251370456e-08,0.0,9.78745169872776,-2.5716009825863053,-0.6213031941651074,0.2972874077115729,-0.0030645479827955966,-0.001094179422848428,0.1625194874597665,-93.62462738821681,305.154574867176,0.48500014766370114,32281.329738796656,231.71236748444446,0.0,0.0,-0.0,7.413516274497007e-06,1.0694115380092383e-05,-0.00039315987620724594,0.306810642393,2125.6535676630997,93.62459009833732
9.7,6386822.20121448,0.2163461072321424,0.0,0.0,0.0669146682469008,94.59997684274641,8685.201259351921,3.387382651591033e-08,0.0,9.78748058977488,-2.5527036173263324,-0.6260230336441005,0.2859638216515891,-0.002779176555056006,-0.001011332576748546,0.15851565738577225,-94.5999768427464,305.19466802752805,0.4855527227501499,32326.987766795886,231.77337316999999,0.0,0.0,-0.0,6.800944753340822e-06,9.998740951208565e-06,-0.0003879103347634584,0.309966163987,2172.6454462535544,94.59993862720509
9.8,6386812.692460321,0.2231064747842784,0.0,0.0,0.0683015491285056,95.5753291861704,8675.69249406672,3.4932365411016066e-08,0.0,9.787509780379441,-2.5341488499963587,-0.6304523138730942,0.2747987977566052,-0.0025176826550163812,-0.0009320053873196595,0.1545660697677779,-95.5753291861704,305.23517670038405,0.48611102455491856,32373.118980551742,231.83501109944444,0.0,0.0,-0.0,6.2317178963479574e-06,9.320155365125496e-06,-0.00038258433632271777,0.31312043994,2220.227495891559,95.57529007862922
9.9,6386803.08613968,0.23000622819053523,0.0,0.0,0.0697026579241488,96.5506844483592,8666.086193421601,3.601273204894385e-08,0.0,9.78753927051096,-2.5159424379063853,-0.634603209679088,0.26380038035862097,-0.0022783589659467252,-0.0008564710383567689,0.15067147547978352,-96.5506844483592,305.27610088574403,0.4866750530950145,32419.72338140486,231.897281275,0.0,0.0,-0.0,5.703506667312199e-06,8.662238782861212e-06,-0.00037718743678564077,0.316273457966,2268.402909409939,96.55064448244748
10.0,6386793.38231352,0.2370467898260208,0.0,0.0,0.0711179947405104,97.5260426591832,8656.38235708128,3.7115149283280934e-08,0.0,9.787569060199921,-2.4980894511464107,-0.6384877780560826,0.2529759674946366,-0.0020595890440270404,-0.0007849137633008711,0.14683256919378906,-97.5260426591832,305.317440586656,0.48724480838692996,32466.800970839537,231.96018369833337,0.0,0.0,-0.0,5.214030816749964e-06,8.028092649700337e-06,-0.0003717251490883291,0.319425205794,2317.174912425134,97.52600186901205
10.1,6386783.58095136,0.2442295820682816,0.0,0.0,0.07254755968548961,98.501403848208,8646.58098480192,3.8239839971628875e-08,0.0,9.7875991494768,-2.480594265986436,-0.6421179241690774,0.2423323041626518,-0.0018598460065273271,-0.0007174414715509682,0.14304998980579448,-98.50140384820801,305.35919580616803,0.4878202904487032,32514.351750244292,232.0237183716667,0.0,0.0,-0.0,4.76106708770371e-06,7.420120476359553e-06,-0.00036620293748895256,0.322575671173,2366.5467633515605,98.50136226867514
10.2,6386773.682022721,0.25155602729669285,0.0,0.0,0.0739913528685096,99.47676804560881,8636.682076217761,3.93870269749053e-08,0.0,9.787629538311121,-2.4634605641364606,-0.6455053703300725,0.23187548090266688,-0.0016776907493075892,-0.00065409721332806,0.13932432092079983,-99.47676804560881,305.40136654428005,0.48840149929734156,32562.375721151297,232.08788529722221,0.0,0.0,-0.0,4.342456071787906e-06,6.840104709133432e-06,-0.0003606262120116074,0.325724841866,2416.5217533776718,99.47672571127447
10.3,6386763.68558856,0.25902754789337284,0.0,0.0,0.07544937440021281,100.45213528095121,8626.68563108496,4.0556933158216674e-08,0.0,9.78766022670288,-2.4466913375364845,-0.648661627968068,0.2216109373086816,-0.0015117697696978264,-0.0005948695328151444,0.13565609139480508,-100.4521352809512,305.443952800992,0.48898843495088345,32610.872884949076,232.15268447611112,0.0,0.0,-0.0,3.956107821421171e-06,6.289279363936285e-06,-0.00035500032305016047,0.328872705654,2467.1032064994747,100.45209222716225
10.4,6386753.5916184,0.2666455662413544,0.0,0.0,0.0769216243909368,101.42750558380081,8616.591649068241,4.1749781389985556e-08,0.0,9.78769121468256,-2.4302888980765083,-0.6515979725690637,0.21154347003669607,-0.001360812664518044,-0.0005397017645772242,0.1320457759208103,-101.42750558380081,305.486954579352,0.48958109742736705,32659.843243169806,232.21811591055558,0.0,0.0,-0.0,3.6000063223849656e-06,5.76839819267979e-06,-0.00034933055614835064,0.332019250337,2518.294479477439,101.42746184617626
10.5,6386743.40008176,0.2744115047276328,0.0,0.0,0.0784081029537624,102.4028789846376,8606.4001298628,4.2965794543172374e-08,0.0,9.78772250225016,-2.4142548917165314,-0.6543254215420599,0.20167724486771027,-0.0012236293661982412,-0.0004885003322122964,0.12849379568481537,-102.4028789846376,305.530371876312,0.4901794867453461,32709.28679729777,232.28417960277778,0.0,0.0,-0.0,3.272212928991734e-06,5.2777982342565255e-06,-0.00034362212695885697,0.335164463729,2570.0989618891613,102.40283459866866
10.6,6386733.111039601,0.2823267857404224,0.0,0.0,0.07990881020238,103.3782555127224,8596.11107316384,4.4205195493879154e-08,0.0,9.78775408940568,-2.398590316456554,-0.6568547149490563,0.19201581233772408,-0.0010991071740584194,-0.00044114211083636515,0.1250005190648204,-103.3782555127224,305.574204701016,0.49078360292182804,32759.203548817248,232.35087555444446,0.0,0.0,-0.0,2.9708688604711467e-06,4.817458677538893e-06,-0.0003378801763962503,0.338308333665,2622.5200760910657,103.37821051396278
10.7,6386722.72443096,0.29039283167007124,0.0,0.0,0.0814237462510896,104.35363519792561,8585.72447866656,4.546820712274576e-08,0.0,9.787785976149122,-2.3832955435965757,-0.6591962990080529,0.18256212647673767,-0.0009862076316365818,-0.0003974809165934277,0.12156626238382534,-104.35363519792561,305.618453047368,0.4913934459763972,32809.59349926042,232.41820376833334,0.0,0.0,-0.0,2.6941968537528517e-06,4.387055029763493e-06,-0.00033210976597840215,0.341450847995,2675.5612772375516,104.35358962241081
10.8,6386712.24028632,0.2986110649099752,0.0,0.0,0.0829529112154104,105.32901807011761,8575.2403460052,4.675505231407726e-08,0.0,9.78781816248048,-2.3683703418365973,-0.6613603122470497,0.173318566172751,-0.0008839632955527293,-0.0003573531869234852,0.11819129071283017,-105.3290180701176,305.663116921464,0.49200901592709195,32860.45665015946,232.48616424611112,0.0,0.0,-0.0,2.4405020631872647e-06,3.986008640574662e-06,-0.0003263158733807581,0.344591994588,2729.2260532714226,105.32897195436493
10.9,6386701.65863616,0.306982907855664,0.0,0.0,0.0844963052123856,106.3044041594736,8564.65867493592,4.806595395619298e-08,0.0,9.78785064843024,-2.353813903616618,-0.6633565742030468,0.16428695871376395,-0.0007914744358858627,-0.00032058291506653874,0.11487581872583494,-106.3044041594736,305.70819632330404,0.4926303127929813,32911.79300314228,232.55475698944446,0.0,0.0,-0.0,2.2081722929192096e-06,3.6135316810137603e-06,-0.00032050338818042496,0.347731761331,2783.517924947821,106.30435753863402
11.0,6386690.97941952,0.315509782904496,0.0,0.0,0.0860539283599728,107.2797934949496,8553.97946509296,4.940113494142651e-08,0.0,9.7878834339984,-2.3396248732566383,-0.6651945765080445,0.15546860507677662,-0.0007079057033069818,-0.0002869859012815867,0.11162001159283963,-107.2797934949496,305.753691252888,0.4932573365926188,32963.6025596453,232.62398200055557,0.0,0.0,-0.0,1.9956776429923154e-06,3.2686677176186147e-06,-0.00031467710782668006,0.350870136131,2838.440445800716,107.27974640557028
11.1,6386680.202666881,0.324193112454744,0.0,0.0,0.087625780777044,108.25518610733042,8543.20271614104,5.076081816647474e-08,0.0,9.787916519154482,-2.325801376516658,-0.6668834762350417,0.146864306545789,-0.00063248279348409,-0.00025637338164263113,0.10842398592484422,-108.2551861073304,305.79960171326405,0.4938900873455888,33015.8853213922,232.69383928222223,0.0,0.0,-0.0,1.8015696446761214e-06,2.950328055164305e-06,-0.00030884173380400624,0.354007106909,2893.9972021812055,108.25513858552591
11.2,6386669.328378241,0.33303431891047197,0.0,0.0,0.0892118625836904,109.230582025572,8532.32842774488,5.214522653169977e-08,0.0,9.787949903959442,-2.3123410510466775,-0.6684320913290396,0.13847439228180103,-0.0005644891350691891,-0.0002285550931736703,0.10528781075184872,-109.23058202557199,305.84592770443203,0.4945285650714759,33068.64128986727,232.7643288361111,0.0,0.0,-0.0,1.6244799553014854e-06,2.65732404827246e-06,-0.000303001868028328,0.357142661608,2950.1918132335777,109.23053410730975
11.3,6386658.356553601,0.342034824678792,0.0,0.0,0.0908121739006128,110.20598127984961,8521.356599599681,5.355458294217607e-08,0.0,9.7879835883828,-2.299241077496697,-0.6698488979860375,0.1302987475098128,-0.0005032626237152766,-0.0002033418315667076,0.10221150854885315,-110.20598127984961,305.89266922944,0.495172769789349,33121.870466746324,232.83545066444444,0.0,0.0,-0.0,1.4631186778598197e-06,2.3883956023857454e-06,-0.0002971620094479756,0.360276788189,3007.027930895309,110.205933001274
11.4,6386647.28719296,0.35119605216376804,0.0,0.0,0.0924267148506456,111.18138390003361,8510.287231370161,5.4989110306468814e-08,0.0,9.788017572424561,-2.286498210796715,-0.6711420298020356,0.12233684198682422,-0.00044819242099135596,-0.0001805475549237395,0.09919505628355747,-111.18138390003362,305.93982628828803,0.49582270151879243,33175.5728536094,232.9072047688889,0.0,0.0,-0.0,1.3162723650479016e-06,2.14223609939619e-06,-0.0002913265508642922,0.363409474632,3064.5092399257946,111.181335296742
11.5,6386636.120265841,0.36051942377556,0.0,0.0,0.09405548555692801,112.1567899159944,8499.12032272104,5.6449031538030045e-08,0.0,9.788051856145682,-2.2741088114967325,-0.6723192785490341,0.11458775848983535,-0.0003987158338564269,-0.0001599910838877695,0.09623838651766174,-112.15678991599441,305.98739888402406,0.49647836027990605,33229.74845213233,232.9795911527778,0.0,0.0,-0.0,1.1828017626349882e-06,1.9175139924626737e-06,-0.00028549977596917155,0.366540708934,3122.6394578776176,112.15674102355148
11.6,6386624.855833201,0.37000636192737596,0.0,0.0,0.09569848614320879,113.13219935729761,8487.85587328656,5.79345695543261e-08,0.0,9.788086439454721,-2.2620688767267496,-0.6733880964100324,0.10705022107284619,-0.0003543152874514908,-0.0001414974453757957,0.09334138852066588,-113.13219935729762,306.03538701664803,0.49713974609227424,33284.397263990904,233.05260981722222,0.0,0.0,-0.0,1.0616393419595668e-06,1.7128913197321277e-06,-0.0002796858566076616,0.369670479113,3181.422335110916,113.13215021154018
11.7,6386613.49383408,0.379658289032424,0.0,0.0,0.09735571673598,114.10761225381361,8476.49388273144,5.944594727701207e-08,0.0,9.78812132244312,-2.250374070666767,-0.6743555995310311,0.09972262287405671,-0.0003145154013735481,-0.00012489890376882006,0.09050390942326997,-114.10761225381361,306.083790689208,0.4978068589765122,33339.51929076517,233.12626076444445,0.0,0.0,-0.0,9.517866665878786e-07,1.5270393878721189e-06,-0.0002738888502520755,0.372798773207,3240.861654802956,114.10756289003142
11.8,6386602.03429896,0.389476627510008,0.0,0.0,0.09902717746112401,115.0830286354128,8465.0343507204,6.098338763210641e-08,0.0,9.78815650511088,-2.239019754336783,-0.6752285727260298,0.09260305330566695,-0.0002788801772615992,-0.0001100357201688403,0.08772575539347396,-115.08302863541282,306.132609898656,0.498479698953235,33395.114534226705,233.20054399777777,0.0,0.0,-0.0,8.523116337328249e-07,1.3586518734617067e-06,-0.0002681126976943899,0.375925579272,3300.9612329241945,115.0829790893774
11.9,6386590.477227841,0.399462799776384,0.0,0.0,0.1007128684466568,116.0584485319656,8453.477276887681,6.254711355016539e-08,0.0,9.78819198739704,-2.228001014456799,-0.6760134752210287,0.08568932446127688,-0.00024701030349264435,-9.675667694266029e-05,0.08500669283707786,-116.05844853196561,306.181844654136,0.49915826604254243,33451.18299605131,233.27545951833335,0.0,0.0,-0.0,7.623456266566463e-07,1.2064555856410838e-06,-0.0002623612209637079,0.379050885382,3361.7249182717933,116.05839883838699
