time,eiPosition_m_X,eiPosition_m_Y,eiPosition_m_Z,gePosition_m_X,gePosition_m_Y,gePosition_m_Z,eiVelocity_m_s_X,eiVelocity_m_s_Y,eiVelocity_m_s_Z,feVelocity_m_s_X,feVelocity_m_s_Y,feVelocity_m_s_Z,altitudeMsl_m,longitude_rad,latitude_rad,localGravity_m_s2,eulerAngle_rad_Yaw,eulerAngle_rad_Pitch,eulerAngle_rad_Roll,bodyAngularRateWrtEi_rad_s_Roll,bodyAngularRateWrtEi_rad_s_Pitch,bodyAngularRateWrtEi_rad_s_Yaw,altitudeRateWrtMsl_m_s,speedOfSound_m_s,airDensity_kg_m3,ambientPressure_Pa,ambientTemperature_K,aero_bodyForce_N_X,aero_bodyForce_N_Y,aero_bodyForce_N_Z,aero_bodyMoment_Nm_L,aero_bodyMoment_Nm_M,aero_bodyMoment_Nm_N,mach,dynamicPressure_Pa,trueAirspeed_m_s
0.0,6387281.000000211,0.0,0.0,6387281.000000211,0.0,0.0,0.0,465.7678758931653,0.0,0.0,0.0,0.0,9144.000000001135,0.0,0.0,9.786072158121431,0.0,2.220446049250313e-16,0.0,0.17453292521894348,0.3490658503983644,0.5235987755975465,-0.0,303.22998396963123,0.459050104915564,30149.23809906436,228.79937386033285,0.0,0.0,-0.0,0.0,0.0,0.0,0.0,0.0,0.0
0.1,6387280.951070665,46.57678747038719,0.0,6387280.951240487,2.3704505231376683e-07,0.0,-0.9786072207917328,465.76787232516654,0.0,2.9659217790078964e-18,7.111349113670874e-06,0.9752107880854939,9143.951240278655,3.7112044095653856e-14,0.0,9.786072307774342,0.05249694377586413,0.034821922426172235,0.01787737798276193,0.16484729036081086,0.35646014650843316,0.5199245706530351,-0.975210788085494,303.2301933872477,0.4590528033607389,30149.45696982614,228.79968988868498,0.0,0.0,0.0,-3.929913462657462e-06,-3.4008036314764655e-05,-1.240026926461639e-05,0.0032160741551001,0.21828788971182367,0.9751981382128535
0.2000000000000001,6387280.804279581,93.15357422716276,0.0,6387280.804958866,1.8963596145997298e-06,0.0,-1.957214471462513,465.7678616209914,0.0,-2.8725654667438595e-17,2.8445397394044652e-05,1.950421605946505,9143.804958657467,2.9689623370362255e-13,0.0,9.78607275674062,0.10533987118302492,0.06937796107796233,0.036616133847194754,0.1549462283243673,0.3629190324579093,0.5162830009767165,-1.950421605946505,303.23082164978723,0.45906089890512036,30150.11360086577,228.80063798967396,0.0,0.0,0.0,-7.387692402086151e-06,-6.925040583636139e-05,-2.4627139663044506e-05,0.0064321350821692,0.8731669839560908,1.9503963063564047
0.3000000000000002,6387280.55962777,139.73035955671483,0.0,6387280.561156164,6.400214735745014e-06,0.0,-2.935821781891391,465.7678437806981,0.0,2.2570747354455632e-17,6.400214606530711e-05,2.9256324833585503,9143.56115595511,1.0020249892681259e-12,0.0,9.786073505017823,0.15862806218336215,0.10353327663349501,0.05620381350599315,0.1448272945781555,0.3684642514600089,0.5126790860432671,-2.9256324833585503,303.2318687511929,0.45907439172264936,30151.20801173367,228.80221815808824,0.0,0.0,0.0,-1.0357864892615068e-05,-0.00010546687693046005,-3.668372285484531e-05,0.0096481695534486,1.964683559106225,2.925594534361353
0.4000000000000003,6387280.2171152225,186.30714274543158,0.0,6387280.219832369,1.5170879559501225e-05,0.0,-3.914429181957431,465.7678188042844,0.0,-3.466575984600873e-17,0.00011378159809170981,3.9008434500971636,9143.219832160226,2.375170500958447e-12,0.0,9.78607455260609,0.21245583534334214,0.13715090370828895,0.07663223770440625,0.13453544139955287,0.37308405529093386,0.5091338263708085,-3.9008434500971636,303.2333346872708,0.4590932821792727,30152.740241182415,228.80443039414664,0.0,0.0,0.0,-1.2829211693425863e-05,-0.00014239277490429538,-4.857512491548599e-05,0.0128641643417235,3.4929147459462033,3.9007928521584145
0.5000000000000003,6387279.776741928,232.88392307970096,0.0,6387279.78098747,2.9630622416632102e-05,0.0,-4.893036701539708,465.76778669174735,0.0,-1.0535218530893786e-16,0.000177783757415351,4.876054535937874,9142.780987261463,4.6390049336544365e-12,0.0,9.786075899505596,0.266911187697185,0.1700920939701772,0.09789609251030577,0.12411527893514927,0.37677206330649166,0.5056657123192887,-4.8760545359378735,303.23521945213014,0.4591175707870783,30154.710343447503,228.80727469812607,0.0,0.0,0.0,-1.4794724515947204e-05,-0.00017976151151243298,-6.030814782694308e-05,0.0160801062205946,5.45796853491179,4.875991289678304
0.6000000000000004,6387279.238507876,279.46069984591026,0.0,6387279.244621457,5.120171440092145e-05,0.0,-5.871644370517319,465.767747443083,0.0,3.1592436999794416e-17,0.0002560086288869965,5.8512657706562585,9142.244621247464,8.016201020808183e-12,0.0,9.786077545716564,0.32207424186965394,0.2022167800478407,0.11999123006195642,0.11361081936727009,0.3795270953636934,0.502290559048183,-5.851265770656258,303.2375230381832,0.4591472582043153,30157.11838825009,228.81075107036156,0.0,0.0,0.0,-1.625152841603004e-05,-0.00021730701894422387,-7.189096752583255e-05,0.0192959819647517,7.85998378342648,5.851189876851775
0.7000000000000005,6387278.602413047,326.03747233044635,0.0,6387278.61073431,8.13064259325759e-05,0.0,-6.850252218769384,465.76770105828655,0.0,1.0442688380685183e-17,0.00034845621819586754,6.826477184027891,9141.610734100064,1.272943156040418e-11,0.0,9.78607949123927,0.3780154849970253,0.2333841872572135,0.14291268285785858,0.10306524821336677,0.38135297800093626,0.49902139296311243,-6.826477184027891,303.240245436175,0.45918234523578966,30159.96446083061,228.8148595112904,0.0,0.0,0.0,-1.720077281776295e-05,-0.0002547660709975146,-8.33327970243947e-05,0.0225117783502436,10.69913022534109,6.826388643609595
0.8000000000000006,6387277.868457424,372.61423981969625,0.0,6387277.879326012,0.00012136702798805737,0.0,-7.8288602761750585,465.76764753735233,0.0,-2.453370839816671e-16,0.00045512653263378076,7.8016888058284115,9140.879325803366,1.9001369641501184e-11,0.0,9.786081736074044,0.4347938044458351,0.26345361369661296,0.16665241622361907,0.09252072117024339,0.38225832949249905,0.49586838890104606,-7.8016888058284115,303.2433866351443,0.4592228328323858,30163.248661911784,228.8196000213933,0.0,0.0,0.0,-1.7647495363619257e-05,-0.00029188047839065847,-9.464354297571803e-05,0.0257274821547525,13.975608482458332,7.80158761988257
0.9000000000000007,6387277.036640984,419.1910016000457,0.0,6387277.050396541,0.00017280579341141824,0.0,-8.807468572613534,465.7675868802738,0.0,-3.600744702403347e-16,0.000576019580400872,8.776900665833484,9140.050396332388,2.705468888353448e-11,0.0,9.786084280221264,0.4924543481184605,0.29228539758816247,0.19119686277204645,0.08201818436644784,0.3822563286487337,0.4928388563658885,-8.776900665833484,303.2469466224725,0.45926872209172864,30166.971107754372,228.82497260126786,0.0,0.0,0.0,-1.7600462357250563e-05,-0.00032839914877148965,-0.00010583346371329609,0.0289430801578624,17.68965007817828,8.776786835601548
1.0000000000000009,6387276.106963701,465.7677569578796,0.0,6387276.123945871,0.00023704499136942953,0.0,-9.786077137964032,465.7675190870434,0.0,3.270279880229765e-16,0.000711135370396905,9.752112793818743,9139.123945661018,3.711206260220205e-11,0.0,9.786087123681357,0.5510262653529141,0.31974208663735293,0.2165243076741983,0.07159721553004939,0.38136447142647706,0.48993727232382817,-9.752112793818744,303.25092538384985,0.45932001425777486,30171.131930126594,228.83097725157714,0.0,0.0,0.0,-1.7071989065894998e-05,-0.0003640800048834556,-0.00011691283628644306,0.0321585591413328,21.841517453221943,9.751986320697377
1.0999999999999897,6387275.079425547,512.3445051795826,0.0,6387275.099973972,0.00031550689142328893,0.0,-10.764686002105822,465.767444157653,0.0,-3.8730477158743785e-16,0.0008604739130543912,10.727325219559985,9138.09997376427,4.939616448093527e-11,0.0,9.78609026645479,0.6105204172288236,0.34568981692659717,0.2426022235457459,0.06129588340760367,0.37960431859266563,0.48716535739831995,-10.727325219559983,303.2553229032665,0.45937671072072955,30175.731276300077,228.83761397303502,0.0,0.0,0.0,-1.607774262320655e-05,-0.00039869175654439745,-0.0001278916393709487,0.0353739058893721,26.431503983452604,10.727186105100998
1.1999999999999786,6387273.954026491,558.9212455515378,0.0,6387273.978480816,0.00040961376424786635,0.0,-11.743295194918229,465.7673620920933,0.0,-1.410423861036847e-15,0.0010240352199226293,11.702537972832971,9136.97848060695,6.412966871750049e-11,0.0,9.786093708542117,0.6709271803704082,0.36999989788674403,0.2693846866066649,0.051150622768235864,0.37700123688992954,0.4845221917607683,-11.702537972832971,303.26013916306056,0.4594388130177151,30180.76930910731,228.8448827664796,0.0,0.0,0.0,-1.4636529759373301e-05,-0.0004320155236114485,-0.00013877925818597196,0.0385891071889038,31.459933999839347,11.702386218743376
1.2999999999999676,6387272.730766496,605.4979773601285,0.0,6387272.759466365,0.0005207878815834948,0.0,-12.721904746280634,465.7672728903539,0.0,4.4150100242390524e-16,0.0012018193029074429,12.677751083413549,9135.75946615726,8.153525005044778e-11,0.0,9.786097449943902,0.7322145024201135,0.39255058497552925,0.2968100378077244,0.04119612247369697,0.37358413542145164,0.4820043665849905,-12.677751083413549,303.26537414386087,0.45950632283206977,30186.246206888132,228.85278363278513,0.0,0.0,0.0,-1.2770071117606197e-05,-0.00046384630801588625,-0.00014958421671989696,0.0418041498298437,36.927162810454654,12.67758669155554
1.3999999999999566,6387271.409645527,652.074699891736,0.0,6387271.442930587,0.0006504515150540024,0.0,-13.70051468607247,465.76717655242504,0.0,6.715045186567181e-17,0.0013938261767561225,13.652964581077631,9134.442930377734,1.0183558360807294e-10,0.0,9.786101490660768,0.7943263949623848,0.41322900316283245,0.32479897853287476,0.031465224366108796,0.3693851983315805,0.47960616661020944,-13.65296458107763,303.2710278246259,0.45957924199390043,30192.16216353839,228.86131657292063,0.0,0.0,0.0,-1.0502763521831787e-05,-0.0004939943133601157,-0.0001603139416858139,0.0450190206053676,42.83357672464,13.652787553468581
1.4999999999999456,6387269.990663542,698.6514124327399,0.0,6387270.028873435,0.0008000269352403742,0.0,-14.679125044173244,465.76707307829395,0.0,1.259467530267955e-15,0.001600055855193477,14.628178495601176,9133.028873226356,1.2525334479736804e-10,0.0,9.78610583069341,0.8571820642747942,0.4319331632729493,0.3532533037271837,0.021988831092512005,0.36443961432933325,0.4773197791277101,-14.628178495601178,303.2771001826397,0.45965757248007927,30198.51738851378,228.87048158794272,0.0,0.0,0.0,-7.861431258814434e-06,-0.0005222861105775576,-0.0001709745617076015,0.0482337063121818,49.179593079253046,14.627988834413642
1.5999999999999346,6387268.473820501,745.2281142695208,0.0,6387268.51729487,0.0009709364162002054,0.0,-15.65773585046254,465.76696246794836,0.0,4.864442182395123e-16,0.0018205083543022782,15.603392856760246,9131.517294661116,1.5201121004560752e-10,0.0,9.78611047004255,0.9206758750081557,0.44857399164804906,0.3820554689737218,0.012795821420607614,0.358785303197337,0.4751355245604284,-15.603392856760243,303.2835911934922,0.4597413164140535,30205.312106818874,228.88027867896616,0.0,0.0,0.0,-4.875067241657669e-06,-0.0005485656479042127,-0.0001815707443024113,0.0514481937507973,55.965660266995435,15.603190564321975
1.6999999999999236,6387266.859116356,791.804804688456,0.0,6387266.908194849,0.0011646022292961713,0.0,-16.63634713482001,465.7668447213748,0.0,8.258976835762157e-16,0.0020551836908660032,16.578607694330962,9129.908194640004,1.823318558681186e-10,0.0,9.786115408708955,0.9846783110409771,0.46307727430962825,0.4110691564144957,0.003912972074557312,0.3524626391554581,0.473042103734481,-16.578607694330962,303.29050083108064,0.45983047606591443,30212.54655901742,228.89070784716372,0.0,0.0,0.0,-1.5745648349907713e-06,-0.0005726951030208885,-0.00019210557228878765,0.0546624697258011,63.19225776686099,16.578392773124882
1.7999999999999126,6387265.146551058,838.381482975922,0.0,6387265.201573315,0.0013824466474670377,0.0,-17.61495892712535,465.7667198385588,0.0,1.4683212978816583e-15,0.002304081882718682,17.553823038089476,9128.201573107373,2.1643795957094898e-10,0.0,9.786120646693481,1.049038038635334,0.4753854032097167,0.44014094477002647,-0.004635114394297543,0.3455141708064461,0.47102685694068386,-17.553823038089476,303.297829067668,0.4599250538532226,30220.22100130449,228.90176909385463,0.0,0.0,0.0,2.0075588571735242e-06,-0.0005945555748241528,-0.00020258046032700972,0.0578765210461158,70.85989617680804,17.553595490753697
1.899999999999901,6387263.336124554,884.9581484182934,0.0,6387263.397430225,0.0016258919435567162,0.0,-18.593571257258407,465.766587819485,0.0,-8.343575830238592e-16,0.002567202948879287,18.529038917812088,9126.397430015544,2.545521990232734e-10,0.0,9.786126183996993,1.113585091768521,0.48545880770153127,0.46910310315733333,-0.012826075715208591,0.33798433737467287,0.469076029948182,-18.529038917812088,303.3055758737909,0.4600250523398893,30228.335705421105,228.91346242036474,0.0,0.0,0.0,5.837447320624175e-06,-0.000614047611982802,-0.0002129951114021862,0.0610903345252867,78.96911724828767,18.528798747139913
1.9999999999998903,6387261.427836788,931.5348003019435,0.0,6387261.495765513,0.0018963603910262783,0.0,-19.572184155099077,465.7664486641374,0.0,-3.9973024890116453e-16,0.0028445469096160117,19.504255363275153,9124.495765305466,2.968972528028636e-10,0.0,9.78613202062043,1.1781350960975765,0.493276961700072,0.4977774248768076,-0.020639849563348515,0.3299191810477009,0.46717504225865975,-19.504255363275153,303.3137412183433,0.46013047423732617,30236.89095875332,228.92578782815144,0.0,0.0,0.0,9.880195453186227e-06,-0.0006310915753518449,-0.0002233475122107509,0.0643038969817366,87.52049392319095,19.504002572215075
2.09999999999988,6387259.421687702,978.1114379132447,0.0,6387259.496579133,0.0021952742647300657,0.0,-20.550797650527375,465.76630237249867,0.0,-2.0261459177106645e-15,0.0031361137858373443,20.4794724042552,9122.496578923774,3.4369580035159153e-10,0.0,9.78613815656477,1.2424943398813308,0.4988388772875292,0.5259799092534285,-0.02805872598463154,0.32136605542881946,0.46530875307664527,-20.479472404255205,303.32232506850414,0.46024132240359056,30245.88706426888,228.93874531869366,0.0,0.0,0.0,1.410014548661019e-05,-0.0006456278314958832,-0.00023363396561039288,0.0675171952390497,96.51463037260902,20.479206995910875
2.1999999999998687,6387257.317677236,1024.6880605385668,0.0,6387257.399871013,0.0025240558381686515,0.0,-21.52941177342336,465.76614894455105,0.0,-1.4625051170114035e-15,0.003441903599700628,21.45469007052868,9120.399870804611,3.951705215793627e-10,0.0,9.786144591831052,1.3064654041792059,0.502163027753517,0.5535260037884969,-0.03506739147809542,0.3123733303882401,0.4634617207180853,-21.454690070528684,303.3313273898159,0.4603575998444777,30255.32434061244,228.95233489360916,0.0,0.0,0.0,1.8461186301432748e-05,-0.0006576167751155455,-0.00024384915756928713,0.070730216126225,105.95216203804806,21.454412048158986
2.2999999999998577,6387255.11580533,1071.2646674642776,0.0,6387255.2056411,0.0028841273860381873,0.0,-22.508026553667257,465.76598838027616,0.0,-1.3747336602421e-17,0.003761916374693417,22.429908391872342,9118.20564089234,4.5154409729722213e-10,0.0,9.786151326420335,1.3698529974650238,0.5032866839712248,0.580236051971168,-0.04165296341517906,0.3029900939400908,0.46161845148430714,-22.429908391872342,303.3407481460875,0.4604793097123617,30265.20312201809,228.96655655450778,0.0,0.0,0.0,2.2927054094607797e-05,-0.0006670386790639648,-0.00025398625540161543,0.0739429464779677,115.83375567432391,22.42961775889131
2.3999999999998467,6387252.816071905,1117.8412579767426,0.0,6387252.913889316,0.0032769111840484665,0.0,-23.486642021139392,465.7658206796542,0.0,1.862235365912568e-15,0.004096152135827019,23.40512739806293,9115.913889107474,5.130392092229086e-10,0.0,9.786158360333788,1.4324696139217608,0.5022646924747433,0.6059405665685292,-0.04780501334909961,0.2932658521487676,0.45976363438970047,-23.40512739806293,303.35058729954176,0.4606064553081797,30275.523758477637,228.9814103032118,0.0,0.0,0.0,2.746163203093727e-05,-0.0006738933719366669,-0.0002640370335313077,0.0771553731349237,126.16010939527513,23.404824158039812
2.499999999999836,6387250.418476901,1164.4178313623286,0.0,6387250.5246156,0.003703829508481972,0.0,-24.46525820572019,465.76564584266447,0.0,3.797437364561062e-15,0.00444461090771559,24.380347118877367,9113.524615389839,5.798785399457783e-10,0.0,9.786165693572569,1.4941406550937664,0.49916776561374865,0.6304849690036013,-0.05351557773699001,0.2832502284579895,0.4578823585453993,-24.380347118877367,303.36084481063074,0.4607390400791476,30286.28661556252,228.99689614147655,0.0,0.0,0.0,3.202924620802896e-05,-0.0006781997448429207,-0.0002739920225760944,0.0803674829439926,136.93195272058838,24.380031275536588
2.5999999999998247,6387247.923020241,1210.9943869073961,0.0,6387248.03781987,0.004166304635739692,0.0,-25.443875137290227,465.7654638692856,0.0,-6.017103482136577e-16,0.004807292717391354,25.35556758409265,9111.037819661084,6.522847728897303e-10,0.0,9.786173326137925,1.5547087173676881,0.49408038807573246,0.6537334986159362,-0.05877915466106704,0.27299266421575413,0.45596031046271374,-25.35556758409265,303.37152063819747,0.46087706762094366,30297.492074608876,229.01301407123344,0.0,0.0,0.0,3.659495501449861e-05,-0.0006799950909486674,-0.0002838406772254703,0.0835792627585568,148.15004662585562,25.355239141313817
2.6999999999998137,6387245.329701847,1257.5709238983054,0.0,6387245.453502055,0.004665758842529062,0.0,-26.422492845730144,465.7652747594955,0.0,1.8823276271007218e-16,0.005184197592605099,26.33078882348592,9108.453501846268,7.304805923766234e-10,0.0,9.786181258031142,1.614036841233539,0.4870984657669251,0.6755720894550185,-0.06359268528724789,0.2625421225162808,0.4539839490417346,-26.33078882348592,303.38261473938394,0.4610205416766279,30309.14053263789,229.02976409444955,0.0,0.0,0.0,4.1124828778713234e-05,-0.0006793342835679866,-0.0002935715581728801,0.0867906994387734,159.8151835939269,26.330447785303836
2.799999999999802,6387242.638521645,1304.1474416214144,0.0,6387242.771662081,0.005203614405983049,0.0,-27.401111360920794,465.76507851327113,0.0,-2.4544283272476267e-15,0.005575325562010649,27.306010866834495,9105.771661871588,8.14688683678916e-10,0.0,9.78618948925353,1.6720106260562526,0.4783268506874384,0.6959101203729839,-0.06795551903094137,0.25194679777622836,0.45194065654308474,-27.30601086683449,303.39412706964225,0.46116946613688403,30321.232402383892,229.04714621314295,0.0,0.0,0.0,4.558621650845652e-05,-0.0006762888009784084,-0.00030317252329137566,0.0900017798518397,171.92818766871488,27.305657237439142
2.899999999999792,6387239.84947955,1350.7239393630791,0.0,6387239.9922998585,0.005781293605451671,0.0,-28.379730712743086,465.7648751305885,0.0,-3.8809788716065444e-16,0.005980676655573805,28.281233743915728,9102.992299648475,9.051317333341675e-10,0.0,9.786198019806505,1.728539219138064,0.4678768695958818,0.7146810495132817,-0.07186936169760676,0.2412538336902378,0.4498188643929268,-28.28123374391573,303.40605758280316,0.46132384504102747,30333.768112384892,229.06516042948533,0.0,0.0,0.0,4.9947996518714967e-05,-0.0006709456085839862,-0.00031263092328777435,0.0932124908722411,184.48991451145545,28.280867527652298
2.9999999999997806,6387236.962575474,1397.3004164096503,0.0,6387237.115415304,0.0064002187169808576,0.0,-29.358350931078107,465.7646646114224,0.0,-5.3826110235633e-16,0.006400250904043645,29.256457484507095,9100.115415095177,1.0020324283146205e-09,0.0,9.786206849691483,1.7835552760416413,0.4558639675351888,0.7318420327905705,-0.07533820621499047,0.23050905235721963,0.4476081532302777,-29.25645748450709,303.418406230985,0.4614836825759336,30346.74810690476,229.08380674566257,0.0,0.0,0.0,5.418080784142252e-05,-0.0006634059114768634,-0.00032193379723939657,0.0964228193820449,197.50125145836566,29.256078685875995
3.0999999999997696,6387233.977809331,1443.87687204748,0.0,6387234.1410083305,0.007061812021755218,0.0,-30.33697204580711,465.7644469557478,0.0,6.450673328828318e-16,0.006834048339977229,30.231682118386463,9097.141008123126,1.1056134573830433e-09,0.0,9.786215978909961,1.8370140529264047,0.44240555302906337,0.7473726891544944,-0.07836824595788484,0.21975669742510381,0.44529932715758586,-30.231682118386463,303.43117296465266,0.4616489830769264,30360.172846014742,229.10308516396245,0.0,0.0,0.0,5.825725950876193e-05,-0.0006537837927598024,-0.00033106806370675684,0.0996327522711505,210.96311758114342,30.23129074204322
3.1999999999997586,6387230.895181037,1490.4533055629154,0.0,6387231.069078855,0.00776749579831044,0.0,-31.31559408681144,465.7642221635371,0.0,-4.296571431972041e-15,0.007282068995246607,31.206907675331543,9094.069078646029,1.216097509907474e-09,0.0,9.786225407463448,1.8888918236571852,0.4276191055903333,0.7612732095983988,-0.08096777106710573,0.2090391940637234,0.4428844626861749,-31.206907675331543,303.44435773258,0.4618197510274124,30374.04280557354,229.1229956867165,0.0,0.0,0.0,6.215211509333979e-05,-0.0006422047550556373,-0.00034002070349766275,0.1028422764375672,224.87646374912353,31.206503726086915
3.299999999999748,6387227.714690488,1537.0297162423014,0.0,6387227.899626774,0.008518692327902885,0.0,-32.29421708397266,465.7639902347634,0.0,-2.838296264684459e-15,0.007744312905116441,32.182134185120354,9090.89962656396,1.3337072767359168e-09,0.0,9.786235135353564,1.939183827522431,0.41162057792383827,0.7735620163539388,-0.08314704856449309,0.19839692844360313,0.4403569333636269,-32.182134185120354,303.4579604819188,0.46199599105990313,30388.35847732045,229.1435383164024,0.0,0.0,0.0,6.584245026743258e-05,-0.0006288041843961336,-0.0003487789306352994,0.1060513787876586,239.2422726942209,32.18171766794031
3.399999999999737,6387224.43633759,1583.6061033719811,0.0,6387224.632651989,0.00931682388420857,0.0,-33.27284106717247,465.7637511693983,0.0,9.972106473910003e-16,0.008220780104602001,33.157361677531,9087.632651780408,1.4586654486175828e-09,0.0,9.786245162581936,1.9879019370045041,0.3945231031849927,0.7842731657145754,-0.08491818744826854,0.1878680491772952,0.4377114115175993,-33.157361677531,303.4719811581273,0.462177707955219,30403.12036882115,229.16471305553407,0.0,0.0,0.0,6.930778159350538e-05,-0.000613725757040826,-0.0003573303486199003,0.1092600462364314,254.06155907718735,33.156932597536716
3.4999999999997256,6387221.060122243,1630.1824662382942,0.0,6387221.268154407,0.01016331274927615,0.0,-34.25146606629271,465.7635049674126,0.0,3.2570612873428217e-15,0.008711470630233779,34.132590182341886,9084.268154197724,1.5911947187345323e-09,0.0,9.786255489150244,2.0350722120112112,0.3764359977292614,0.7934536625494595,-0.08629499030287513,0.1774882928784036,0.4349438489387199,-34.132590182341886,303.48641970499,0.4623649066428881,30418.329003510877,229.18651990669073,0.0,0.0,0.0,7.253016526567931e-05,-0.0005971198107035421,-0.0003656630896667618,0.1124682657077954,269.3353695565467,34.1321485448097
3.5999999999997145,6387217.586044344,1676.7588041275758,0.0,6387217.806133922,0.011059581213301193,0.0,-35.23009211121543,465.7632516287761,0.0,1.3144568766776388e-15,0.009216384519324815,35.10781972933149,9080.806133712575,1.7315177827003523e-09,0.0,9.786266115060235,2.08073247327676,0.35746403636935564,0.801160821280849,-0.08729279326146486,0.16729083562331923,0.432051438645049,-35.10781972933149,303.50127606463894,0.4625575922015576,30433.984920738974,229.20895887254656,0.0,0.0,0.0,7.549426506533742e-05,-0.0005791417020904771,-0.0003737659352150462,0.1156760241348207,285.06478285974265,35.107365539692914
3.699999999999704,6387214.014103787,1723.3351163261602,0.0,6387214.246590428,0.01200705156050211,0.0,-36.208719231822826,465.76299115345796,0.0,-1.2192830078916474e-15,0.00973552181043307,36.08305034827847,9077.246590219367,1.8798573363828607e-09,0.0,9.786277040313685,2.1249299933327848,0.33770696840202163,0.8074597733369601,-0.0879282964073796,0.15730617167687067,0.42903256011593727,-36.08305034827846,303.51655017754035,0.46275576985896366,30450.08867577791,229.23202995584867,0.0,0.0,0.0,7.818738935589495e-05,-0.0005599501725864132,-0.0003816284166213177,0.1188833084600074,301.25090985621813,36.082583612120246
3.799999999999693,6387210.344300463,1769.911402120378,0.0,6387210.589523819,0.01300714607518466,0.0,-37.18734745799731,465.76272354142634,0.0,-5.374151124115656e-15,0.010268882543170715,37.0582820689616,9073.58952361023,2.036436076887577e-09,0.0,9.786288264912441,2.167719371279242,0.317259238312244,0.8124211885258038,-0.08821938688606461,0.14756202038159602,0.425886710550459,-37.058282068961596,303.5322419824952,0.4629594449920977,30466.64083984856,229.25573315941685,0.0,0.0,0.0,8.059949750179599e-05,-0.0005397057433627844,-0.00038924089555532923,0.12209010563555,317.89489363275925,37.05780279202572
3.8999999999996815,6387206.576634258,1816.4876607965546,0.0,6387206.834933979,0.014061287042072369,0.0,-38.16597681962144,465.7624487926483,0.0,1.601035970466569e-15,0.01081646675832691,38.03351492116008,9069.834933770479,2.201476702643486e-09,0.0,9.786299788858395,2.2091606299853015,0.2962098741475581,0.8161192497530436,-0.08818495711687113,0.1380832616283528,0.42261442479458944,-38.03351492116008,303.54835141666064,0.46316862312762674,30483.642000166565,229.28006848617318,0.0,0.0,0.0,8.272317663603165e-05,-0.000518569160146187,-0.0003965946241826671,0.1252964026235924,334.99790957119905,38.033023109343596
3.9999999999996714,6387202.711105059,1863.063891641015,0.0,6387202.982820797,0.015170896747612248,0.0,-39.14460734657804,465.76216690709043,0.0,6.18207152136563e-15,0.011378274497623901,39.00874893465292,9065.982820586569,2.37520191364144e-09,0.0,9.786311612153481,2.249317552313167,0.27464250812210383,0.818629898034892,-0.08784472054427876,0.12889189984054428,0.41921718659448115,-39.00874893465292,303.5648784155168,0.46338330994162724,30501.092759933163,229.30503593909063,0.0,0.0,0.0,8.455359020223476e-05,-0.0004966999064239108,-0.00040368178573399477,0.1285021863965047,352.56116542782803,39.00824459400825
4.099999999999704,6387198.747712746,1909.6400939400799,0.0,6387199.03318415,0.016337397479414918,0.0,-40.123239068750024,465.76187788471816,0.0,-4.288111532524397e-15,0.011954305804062537,39.983984139219714,9062.033183941548,2.5578344113805376e-09,0.0,9.78632373479969,2.2882562565257736,0.252635497187525,0.8200293478930007,-0.08721902735212496,0.1200070559313877,0.4156973337756489,-39.983984139219714,303.58182291288796,0.463603511260017,30518.993738383095,229.33063552122223,0.0,0.0,0.0,8.608840014803502e-05,-0.00047425480203572377,-0.0004104955165139028,0.1317074439371382,370.5859014154543,39.983467275954354
4.199999999999737,6387194.686457203,1956.2162669800637,0.0,6387194.986023927,0.017562211521305958,0.0,-41.101872016020515,465.7615817254973,0.0,-1.241490243941712e-15,0.012544560722305706,40.95922056463998,9057.986023719594,2.749596898127353e-09,0.0,9.78633615679905,2.326043999667008,0.23026211537463578,0.8203928614297753,-0.08632868248702702,0.1114449862480457,0.41205795982709914,-40.95922056463997,303.5991848409237,0.46382923305848517,30537.345570792102,229.35686723567179,0.0,0.0,0.0,8.73276650331023e-05,-0.00045138670196756287,-0.00041702991077729567,0.1349121622390957,389.07339028727785,40.95869118511666
4.299999999999771,6387190.527338302,2002.7924100472817,0.0,6387190.84134,0.018846761164888592,0.0,-42.080506218272944,465.7612784293895,0.0,-1.4392403935303833e-15,0.013149039295588102,41.93445824069359,9053.841339791268,2.9507120787602207e-09,0.0,9.78634887815366,2.362748190552209,0.20759079411595494,0.8197937618423684,-0.08519476820485287,0.10321912711045617,0.40830281419454717,-41.934458240693594,303.61696413016483,0.4640604814635056,30556.148908572814,229.38373108568956,0.0,0.0,0.0,8.827371663184657e-05,-0.00042824330781009276,-0.0004232800102006063,0.1381163283069655,408.024937423858,41.933916351430256
4.399999999999804,6387186.270355917,2049.3685224280453,0.0,6387186.59913224,0.02019246870127715,0.0,-43.05914170539084,465.760967996359,0.0,-1.3345491378657926e-15,0.013767741571340506,42.90969719716044,9049.599132030533,3.1614026595090415e-09,0.0,9.78636189886566,2.398435590157306,0.1846853911162122,0.8183026629309286,-0.0838384731750038,0.09534016319635874,0.4044362033683044,-42.90969719716044,303.63516070947026,0.4642972627515786,30575.404419226987,229.41122707456188,0.0,0.0,0.0,8.893101785002238e-05,-0.0004049661018380017,-0.0004292417798857599,0.1413199291566132,427.44188092083795,42.909142804830275
4.4999999999998375,6387181.915509918,2095.944603408657,0.0,6387182.259400518,0.021600756417057266,0.0,-44.03777850725804,465.7606504263675,0.0,5.403760772182409e-16,0.01440066759629129,43.88493746382104,9045.259400310213,3.38189134735677e-09,0.0,9.786375218937247,2.4331716757785125,0.1616054723953961,0.8159868894291151,-0.08228092996055654,0.08781611772458454,0.4004628946002383,-43.884937463821046,303.65377450603944,0.46453958334968287,30595.112786396447,229.43935520564045,0.0,0.0,0.0,8.930600493816536e-05,-0.0003816894111000312,-0.0004349120729734251,0.1445229518154357,447.32559167981856,43.8843705752523
4.599999999999871,6387177.462800173,2142.520652275419,0.0,6387177.822144707,0.023073046604751957,0.0,-45.016416653758505,465.7603257193763,0.0,3.808012238870617e-15,0.015047817419122405,44.8601790704556,9040.82214449746,3.6124008517120673e-09,0.0,9.78638883837065,2.467020145602878,0.13840659574445122,0.8129100629884181,-0.08054306244763497,0.08065246215073255,0.39638802381159877,-44.860179070455594,303.67280544543206,0.4647874498357332,30615.2747099148,229.468115482372,0.0,0.0,0.0,8.940691707041305e-05,-0.0003585396063377297,-0.00044028858599484737,0.1477253833226101,467.6774735014833,44.85959969263188
4.699999999999904,6387172.912226544,2189.096668314631,0.0,6387173.287364664,0.0246107615587188,0.0,-45.995056174776536,465.75999387534574,0.0,-1.3694462230873228e-15,0.015709191089292012,45.835422046844975,9036.287364454884,3.8531538838009474e-09,0.0,9.786402757168169,2.5000425416812257,0.11514058694458487,0.8091318297820641,-0.0786454445343857,0.07385224291482453,0.3922170089702664,-45.835422046844975,303.6922534515656,0.4650408689387231,30635.89090583402,229.4975079082907,0.0,0.0,0.0,8.924361637150017e-05,-0.0003356344380557411,-0.0004453698070785474,0.1509272107293565,488.4989631806986,45.83483018690502
4.799999999999938,6387168.263788889,2235.6726508125857,0.0,6387168.65506025,0.026215323570163446,0.0,-46.97369710019656,465.7596548942354,0.0,-7.011141667234712e-16,0.016384788657292246,46.810666422770005,9031.655060041685,4.1043731559200826e-09,0.0,9.786416975332148,2.5322979712709617,0.0918558026990317,0.804707707500553,-0.07660817111792789,0.0674162226690208,0.3879554699321379,-46.81066642277,303.7121184467116,0.4652998475388748,30656.96210645187,229.5275324870111,0.0,0.0,0.0,8.882740142258528e-05,-0.0003130825097003665,-0.00045015495905340893,0.1541284210991978,509.79153060380037,46.81006208800778
4.899999999999971,6387163.517487072,2282.248599055574,0.0,6387163.92523133,0.027888154933800546,0.0,-47.95233945990339,465.7593087760036,0.0,2.2228385798683804e-15,0.017074610174496407,47.785912228011874,9026.925231121606,4.3662813825136785e-09,0.0,9.786431492864974,2.5638429087857806,0.06859737633765872,0.7996890316560769,-0.07445074214506613,0.06134303336235327,0.3836091554657354,-47.785912228011874,303.7324003514631,0.46556439266741206,30678.48906030893,229.55818922217614,0.0,0.0,0.0,8.817081716530251e-05,-0.0002909828857137325,-0.00045464393936213725,0.157329001508236,531.5566788476739,47.785295425876555
5.000000000000004,6387158.673320947,2328.8245123298816,0.0,6387159.097877756,0.02963067794552963,0.0,-48.93098328378189,465.758955520608,0.0,-9.21071552362207e-16,0.017778655693593114,48.761159492351894,9022.097877548173,4.63910127984364e-09,0.0,9.786446309769094,2.594731062925686,0.04540744402624026,0.7941229833666729,-0.07219196022698993,0.05562933856454731,0.37918387791927793,-48.76115949235189,303.7530990848001,0.4658345115076055,30700.472532289732,229.58947811755345,0.0,0.0,0.0,8.728746396245994e-05,-0.0002694248302592498,-0.0004588372585333123,0.1605289390453774,553.7959442824402,48.76053023044794
5.100000000000038,6387153.731290366,2375.4003899217887,0.0,6387154.172999385,0.031444314900376066,0.0,-49.909628601717216,465.75859512800577,0.0,1.2732148668703761e-15,0.018496925268483257,49.73640824557182,9017.172999176048,4.92305556570117e-09,0.0,9.786461426046985,2.625013295817951,0.022325350499517928,0.7880526830027333,-0.06984984206591177,0.05027000246670807,0.3746854557513053,-49.73640824557184,303.77421456404204,0.4661102113943676,30722.913303605954,229.6213991769613,0.0,0.0,0.0,8.619180837048813e-05,-0.00024848767068084976,-0.00046273597875833933,0.1637282208126149,576.5108966748222,49.735766531658754
5.200000000000071,6387148.691395178,2421.9762311175746,0.0,6387149.150596062,0.033330488097339746,0.0,-50.88827544359492,465.75822759815225,0.0,-6.979417044306046e-17,0.019229418953474794,50.71165851745346,9012.150595853072,5.218366960199967e-09,0.0,9.786476841701202,2.6547375830917637,-0.000612165701752986,0.7815173361572127,-0.06744154370776141,0.04525826309650582,0.3701196639339885,-50.71165851745346,303.79574670488336,0.4663914998149255,30745.812171867925,229.65395240432,0.0,0.0,-0.0,8.48989979454986e-05,-0.00022824077829154612,-0.0004663416539076437,0.166926833925266,599.7031392949535,50.71100435944615
5.300000000000105,6387143.553635227,2468.552035203509,0.0,6387144.030667634,0.03529061983455778,0.0,-51.86692383930064,465.75785293100284,0.0,3.0244140525326205e-16,0.019976136805082728,51.68691033777911,9007.030667424828,5.525258185052853e-09,0.0,9.786492556734352,2.6839490056924977,-0.023370806818479545,0.7745524202975794,-0.06498329942343085,0.04058590742242606,0.3654921920553194,-51.68691033777911,303.8176954213764,0.4666783844088054,30769.1699511003,229.68713780362316,0.0,0.0,-0.0,8.342468214700457e-05,-0.00020874365788044568,-0.00046965627208969067,0.1701247655122391,623.374309024645,51.68624374374753
5.400000000000138,6387138.318010358,2515.1278014658637,0.0,6387138.8132139435,0.0373261324124212,0.0,-52.84557381872035,465.75747112651186,0.0,-1.0860395915912591e-15,0.02073707888003766,52.66216373633097,9001.813213734618,5.8439519640937776e-09,0.0,9.786508571149064,2.7126897659006715,-0.04591856914206542,0.7671899021520016,-0.062490373834335394,0.036243446188486635,0.3608086097940529,-52.662163736330974,303.84006062593295,0.4669708729680722,30792.987471778928,229.7209553789369,0.0,0.0,-0.0,8.178484113276504e-05,-0.00019004613639175504,-0.00047268220163184917,0.1733220027162875,647.5260764681793,52.66148471450039
5.500000000000171,6387132.984520409,2561.703529190901,0.0,6387133.4982348345,0.03943844813272784,0.0,-53.82422541174038,465.75708218463234,0.0,-3.684286209448828e-15,0.02151224523658863,53.63741874289208,8996.498234625748,6.1746710231792006e-09,0.0,9.786524884948031,2.74099922145887,-0.06822561352155583,0.7594584773725084,-0.05997702673764655,0.032220286510359256,0.3560743393196399,-53.63741874289209,303.862842229316,0.4672689734374486,30817.26558085826,229.75540513438548,0.0,0.0,-0.0,7.999562396047405e-05,-0.00017218864054916664,-0.0004754221411404247,0.1765185326942719,672.1601460652078,53.636727301642885
5.600000000000205,6387127.553165221,2608.2792176648754,0.0,6387128.085730143,0.04162898929202112,0.0,-54.80287864824702,465.7566861053169,0.0,4.726968816370914e-16,0.022301635933610356,54.61267538724478,8991.08572993471,6.5176380891792174e-09,0.0,9.786541498134007,2.76891393294069,-0.0902641515009307,0.7513838253136668,-0.05745648995303681,0.028504900469314094,0.35129463407766914,-54.61267538724478,303.88604014067107,0.46757269391494677,30842.005141840848,229.79048707419565,0.0,0.0,-0.0,7.80731974353024e-05,-0.00015520255276461648,-0.0004778790740909133,0.1797143426173936,697.2782562065977,54.61197153511276
5.700000000000238,6387122.023944624,2654.854866174048,0.0,6387122.575699705,0.043899178201568995,0.0,-55.78153355812719,465.75628288851743,0.0,-4.218317362081337e-15,0.02310525103200825,55.58793369917278,8985.575699495728,6.873075893139544e-09,0.0,9.786558410709784,2.7964677205386606,-0.11200834541377194,0.7429888728822163,-0.05494095540577231,0.02508498815549296,0.3464745633577248,-55.58793369917278,303.90965426750836,0.4678820426518703,30867.207034795858,229.8262012026668,0.0,0.0,-0.0,7.603360657157794e-05,-0.00013911063446102356,-0.0004800562282083781,0.1829094196714637,722.882179351761,55.587217444848754
5.800000000000272,6387116.396858451,2701.430474004663,0.0,6387116.968143348,0.04625043716154724,0.0,-56.76019017126793,465.75587253418473,0.0,-2.037778279451175e-15,0.02392309059332545,56.563193708459416,8979.968143137343,7.241207166273593e-09,0.0,9.78657562267821,2.823691727324261,-0.13343422077127737,0.7342940623699717,-0.052441573579507926,0.02194763383106163,0.3416190020025993,-56.56319370845944,303.93368451571973,0.46819702805326435,30892.872156414658,229.86254752419333,0.0,0.0,-0.0,7.389264737827692e-05,-0.0001239275059357982,-0.00048195703973190655,0.1861037510571425,748.9737221488346,56.56246506078949
5.900000000000305,6387110.67190653,2748.006040442965,0.0,6387111.263060906,0.048684188475265844,0.0,-57.73884851755657,465.75545504226756,0.0,-4.832717559466459e-16,0.024755154678477366,57.53845544488858,8974.263060697183,7.62225464222379e-09,0.0,9.786593134042167,2.850614486763904,-0.15451958933955254,0.7253176189984372,-0.04996846141460971,0.019079454101825124,0.33673262460259035,-57.53845544488857,303.9581307895167,0.4685176586773524,30919.001419983884,229.899526043169,0.0,0.0,-0.0,7.166575243391356e-05,-0.00010966017206893769,-0.00048358512250986843,0.1892973239902317,775.5547255555728,57.537714412874045
6.000000000000338,6387104.8490887,2794.581564775196,0.0,6387105.460452215,0.05120185445040075,0.0,-58.717508626880786,465.75503041271566,0.0,-3.462213848948181e-15,0.025601443351231264,58.51371893824417,8968.460452006066,8.01644105728851e-09,0.0,9.786610944804584,2.877261992879942,-0.17524398139556202,0.7160758145979721,-0.04753071869232016,0.01646673719870629,0.33181990352292967,-58.51371893824417,303.98299299150096,0.4688439432366976,30945.595755499628,229.93713676408967,0.0,0.0,-0.0,6.936788949172163e-05,-9.630858351594674e-05,-0.0004849442417565553,0.1924901257018845,802.6270649651876,58.512965531041644
6.100000000000372,6387098.928404744,2841.157046287588,0.0,6387099.560317061,0.05380485740719905,0.0,-59.69617052912846,465.7545986454771,0.0,-8.354150704548147e-17,0.02646195667863059,59.488984218310684,8962.560316851657,8.423989151740754e-09,0.0,9.786629054968556,2.903657771943206,-0.19558858576437732,0.7065832244346119,-0.045136451929414526,0.014095572674620784,0.3268851101329641,-59.4889842183107,304.00827102282193,0.469175890600523,30972.65610987644,229.97537969178913,0.0,0.0,-0.0,6.701347315052597e-05,-8.386622349267346e-05,-0.0004860382922013461,0.1956821434387551,830.1926503368474,59.4882184452319
6.200000000000405,6387092.909854521,2887.732484266373,0.0,6387093.562655302,0.05649461964313236,0.0,-60.67483425418784,465.75415974049895,0.0,-2.210148730696915e-15,0.027336694723743674,60.464251314872705,8956.562655093161,8.845121664328006e-09,0.0,9.786647464537017,2.9298229549887935,-0.21553619636299517,0.6968529746999444,-0.04279280480979165,0.011951971014955034,0.3219323186391497,-60.464251314872705,304.0339647826875,0.46951350978853956,31000.18344646443,230.01425483069556,0.0,0.0,-0.0,6.461628944226369e-05,-7.232071083476807e-05,-0.00048687128027926474,0.1988733644635603,858.2534263136711,60.46347318538469
6.300000000000439,6387086.793437835,2934.3078779977636,0.0,6387087.467466743,0.05927256346441427,0.0,-61.65349983194755,465.75371369772756,0.0,-3.861944097849346e-15,0.02822565755414136,61.43952025771523,8950.467466534139,9.280061337240942e-09,0.0,9.78666617351311,2.9557763507730304,-0.23507116410042886,0.6868969786081269,-0.04050599419639103,0.010021972839010627,0.3169654119672117,-61.43952025771524,304.0600741689108,0.4698568099783841,31028.1787456761,230.053762185656,0.0,0.0,-0.0,6.218943303100677e-05,-6.165441068322361e-05,-0.00048744730999377534,0.2020637760549834,886.8113723664616,61.438729781440244
6.400000000000472,6387080.579154494,2980.8832267679854,0.0,6387081.274751193,0.06214011119041447,0.0,-62.63216729229627,465.75326051710863,0.0,-2.3010926497590846e-15,0.029128845237917176,62.414791076623665,8944.274750983832,9.72903091683848e-09,0.0,9.78668518189999,2.9815345190478704,-0.25417935310457906,0.6767261594119764,-0.03828135079649255,0.008291747533893093,0.3119880891888928,-62.41479107662366,304.0865990776494,0.47020580050245986,31056.643004749818,230.09390176153872,0.0,0.0,-0.0,5.974525657325706e-05,-5.1845044865115274e-05,-0.00048777057200345236,0.205253365508087,915.8685029216463,62.41398826333908
6.500000000000505,6387074.267004314,3027.4585298632546,0.0,6387074.984508467,0.06509868513816765,0.0,-63.61083666512326,465.75280019858644,0.0,7.952305480785072e-16,0.0300462578438619,63.390063801383334,8937.984508258296,1.0192253151256448e-08,0.0,9.78670448970084,3.007111844228524,-0.27284810036018986,0.6663506589682666,-0.03612336359365701,0.006747681310478142,0.3070038740430595,-63.39006380138334,304.11353940340337,0.47056049084816476,31085.577237789686,230.13467356322613,0.0,0.0,-0.0,5.729533167886868e-05,-4.286629481791813e-05,-0.00048784533550983816,0.2084421201345658,945.4268674971287,63.3892486610219
6.600000000000539,6387067.856987099,3074.033786569772,0.0,6387068.596738373,0.06814970761686204,0.0,-64.58950798031807,465.75233274210495,0.0,-6.429523580209206e-16,0.03097789544210571,64.36533846178041,8931.5967381645,1.066995078957872e-08,0.0,9.786724096918913,3.0325206096786026,-0.29106617794690687,0.655780030760526,-0.03403572720812586,0.0053764548027733835,0.3020161241571911,-64.36533846178042,304.14089503908446,0.47092089065908777,31114.982475884713,230.17607759571746,0.0,0.0,-0.0,5.48504208147204e-05,-3.468839069971755e-05,-0.00048767594250778435,0.2116300272629489,975.4885508424542,64.36451100443006
6.700000000000572,6387061.3491026545,3120.608996173741,0.0,6387062.1114407135,0.07129460094671032,0.0,-65.56818126777043,465.7518581476067,0.0,-5.255712531848645e-16,0.0319237581036264,65.34061508760101,8925.111440504874,1.1162346584825773e-08,0.0,9.78674400355752,3.0577710729405747,-0.3088237571612406,0.6450234165341399,-0.032021391402473336,0.004165110447121233,0.29702804063153376,-65.34061508760102,304.16866587599964,0.4712870097350532,31144.859767134618,230.2181138640997,0.0,0.0,-0.0,5.242045941897357e-05,-2.7278681135917222e-05,-0.0004872668039730477,0.2148170742388558,1006.0556730791814,65.33977532350491
6.800000000000606,6387054.7433507815,3167.184157961356,0.0,6387055.528615294,0.0745347874759687,0.0,-66.54685655737057,465.75137641503386,0.0,-1.310226926953817e-15,0.03288384590056238,66.31589370863193,8918.52861508525,1.1669663296653343e-08,0.0,9.78676420961999,3.082871542303255,-0.32611237389116976,0.6340897059204276,-0.03008261200890677,0.00310110997648666,0.2920426777028442,-66.31589370863195,304.1968518038187,0.4716588580319852,31175.210176661014,230.2607823734958,0.0,0.0,-0.0,5.0014547438771844e-05,-2.060217885721877e-05,-0.00048662239758795396,0.2180032484252676,1037.1303898431336,66.31504164818836
6.900000000000639,6387048.039731277,3213.7592712188107,0.0,6387048.848261909,0.0778716894957337,0.0,-67.52553387900885,465.7508875443278,0.0,4.696301680873205e-15,0.03385815890674301,67.29117435466003,8911.848261702384,1.2192123678046506e-08,0.0,9.786784715109734,3.1078284551267332,-0.34292489468772325,0.6229876786293894,-0.028221002617240955,0.0021723824480354387,0.2870629522564727,-67.29117435466003,304.22545271063035,0.4720364456629226,31206.034786713146,230.30408312914574,0.0,0.0,-0.0,4.764094946640149e-05,-1.4622078270917308e-05,-0.0004857472666364145,0.2211885372027317,1068.714892431422,67.29031000842257
7.000000000000672,6387041.2382439375,3260.334335232286,0.0,6387042.07038036,0.081306729322844,0.0,-68.50421326257616,465.7503915354285,0.0,-5.572958761135283e-16,0.034846697196244926,68.26645705547207,8905.070380150752,1.2729950488333335e-08,0.0,9.786805520030216,3.132646458342592,-0.35925548304534627,0.6117261289797877,-0.026437586426834643,0.0013673632900358065,0.2820916530035782,-68.26645705547209,304.25446848291534,0.4724197828979543,31237.334696685677,230.34801613636247,0.0,0.0,-0.0,4.530710262673755e-05,-9.300241767987055e-06,-0.0004846460197310516,0.2243729279696256,1100.8114079496045,68.26558043414974
7.100000000000706,6387034.338888553,3306.909349287956,0.0,6387035.194970433,0.08484132927712382,0.0,-69.48289473796368,465.7498883882755,0.0,-2.0494106411916846e-15,0.03584946084475032,69.24174184085614,8898.194970223698,1.3283366489656017e-08,0.0,9.78682662438492,-3.125856815662535,-0.37509956546343215,0.6003139727137004,-0.02473284773043326,0.0006750249076674505,0.27713144918392835,-69.24174184085614,304.2838990055436,0.47280888016448,31269.111023163496,230.39258140052422,0.0,0.0,-0.0,4.301963136180477e-05,-4.5976522938286e-06,-0.00048332333107717964,0.2275564081424052,1133.4221994618752,69.24085295531296
7.200000000000739,6387027.341664914,3353.4843126719966,0.0,6387028.2220319165,0.0884769116878369,0.0,-70.46157833506292,465.7493781028067,0.0,8.607947687977458e-16,0.03686644992848116,70.21702874060007,8891.222031708892,1.3852594448015383e-08,0.0,9.786848028177422,-3.101309434369259,-0.39045379691644355,0.5887603362133342,-0.02310678256188107,8.489942757401038e-05,0.27218489869361523,-70.21702874060007,304.31374416179625,0.4732037480477913,31301.364899993114,230.43777892710446,0.0,0.0,-0.0,4.07843682634598e-05,-4.7483039303793577e-07,-0.00048178394101651645,0.2307389651558292,1166.549566144354,70.21612760185538
7.300000000000771,6387020.246572813,3400.0592246705714,0.0,6387021.151564612,0.09221489887504354,0.0,-71.4402640837658,465.74886067896017,0.0,-3.2570612873428217e-15,0.03789766452482731,71.19231778449212,8884.151564405358,1.443785713038603e-08,0.0,9.78686973141127,-3.076896919089175,-0.4053160254112033,0.5770746284023044,-0.02155894810216375,-0.000412905810996177,0.2672544555709598,-71.19231778449213,304.34400383329495,0.4736043972904432,31334.097478255568,230.48360872156098,0.0,0.0,-0.0,3.860638012156608e-05,3.107785426804133e-06,-0.0004800326566315059,0.233920586463257,1200.195843437851,71.19140440372054
7.400000000000806,6387013.05361202,3446.6340845698405,0.0,6387013.9835682865,0.09605671317008907,0.0,-72.4189520139645,465.7483361166725,0.0,2.5506596834645733e-15,0.03894310471316057,72.1676090023211,8876.983568079186,1.5039377307958274e-08,0.0,9.786891734090183,-3.052620923812193,-0.41968525535817497,0.5652665957725449,-0.02008851049848632,-0.0008276993937473643,0.26234247680290235,-72.1676090023211,304.374677900194,0.4740108387950999,31367.309926523496,230.53007078962335,0.0,0.0,-0.0,3.648999838157462e-05,6.189495584793946e-06,-0.00047807435223574203,0.2371012595367434,1234.3634032116568,72.16668339085238
7.500000000000839,6387005.762782332,3493.208891655954,0.0,6387006.718042736,0.10000377689514231,0.0,-73.39764215555161,465.74780441587984,0.0,-1.607380895052302e-16,0.04000277057288156,73.1429024238759,8869.718042528264,1.565737775296844e-08,0.0,9.786914036217809,-3.0284844465706824,-0.4335616095303016,0.5533463611313991,-0.01869429080851987,-0.0011682029660207746,0.25745122843847495,-73.14290242387591,304.40576624090534,0.4744230836212103,31401.003430614597,230.57716513687294,0.0,0.0,-0.0,3.4438853238247266e-05,8.809033614615418e-06,-0.0004759139695976775,0.2402809718674899,1269.0546539143004,73.1419645931951
7.600000000000873,6386998.374083513,3539.78364521506,0.0,6386999.354987732,0.10405751238473089,0.0,-74.37633453842017,465.7472655765167,0.0,2.9831720427253574e-15,0.04107666218475454,74.11819807894571,8862.354987523226,1.6292081242104778e-08,0.0,9.786936637797922,-3.0044917302972225,-0.44694628942896275,0.5413244468103768,-0.017374808836077567,-0.0014425537350620783,0.2525828910157487,-74.11819807894572,304.4372687323544,0.47484114298870284,31435.179193918928,230.6248917691263,0.0,0.0,-0.0,3.2455910634694137e-05,1.1004297224418195e-05,-0.00047355651780138833,0.2434597109658879,1304.2720407444547,74.1172480406933
7.700000000000906,6386990.8875153465,3586.358344533303,0.0,6386991.89440305,0.10821934197440711,0.0,-75.35502919246356,465.7467195985177,0.0,-2.563349532636039e-15,0.042164779631334456,75.09349599732073,8854.89440284152,1.694371055476683e-08,0.0,9.78695953883432,-2.980648160530131,-0.4598415339225218,0.5292117832161642,-0.01612832467497743,-0.0016583117201243495,0.24773956432430133,-75.09349599732074,304.46918524983624,0.4752650282764063,31469.83843729565,230.67325069221363,0.0,0.0,-0.0,3.05435114794752e-05,1.2812115388120217e-05,-0.0004710070726524827,0.2466374643618705,1340.018045810839,75.09253376329218
7.8000000000009395,6386983.303077602,3632.932988896811,0.0,6386984.336288461,0.11249068799152755,0.0,-76.33372614757546,465.74616648181603,0.0,1.6539103420143423e-15,0.043267122995399324,76.0687962087909,8847.336288253784,1.761248847165593e-08,0.0,9.786982739330863,-2.9569601602628293,-0.47225057606910253,0.5170197037336878,-0.01495287782450037,-0.001822471147145935,0.24292327153726467,-76.0687962087909,304.50151566707643,0.47569475102318093,31504.98239919164,230.72224191206763,0.0,0.0,-0.0,2.8703412445723773e-05,1.4268050270288455e-05,-0.00046827077558460887,0.2498142196051004,1376.2951883015412,76.06782179093703
7.900000000000973,6386975.620770043,3679.5075775917066,0.0,6386976.680643735,0.11687297276979765,0.0,-77.31242543365006,465.7456062263438,0.0,9.739459239099803e-16,0.04438369236091944,77.0440987431469,8839.680643527247,1.8298637777086443e-08,0.0,9.787006239291458,-2.933435082351509,-0.4841775980817553,0.5047599271081326,-0.013846323782461614,-0.0019414754068778032,0.23813596275564078,-77.04409874314692,304.53425985621953,0.4761303229280895,31540.612335682035,230.77186543470123,0.0,0.0,-0.0,2.693682776751779e-05,1.5406232484658296e-05,-0.00046535283203333794,0.252989964265219,1413.106024653315,77.04311215357377
8.000000000001005,6386967.8405924365,3726.0821099041145,0.0,6386968.927468639,0.12136761865043309,0.0,-78.2911270805818,465.74503883203255,0.0,4.211972437495603e-15,0.04551448781348954,78.01940363017953,8831.927468431404,1.900238125920161e-08,0.0,9.787030038720049,-2.910081100006909,-0.49562768444083266,0.492444528535307,-0.012806368060454118,-0.002021235022131158,0.23337951801340662,-78.01940363017953,304.5674176878065,0.47657175585043926,31576.7295205006,230.82212126617065,0.0,0.0,-0.0,2.5244471502886255e-05,1.6259227938004376e-05,-0.00046225850926837926,0.2561646859320992,1450.453148722819,78.01840488114841
8.10000000000095,6386959.962544547,3772.656585120148,0.0,6386961.076762934,0.12597604797193615,0.0,-79.26983111826561,465.7444642988135,0.0,-3.1914970666235835e-15,0.04665950943982156,78.99471089967984,8824.076762726678,1.9723941708406942e-08,0.0,9.787054137620652,-2.886907095996423,-0.5066067732047201,0.4800859007751792,-0.011830597600282865,-0.002067148100345822,0.22865574979535835,-78.99471089967984,304.6009890308266,0.4770190618108037,31613.335245150625,230.87300941264945,0.0,0.0,-0.0,2.362659978726373e-05,1.6857934313834092e-05,-0.0004589931336916288,0.25933837221604,1488.3391919632636,78.99370000360749
8.200000000000895,6386951.9866261305,3819.231002525911,0.0,6386953.128526381,0.13069968307296212,0.0,-80.24853757659685,465.7438826266154,0.0,-5.097089417205325e-16,0.047818757326501135,79.97002058144007,8816.12852617348,2.046354191785302e-08,0.0,9.787078535997328,-2.8639225512687236,-0.5171216056155047,0.46769670666949464,-0.01091650960103309,-0.0020841227810734775,0.22396640512100474,-79.97002058144008,304.63497375268105,0.47747225299088036,31650.430818921035,230.92452988036908,0.0,0.0,-0.0,2.2083052655200755e-05,1.7231505101107558e-05,-0.0004555620876183393,0.2625110107480322,1526.766823600108,79.96899755089825
8.30000000000084,6386943.91283695,3865.8053614075025,0.0,6386945.082758739,0.13553994629566893,0.0,-81.22724648547118,465.7432938153678,0.0,-1.030627250209193e-14,0.04899223156232626,80.94533270525206,8808.08275853109,2.122140468399403e-08,0.0,9.787103233854165,-2.8411374337816837,-0.5271796741399034,0.4552898244892119,-0.01006153779274249,-0.0020766012234359203,0.2193131672476394,-80.94533270525206,304.6693717191904,0.477931341733941,31688.01756895125,230.97668267562668,0.0,0.0,-0.0,2.0613295061593286e-05,1.7407298968965545e-05,-0.0004519708055727577,0.2656825891799837,1565.7387508109007,80.94429755296784
8.400000000000784,6386935.741176755,3912.3796610510153,0.0,6386936.9394597635,0.14049825998280052,0.0,-82.20595787478467,465.7426978649983,0.0,2.1308371733752556e-15,0.05017993223675494,81.9206473009084,8799.939459555388,2.1997752806165096e-08,0.0,9.787128231195318,-2.8185620883632883,-0.5367891691269038,0.4428782875595622,-0.009263076215400878,-0.00204858471542548,0.21469765704419655,-81.9206473009084,304.70418279460677,0.47839634054534486,31726.096840301805,231.0294678047995,0.0,0.0,-0.0,1.9216456785142836e-05,1.7410852225169213e-05,-0.00044822477013482727,0.2688530951849445,1605.257718907925,81.91960003976418
8.500000000000728,6386927.471645293,3958.9539007425324,0.0,6386928.6986292,0.14557604648389985,0.0,-83.18467177443397,465.7420947754344,0.0,-6.437983479656851e-15,0.05138185944098226,82.89596439820197,8791.698628994296,2.2792809087589185e-08,0.0,9.787153528025007,-2.796207128462808,-0.5459589243012762,0.4304752196090907,-0.008518500581186673,-0.0020036595244119155,0.21012143408505848,-82.89596439820197,304.7394068416367,0.4788672620931958,31764.669996036893,231.08288527437463,0.0,0.0,-0.0,1.7891370946248773e-05,1.7265872070089822e-05,-0.0004443295073804155,0.272022516457318,1645.326511523853,82.89490504123535
8.600000000000673,6386919.104242323,4005.5280797681276,0.0,6386920.360266811,0.15077472813544035,0.0,-84.16338821431613,465.7414845466018,0.0,-2.345507121859214e-15,0.052598013265459716,83.87128402692647,8783.360266604823,2.3606796332300245e-08,0.0,9.787179124347466,-2.7740833306549475,-0.554698361345457,0.41809376726381925,-0.007825187313668156,-0.0019450231458230825,0.205585997509838,-83.87128402692647,304.77504372137014,0.479344119207763,31803.738417206365,231.1369350908383,0.0,0.0,-0.0,1.663661091834833e-05,1.6994248365515153e-05,-0.0004402905819594978,0.2751908407131553,1685.9479507957367,83.87021258733034
8.700000000000617,6386910.63896757,4052.102197413873,0.0,6386911.924372319,0.15609572730099977,0.0,-85.14210722432843,465.74086717842675,0.0,-6.444328404242584e-15,0.05382839380540601,84.8466062168754,8774.924372112187,2.443993735146743e-08,0.0,9.787205020167056,-2.7522015327430345,-0.5630174338504853,0.40574703105936766,-0.007180530370381763,-0.001875510644164502,0.20109278669154226,-84.84660621687539,304.8110932934586,0.47982692488422324,31843.3035030999,231.19161726094117,0.0,0.0,-0.0,1.545052545588108e-05,1.661608167459619e-05,-0.0004361135918638231,0.2783580556902238,1727.1248975629471,84.8455227079979
8.800000000000562,6386902.075820787,4098.676252965831,0.0,6386903.39094548,0.16154046632388994,0.0,-86.12082883436878,465.74024267083314,0.0,-6.150346898436966e-15,0.055073001152968745,85.821930997843,8766.390945273399,2.529245495601216e-08,0.0,9.787231215488095,-2.730572536269351,-0.5709265709390832,0.3934479962736932,-0.00658195596500004,-0.001797620816895481,0.1966431817516684,-85.82193099784301,304.8475554158462,0.48031569227943155,31883.366671012627,231.24693179128587,0.0,0.0,-0.0,1.4331271902331033e-05,1.6149725391015647e-05,-0.00043180416292312127,0.2815241491484811,1768.860251546892,85.82083543318764
8.900000000000507,6386893.41480171,4145.250245710056,0.0,6386894.759986032,0.16711036756032152,0.0,-87.09955307433525,465.7396110237449,0.0,-1.895017476272187e-15,0.056331835403858874,86.79725839962384,8757.759985825029,2.616457196183501e-08,0.0,9.787257710315002,-2.7092070141830575,-0.5784366208800031,0.38120946479311385,-0.006026935312468586,-0.001713541946812618,0.19223850395682457,-86.79725839962384,304.8844299449955,0.4808104347153214,31923.92935655411,231.3028786886658,0.0,0.0,-0.0,1.327684738002475e-05,1.5611839860013217e-05,-0.00042736794308830017,0.2846891088700984,1811.1569515563858,86.79615079284932
9.000000000000451,6386884.655910081,4191.824174932594,0.0,6386886.031493714,0.17280685335997578,0.0,-88.07827997412674,465.73897223708497,0.0,-5.1647686127864744e-15,0.05760489665414265,87.77258845201314,8749.031493507055,2.705651118680774e-08,0.0,9.787284504652218,-2.688115424340978,-0.5855587950221662,0.36904398911706854,-0.0055129955252743845,-0.0016251769421928104,0.18788001602748852,-87.77258845201314,304.92171673578815,0.48131116567795945,31964.993013601776,231.3594579599103,0.0,0.0,-0.0,1.228511789652539e-05,1.5017456494593921e-05,-0.0004228105965367049,0.287852922659779,1854.017975680374,87.7714688169335
9.100000000000396,6386875.799145628,4238.398039919487,0.0,6386877.205468255,0.17863134608623876,0.0,-89.05700956364241,465.7383263107746,0.0,-3.202071940933138e-15,0.058892185000711514,88.74792118480683,8740.2054680481,2.7968495453975512e-08,0.0,9.787311598504274,-2.6673079294267485,-0.5923046123797596,0.3569638094856688,-0.005037728791676699,-0.0015341676957727876,0.18356892238571304,-88.74792118480684,304.95941564159193,0.48181789881881293,32006.559114436153,231.41666961198055,0.0,0.0,-0.0,1.135384533361938e-05,1.4380050006619996e-05,-0.0004181377976484013,0.2910155783449226,1897.446341491231,88.74678953539119
9.20000000000034,6386866.844508076,4284.971839956757,0.0,6386868.281909389,0.18458526808924594,0.0,-90.0357418727817,465.7376732447353,0.0,-1.4276080317898732e-15,0.06019370054188026,89.72325662780028,8731.281909182462,2.89007475873705e-08,0.0,9.787338991875714,-2.646794323772504,-0.5986858451954047,0.34498079498208856,-0.0045987999675262,-0.0014419185234947585,0.17930636936494054,-89.72325662780028,304.9975265141898,0.48233064795420183,32048.629149727614,231.47451365185924,0.0,0.0,-0.0,1.0480712311652502e-05,1.3711616998729282e-05,-0.00041335522489015746,0.2941770637759141,1941.4451062437424,89.72211297817327
9.300000000000283,6386857.791997163,4331.5455743304365,0.0,6386859.260816847,0.19067004173437804,0.0,-91.01447693144495,465.73701303888714,0.0,-2.0536405909155065e-15,0.06150944337711954,90.69859481079027,8722.26081664104,2.9853490416507514e-08,0.0,9.787366684771138,-2.626583967458006,-0.6047144657981288,0.33310638932272635,-0.004193952712464188,-0.001349618571688661,0.17509344540169286,-90.69859481079027,305.03604920382224,0.482849427066254,32091.20462864676,231.53299008660923,0.0,0.0,-0.0,9.663344945920315e-06,1.3022759297614917e-05,-0.00040846855464742314,0.2973373668263138,1986.0173670824483,90.69743917523178
9.40000000000023,6386848.6416126,4378.119242326539,0.0,6386850.14219034,0.19688708938853575,0.0,-91.99321476953239,465.73634569314925,0.0,4.576805601175238e-15,0.0628394136071891,91.6739357635739,8713.142190134284,3.082694677426927e-08,0.0,9.787394677195257,-2.606685727948352,-0.6104025950565237,0.32135156190572844,-0.003821014299066541,-0.0012582631068985192,0.17093118122577639,-91.67393576357391,305.0749835592628,0.4833742503043233,32134.28707901331,231.592098923484,0.0,0.0,-0.0,8.899333532183687e-06,1.2322770548311911e-05,-0.00040348345503756584,0.3004964753930024,2031.1662612536932,91.67276815651888
9.500000000000174,6386839.393354113,4424.692843231069,0.0,6386840.926029602,0.20323783341242962,0.0,-92.97195541694516,465.73567120743996,0.0,2.2270685295922023e-15,0.06418361133324015,92.64927951594814,8703.926029395365,3.182133949573299e-08,0.0,9.787422969152736,-2.587107929416645,-0.6157624527059513,0.30972676454635417,-0.00347789922009347,-0.0011686736258431816,0.16682055006280522,-92.64927951594814,305.11432942763713,0.4839051319829495,32177.87804716167,231.65184016964815,0.0,0.0,-0.0,8.18625121574718e-06,1.1619724730671819e-05,-0.00039840557973226014,0.303654377396581,2076.894966306047,92.64809995198705
