time,eiPosition_m_X,eiPosition_m_Y,eiPosition_m_Z,eiVelocity_m_s_X,eiVelocity_m_s_Y,eiVelocity_m_s_Z,feVelocity_m_s_X,feVelocity_m_s_Y,feVelocity_m_s_Z,altitudeMsl_m,longitude_rad,latitude_rad,localGravity_m_s2,eulerAngle_rad_Yaw,eulerAngle_rad_Pitch,eulerAngle_rad_Roll,bodyAngularRateWrtEi_rad_s_Roll,bodyAngularRateWrtEi_rad_s_Pitch,bodyAngularRateWrtEi_rad_s_Yaw,speedOfSound_m_s,airDensity_kg_m3,ambientPressure_Pa,ambientTemperature_K,aero_bodyForce_N_X,aero_bodyForce_N_Y,aero_bodyForce_N_Z,aero_bodyMoment_Nm_L,aero_bodyMoment_Nm_M,aero_bodyMoment_Nm_N,mach,dynamicPressure_Pa
0.0,6387281.000012401,0.0,0.0,0.0,465.76787589444,0.0,0.0,0.0,-0.0,9144.0,0.0,0.0,9.78607215813912,0.0,0.0,0.0,0.0,0.0,0.0,303.2301256063032,0.4590404150549219,30148.940285576737,228.79937393444447,0.0,0.0,0.0,0.0,0.0,0.0,0.0,0.0
0.1,6387280.951061521,46.5767874702672,0.0,-0.9786072207912961,465.767872325232,0.0,0.0,7.111349181337201e-06,0.975210787860528,9143.9512394676,3.711203253905445e-14,0.0,9.786072307781787,0.0,0.0,-7.292115037104997e-06,0.0,0.0,0.0,303.2303350273728,0.45904311353924415,30149.159161179174,228.79968996833335,0.0,0.0,0.0,0.0,0.0,0.0,0.00321607265249,0.21828328197657984
0.2,6387280.80426984,93.1535742269976,0.0,-1.957214471465184,465.767861620656,0.0,0.0,2.8445397387496322e-05,1.950421605496968,9143.80495783992,2.968962584201495e-13,0.0,9.786072756740268,0.0,0.0,-1.4584230296896551e-05,0.0,0.0,0.0,303.2309632902768,0.45905120906591007,30149.81579579097,228.80063806944446,0.0,0.0,0.0,0.0,0.0,0.0,0.00643213207695,0.8731485529818243
0.3,6387280.55963736,139.7303595566544,0.0,-2.935821781892064,465.76784378071204,0.0,0.0,6.40021461892032e-05,2.9256324826852325,9143.561155147441,1.00202491545457e-12,0.0,9.786073505014564,0.0,0.0,-2.187634600195651e-05,0.0,0.0,0.0,303.232010392272,0.4590647018539557,30150.910212634055,228.8022182377778,0.0,0.0,0.0,0.0,0.0,0.0,0.00964816504564,1.9646420892836431
0.4,6387280.217103121,186.30714274539602,0.0,-3.91442918196672,465.76781880540005,0.0,0.0,0.00011378159848135681,3.9008434491890402,9143.219831329201,2.3751703133548827e-12,0.0,9.786074552604672,0.0,0.0,-2.9168462375111048e-05,0.0,0.0,0.0,303.2334763287864,0.4590835922698153,30152.442450443552,228.80443047388889,0.0,0.0,0.0,0.0,0.0,0.0,0.0128641583313,3.492841021504844
0.5,6387279.776728081,232.88392307968562,0.0,-4.89303670154736,465.767786691672,0.0,0.0,0.00017778375799793998,4.87605453482088,9142.780986446161,4.639004889588963e-12,0.0,9.786075899510598,0.0,0.0,-3.646057963908163e-05,0.0,0.0,0.0,303.2353610946384,0.45910788082474485,30154.412563467795,228.8072747777778,0.0,0.0,0.0,0.0,0.0,0.0,0.0160800987077,5.457853339830106
0.6,6387279.23851224,279.4606998459864,0.0,-5.87164437051048,465.767747442576,0.0,0.0,0.00025600862931278163,5.851265769317041,9142.244620437361,8.016201185641073e-12,0.0,9.786077545732338,0.0,0.0,-4.375269801622322e-05,0.0,0.0,0.0,303.2376646819032,0.4591375681773982,30156.820621372564,228.81075115000002,0.0,0.0,0.0,0.0,0.0,0.0,0.0192959729493,7.859817901381941
0.7,6387278.60242512,326.037472330152,0.0,-6.850252218787441,465.76770105811204,0.0,0.0,0.00034845621874072803,6.826477182456481,9141.61073327232,1.2729431973928716e-11,0.0,9.786079491239416,0.0,0.0,-5.104481772941435e-05,0.0,0.0,0.0,303.24038708113204,0.45917265513279726,30159.666709480476,228.81485959111114,0.0,0.0,0.0,0.0,0.0,0.0,0.0225117678323,10.69890443966746
0.8,6387277.86846672,372.61423981956,0.0,-7.82886027618768,465.76764753828,0.0,0.0,0.000455126532806328,7.801688804018161,9140.87932498152,1.9001370212293175e-11,0.0,9.78608173609279,0.0,0.0,-5.8336939001359034e-05,0.0,0.0,0.0,303.24352828135204,0.45921314264130053,30162.950928483722,228.81960010111112,0.0,0.0,0.0,0.0,0.0,0.0,0.0257274701344,13.975313575988249
0.9,6387277.03663704,419.191001600064,0.0,-8.80746857261208,465.767586880032,0.0,0.0,0.000576019580474664,8.77690066381152,9140.050395504,2.70546892066642e-11,0.0,9.786084280231503,0.0,0.0,-6.562906205476129e-05,0.0,0.0,0.0,303.2470882703712,0.4592590318011802,30166.67339463556,228.82497268055556,0.0,0.0,0.0,0.0,0.0,0.0,0.0289430666351,17.689276833277752
1.0,6387276.10696656,465.767756958432,0.0,-9.78607713796152,465.76751908641603,0.0,0.0,0.000711135370508736,9.75211279158504,9139.123944839761,3.711206242973775e-11,0.0,9.786087123686038,0.0,0.0,-7.292118711197605e-05,0.0,0.0,0.0,303.2510670335592,0.4593103238555301,30170.834239750362,228.83097733111111,0.0,0.0,0.0,0.0,0.0,0.0,0.0321585441162,21.841056651662363
1.1,6387275.0794248,512.344505178384,0.0,-10.7646860021064,465.767444157432,0.0,0.0,0.00086047391320164,10.7273252170872,9138.09997295832,4.939616383827684e-11,0.0,9.786090266456393,0.0,0.0,-8.021331439623095e-05,0.0,0.0,0.0,303.25546455506645,0.45936702019587294,30175.4336110599,228.8376140527778,0.0,0.0,0.0,0.0,0.0,0.0,0.035373889362,26.430946406368644
1.2,6387273.954011761,558.9212455527841,0.0,-11.74329519491712,465.76736209308007,0.0,0.0,0.00102403521982488,11.702537970127441,9136.97847979872,6.412966758609219e-11,0.0,9.786093708542573,0.0,0.0,-8.750544412970637e-05,0.0,0.0,0.0,303.2602808172144,0.45942912235855304,30180.471671357074,228.84488284611112,0.0,0.0,0.0,0.0,0.0,0.0,0.0385890891593,31.459270427641506
1.3,6387272.73075792,605.497977359256,0.0,-12.72190474629456,465.76727289031203,0.0,0.0,0.0012018193032532082,12.67775108048472,9135.75946533048,8.153524844763355e-11,0.0,9.786097449944576,0.0,0.0,-9.479757653528088e-05,0.0,0.0,0.0,303.265515800496,0.4594966320267976,30185.948599091604,228.85278371222222,0.0,0.0,0.0,0.0,0.0,0.0,0.0418041302982,36.92638402281702
1.4,6387271.409632801,652.0746998906641,0.0,-13.700514686078641,465.767176552176,0.0,0.0,0.001393826176852104,13.652964577938,9134.442929553601,1.0183558149999083e-10,0.0,9.786101490662407,0.0,0.0,-0.0001020897118356585,0.0,0.0,0.0,303.27116948388,0.4595695510312321,30191.864588130655,228.86131665222223,0.0,0.0,0.0,0.0,0.0,0.0,0.0450189995716,42.832673500406166
1.5,6387269.99066688,698.651412433776,0.0,-14.679125044170242,465.767073078672,0.0,0.0,0.001600055855450088,14.62817849223576,9133.028872407122,1.2525334235048491e-10,0.0,9.78610583069607,0.0,0.0,-0.00010938185025336869,0.0,0.0,0.0,303.2772418445064,0.4596478813488498,30198.2198478546,228.87048166722224,0.0,0.0,0.0,0.0,0.0,0.0,0.0482336837765,49.17855619647688
1.6,6387268.47382968,745.2281142692641,0.0,-15.65773585047024,465.766962466752,0.0,0.0,0.0018205083545767202,15.60339285315696,9131.517293860561,1.5201120704486339e-10,0.0,9.786110470045564,0.0,0.0,-0.00011667399201129,0.0,0.0,0.0,303.28373285860084,0.459731625102496,30205.014603396423,228.88027875833333,0.0,0.0,0.0,0.0,0.0,0.0,0.0514481697132,55.96448050223308
1.7,6387266.8591212,791.8048046869441,0.0,-16.63634713481856,465.766844722512,0.0,0.0,0.0020551836910874402,16.578607690511042,9129.90819382248,1.8233185234027012e-10,0.0,9.78611540871089,0.0,0.0,-0.0001239661373317774,0.0,0.0,0.0,303.29064249934083,0.4598207845629298,30212.249095258656,228.89070792666666,0.0,0.0,0.0,0.0,0.0,0.0,0.0546624441865,63.190925896381685
1.8,6387265.146541441,838.381482976632,0.0,-17.61495892714656,465.766719839856,0.0,0.0,0.002304081882950208,17.55382303404648,9128.20157229288,2.1643795549493291e-10,0.0,9.786120646692053,0.0,0.0,-0.00013125828643788392,0.0,0.0,0.0,303.2979707392944,0.4599153621472778,30219.923579648566,228.90176917333335,0.0,0.0,0.0,0.0,0.0,0.0,0.0578764940051,70.85840297544087
1.9,6387263.336120881,884.958148419,0.0,-18.593571257263683,465.76658781878405,0.0,0.0,0.002567202949117488,18.52903891354224,9126.39742918032,2.545521945219345e-10,0.0,9.786126183989058,0.0,0.0,-0.00013855043955213908,0.0,0.0,0.0,303.30571754889604,0.4600153604200651,30228.038328286628,228.9134625,0.0,0.0,0.0,0.0,0.0,0.0,0.0610903059827,78.96745348969813
2.0,6387261.42782904,931.5348003008161,0.0,-19.57218415510128,465.76644866539203,0.0,0.0,0.002844546909654264,19.504255358777282,9124.4957644848,2.968972479066437e-10,0.0,9.786132020632385,0.0,0.0,-0.00014584259689724686,0.0,0.0,0.0,303.3138828973608,0.4601207820926995,30236.593628598042,228.9257879077778,0.0,0.0,0.0,0.0,0.0,0.0,0.0643038669378,87.51865037959922
2.1,6387259.4216964,978.111437911896,0.0,-20.55079765052976,465.766302373584,0.0,0.0,0.0031361137860885604,20.47947239953056,9122.4965780844,3.436957951118138e-10,0.0,9.786138156561073,0.0,0.0,-0.0001531347586957368,0.0,0.0,0.0,303.32246675146564,0.4602316300224414,30245.589783616946,228.93874539833334,0.0,0.0,0.0,0.0,0.0,0.0,0.0675171636938,96.51259781548886
2.2,6387257.317662001,1024.6880605390081,0.0,-21.52941177345,465.76614894336,0.0,0.0,0.0034419036001617606,21.45469006558104,9120.399869979121,3.951705161098341e-10,0.0,9.786144591836095,0.0,0.0,-0.00016042692517048734,0.0,0.0,0.0,303.3314690770728,0.4603479072160106,30255.02711184285,228.95233497277778,0.0,0.0,0.0,0.0,0.0,0.0,0.0707301830798,105.94993123735131
2.3,6387255.1158172805,1071.264667462824,0.0,-22.50802655367144,465.765988380816,0.0,0.0,0.0037619163752733603,22.429908386707684,9118.20564007752,4.515440916200949e-10,0.0,9.786151326426968,0.0,0.0,-0.00016771909654402807,0.0,0.0,0.0,303.3408898376064,0.46046961682597937,30264.905947671457,228.96655663388887,0.0,0.0,0.0,0.0,0.0,0.0,0.0739429119304,115.83131739838133
2.4,6387252.816070801,1117.841257976208,0.0,-23.48664202115592,465.765820679856,0.0,0.0,0.00409615213599024,23.405127392658958,9115.91388828816,5.130392033376256e-10,0.0,9.786158360333697,0.0,0.0,-0.00017501127303993564,0.0,0.0,0.0,303.35072899588084,0.4605967621528338,30275.22664101172,228.9814103827778,0.0,0.0,0.0,0.0,0.0,0.0,0.0771553370865,126.15745441094937
2.5,6387250.418483521,1164.41783136288,0.0,-24.46525820574336,465.76564584352803,0.0,0.0,0.00444461090794608,24.3803471132748,9113.52461455008,5.798785338318653e-10,0.0,9.786165693586765,0.0,0.0,-0.00018230345487864507,0.0,0.0,0.0,303.3609865116624,0.46072934664394266,30285.98955747728,228.99689622111111,0.0,0.0,0.0,0.0,0.0,0.0,0.0803674453948,136.92907179352414
2.6,6387247.92302496,1210.99438690656,0.0,-25.44387513730416,465.765463868784,0.0,0.0,0.004807292717597521,25.35556757824272,9111.0378188328,6.522847665222287e-10,0.0,9.786173326155696,0.0,0.0,-0.00018959564228495483,0.0,0.0,0.0,303.371662344108,0.460867373895104,30297.19507843441,229.01301415055556,0.0,0.0,0.0,0.0,0.0,0.0,0.0835792237088,148.14693051998927
2.7,6387245.32969512,1257.5709238970642,0.0,-26.422492845739203,465.76527475867204,0.0,0.0,0.00518419759280328,26.33078881743312,9108.453501014399,7.304805856135288e-10,0.0,9.786181258040497,0.0,0.0,-0.00019688783548052173,0.0,0.0,0.0,303.3827564505456,0.46101084764899886,30308.843600858338,229.02976417388888,0.0,0.0,0.0,0.0,0.0,0.0,0.0867906588886,159.8118230718328
2.8,6387242.63852448,1304.14744162116,0.0,-27.401111360949365,465.76507851319207,0.0,0.0,0.00557532556197072,27.306010860533522,9105.77166103392,8.146886766125938e-10,0.0,9.786189489271647,0.0,0.0,-0.0002041800346887479,0.0,0.0,0.0,303.3942687861696,0.461159771797768,30320.935537524772,229.04714629222224,0.0,0.0,0.0,0.0,0.0,0.0,0.0900017378014,171.92457349081556
2.9,6387239.8494825605,1350.7239393625682,0.0,-28.37973071277456,465.764875129296,0.0,0.0,0.0059806766554579205,28.28123373741432,9102.9922988304,9.051317258465569e-10,0.0,9.786198019818675,0.0,0.0,-0.00021147224013129016,0.0,0.0,0.0,303.4061993049552,0.46131415037940454,30333.471316962034,229.0651605088889,0.0,0.0,0.0,0.0,0.0,0.0,0.0932124473217,184.48603743690606
3.0,6387236.962569361,1397.300416408056,0.0,-29.3583509310852,465.764664610032,0.0,0.0,0.00640025090374488,29.256457477763043,9100.115414281921,1.0020324206077184e-09,0.0,9.786206849712062,0.0,0.0,-0.00021876445203155065,0.0,0.0,0.0,303.418547958744,0.4614739875813612,30346.45138349892,229.08380682499998,0.0,0.0,0.0,0.0,0.0,0.0,0.0964227743316,197.49710224477948
3.1,6387233.97781536,1443.87687204744,0.0,-30.33697204584312,465.76444695540005,0.0,0.0,0.00683404833923184,30.231682111419598,9097.141007297041,1.1056134494013824e-09,0.0,9.786215978921339,0.0,0.0,-0.0002260566706129315,0.0,0.0,0.0,303.4313146984632,0.4616392877395202,30359.876197168967,229.10308524333334,0.0,0.0,0.0,0.0,0.0,0.0,0.0996327057209,210.9586869831889
3.2,6387230.89519008,1490.453305561392,0.0,-31.315594086796803,465.764222162352,0.0,0.0,0.00728206899480672,31.206907668254402,9094.0690778148,1.216097501762597e-09,0.0,9.786225407476978,0.0,0.0,-0.00023334889609708957,0.0,0.0,0.0,303.44449947260165,0.46181005533716174,30373.746233854064,229.12299576611113,0.0,0.0,0.0,0.0,0.0,0.0,0.102842228388,224.87174252104037
3.3,6387227.71469352,1537.029716242776,0.0,-32.2942170838776,465.763990233936,0.0,0.0,0.00774431290457664,32.1821341777416,9090.89962574376,1.3337072684341787e-09,0.0,9.78623513534852,0.0,0.0,-0.00024064112870742697,0.0,0.0,0.0,303.458102228124,0.46198629500651067,30388.06198533235,229.14353839555557,0.0,0.0,0.0,0.0,0.0,0.0,0.106051329239,239.23725158724292
3.4,6387224.43632568,1583.6061033722642,0.0,-33.2728410672912,465.76375117015203,0.0,0.0,0.008220780104233681,33.157361669904006,9087.63265093152,1.4586654415272815e-09,0.0,9.786245162596918,0.0,0.0,-0.0002479333686656005,0.0,0.0,0.0,303.472122910776,0.46216801152873627,30402.823959134574,229.164713135,0.0,0.0,0.0,0.0,0.0,0.0,0.109259995188,254.0562288410928
3.5,6387221.06011704,1630.182466236624,0.0,-34.251466066298406,465.76350496795203,0.0,0.0,0.00871147062983568,34.132590174612,9084.2681533476,1.5911947140239794e-09,0.0,9.786255489161224,0.0,0.0,-0.00025522561619501237,0.0,0.0,0.0,303.48656146447445,0.4623552098334369,30418.03267873561,229.18651998611114,0.0,0.0,0.0,0.0,0.0,0.0,0.112468213161,269.3297209393056
3.6,6387217.58603712,1676.7588041287202,0.0,-35.2300921113792,465.763251627336,0.0,0.0,0.009216384518812081,35.107819721126404,9080.80613287008,1.7315177803968567e-09,0.0,9.786266115071921,0.0,0.0,-0.0002625178715173193,0.0,0.0,0.0,303.5014178310024,0.46254789499967097,30433.688683506563,229.20895895166666,0.0,0.0,0.0,0.0,0.0,0.0,0.115675970089,285.0588066068794
3.7,6387214.014116401,1723.335116326176,0.0,-36.2087192317944,465.7629911544,0.0,0.0,0.00973552181005536,36.0830503399272,9077.24658937704,1.879857336689295e-09,0.0,9.786277040329011,0.0,0.0,-0.0002698101348576688,0.0,0.0,0.0,303.5166919512288,0.4627460722549257,30449.79252871481,229.232030035,0.0,0.0,0.0,0.0,0.0,0.0,0.118883252916,301.24459671130865
3.8,6387210.34429392,1769.9114021188082,0.0,-37.187347458024,465.76272354,0.0,0.0,0.010268882542671361,37.058282060275204,9073.58952277704,2.0364360796131363e-09,0.0,9.786288264932509,0.0,0.0,-0.00027710240643597243,0.0,0.0,0.0,303.5323837632792,0.46294974697614827,30466.344785571833,229.25573323833333,0.0,0.0,0.0,0.0,0.0,0.0,0.122090048593,317.88823433775656
3.9,6387206.576630641,1816.487660796432,0.0,-38.1659768196336,465.76244879328,0.0,0.0,0.01081646675771664,38.0335149123456,9069.83493291768,2.2014767078123022e-09,0.0,9.786299788851933,0.0,0.0,-0.0002843946864773776,0.0,0.0,0.0,303.5484932049744,0.4631589246902612,30483.34604137689,229.28006856500002,0.0,0.0,0.0,0.0,0.0,0.0,0.125296344083,334.99089486470604
4.0,6387202.711096081,1863.0638916397202,0.0,-39.1446073464936,465.762166908144,0.0,0.0,0.01137827449685736,39.008748925704,9065.982819738,2.3752019211629164e-09,0.0,9.786311612148253,0.0,0.0,-0.00029168697520179577,0.0,0.0,0.0,303.56502021169683,0.4633736110736468,30500.796899229725,229.30503601833334,0.0,0.0,0.0,0.0,0.0,0.0,0.128502126358,352.5537860477495
4.1,6387198.74772072,1909.6400939384882,0.0,-40.123239068779206,465.761877884592,0.0,0.0,0.01195430580297888,39.983984129916,9062.03318311608,2.5578344210071808e-09,0.0,9.786323734821476,0.0,0.0,-0.0002989792728343744,0.0,0.0,0.0,303.5819647166952,0.46359381195266247,30518.697978509368,229.33063560000002,0.0,0.0,0.0,0.0,0.0,0.0,0.131707382401,370.57814809619805
4.2,6387194.6864436,1956.216266979504,0.0,-41.101872016056,465.76158172567204,0.0,0.0,0.0125445607199724,40.959220555156804,9057.986022869041,2.7495969102057316e-09,0.0,9.786336156810641,0.0,0.0,-0.0003062715795967704,0.0,0.0,0.0,303.5993266529136,0.4638195333026104,30537.049914491094,229.35686731444446,0.0,0.0,0.0,0.0,0.0,0.0,0.134912099206,389.0652537616595
4.3,6387190.5273256805,2002.7924100464882,0.0,-42.0805062181944,465.761278428336,0.0,0.0,0.01314903929340552,41.934458230992,9053.8413389664,2.9507120935390687e-09,0.0,9.786348878146244,0.0,0.0,-0.0003135638957123859,0.0,0.0,0.0,303.6171059505528,0.4640507812503139,30555.85335853795,229.38373116444447,0.0,0.0,0.0,0.0,0.0,0.0,0.138116263777,408.01640842278647
4.4,6387186.27036696,2049.368522426208,0.0,-43.0591417053696,465.76096799563203,0.0,0.0,0.01376774156893728,42.909697187292004,9049.5991311948,3.1614026764858222e-09,0.0,9.786361898858766,0.0,0.0,-0.0003208562214028776,0.0,0.0,0.0,303.63530253828964,0.4642875620725716,30575.10897814862,229.41122715333333,0.0,0.0,0.0,0.0,0.0,0.0,0.14131986313,427.43295017241854
4.5,6387181.91550648,2095.94460340848,0.0,-44.0377785071472,465.76065042756005,0.0,0.0,0.01440066759387264,43.884937453622406,9045.2593994628,3.3818913667062862e-09,0.0,9.786375218948217,0.0,0.0,-0.00032814855689164776,0.0,0.0,0.0,303.6539163435816,0.4645298821961574,30594.817457101082,229.43935528444445,0.0,0.0,0.0,0.0,0.0,0.0,0.144522884292,447.3162499095126
4.6,6387177.4628052,2142.520652273976,0.0,-45.0164166537024,465.76032571802403,0.0,0.0,0.01504781741655288,44.8601790601584,9040.82214364848,3.612400873606081e-09,0.0,9.786388838384124,0.0,0.0,-0.0003354409024003532,0.0,0.0,0.0,303.6729472917528,0.46477774819936646,30614.979495165324,229.46811556111112,0.0,0.0,0.0,0.0,0.0,0.0,0.147725314303,467.66771143346614
4.7,6387172.91223264,2189.0966683155602,0.0,-45.995056174905606,465.75999387616804,0.0,0.0,0.0157091910863556,45.8354220361608,9036.287363629921,3.853153907830014e-09,0.0,9.78640275716649,0.0,0.0,-0.00034273325815414125,0.0,0.0,0.0,303.692395306908,0.46503116681098466,30635.595808390623,229.4975079872222,0.0,0.0,0.0,0.0,0.0,0.0,0.150927140214,488.4887715350909
4.8,6387168.263788801,2235.672650810856,0.0,-46.973697100322404,465.75965489284806,0.0,0.0,0.01638478865399952,46.810666412109605,9031.65505919376,4.104373182291817e-09,0.0,9.786416975325809,0.0,0.0,-0.00035002562437292355,0.0,0.0,0.0,303.71226031132323,0.46529014491183457,30656.66712910553,229.52753256555556,0.0,0.0,0.0,0.0,0.0,0.0,0.154128349088,509.7809000985968
4.9,6387163.517473681,2282.248599055776,0.0,-47.95233945982321,465.75930877720805,0.0,0.0,0.01707461017084344,47.7859122169608,9026.925230279041,4.366281411074596e-09,0.0,9.786431492862082,0.0,0.0,-0.0003573180012818475,0.0,0.0,0.0,303.7325422254456,0.4655546895332294,30678.19420591791,229.55818930111113,0.0,0.0,0.0,0.0,0.0,0.0,0.157328928002,531.5456002011837
5.0,6387158.67331776,2328.824512330992,0.0,-48.930983283888004,465.75895552010405,0.0,0.0,0.017778655689648242,48.761159481194404,9022.097876702881,4.639101310670008e-09,0.0,9.786446309775322,0.0,0.0,-0.0003646103891008246,0.0,0.0,0.0,303.75324096850323,0.4658248078585193,30700.177803714883,229.58947819611112,0.0,0.0,0.0,0.0,0.0,0.0,0.160528864044,553.7844082102373
5.1,6387153.73129056,2375.400389920224,0.0,-49.909628601777605,465.758595127632,0.0,0.0,0.0184969252640892,49.736408234071206,9017.17299834336,4.923055599070696e-09,0.0,9.78646142606553,0.0,0.0,-0.00037190278805500235,0.0,0.0,0.0,303.7743564575904,0.4661005072225754,30722.618703710774,229.62139925555556,0.0,0.0,0.0,0.0,0.0,0.0,0.163728144316,576.4988938848364
5.2,6387148.691392081,2421.9762311163363,0.0,-50.888275443667204,465.75822759674406,0.0,0.0,0.019229418949182724,50.71165850576641,9012.150595017602,5.218366996032084e-09,0.0,9.786476841702243,0.0,0.0,-0.00037919519836778284,0.0,0.0,0.0,303.7958886082776,0.4663817951138519,30745.517703494912,229.65395248277778,0.0,0.0,0.0,0.0,0.0,0.0,0.166926755934,599.6906605002413
5.3,6387143.553622319,2468.552035203048,0.0,-51.8669238394272,465.757852930488,0.0,0.0,0.019976136800402403,51.6869103258456,9007.0306665732,5.525258223229458e-09,0.0,9.786492556746426,0.0,0.0,-0.00038648762025907763,0.0,0.0,0.0,303.8178373352208,0.466668679170263,30768.87561722324,229.68713788222223,0.0,0.0,0.0,0.0,0.0,0.0,0.170124686027,623.3613449292892
5.4,6387138.318011761,2515.12780146408,0.0,-52.8455738186232,465.75747112581604,0.0,0.0,0.0207370788754164,52.6621637241792,9001.81321288824,5.843952004624486e-09,0.0,9.786508571167603,0.0,0.0,-0.0003937800539522888,0.0,0.0,0.0,303.840202550028,0.46696116718536723,30792.69327528308,229.72095545722223,0.0,0.0,0.0,0.0,0.0,0.0,0.173321921737,647.5126177764605
5.5,6387132.98452992,2561.7035291892485,0.0,-53.824225411735206,465.757082185776,0.0,0.0,0.02151224523161856,53.637418730637606,8996.498233779841,6.174671065906712e-09,0.0,9.786524884965786,0.0,0.0,-0.0004010724996708185,0.0,0.0,0.0,303.8629841640024,0.4672592671037289,30816.971524676224,229.7554052127778,0.0,0.0,0.0,0.0,0.0,0.0,0.176518450222,672.1461834784265
5.6,6387127.5531768,2608.27921766532,0.0,-54.8028786483288,465.75668610427203,0.0,0.0,0.02230163592868872,54.6126753747864,8991.085729095601,6.517638134633183e-09,0.0,9.786541498140986,0.0,0.0,-0.0004083649576380689,0.0,0.0,0.0,303.8861820863136,0.4675629870234955,30841.71122897101,229.79048715277779,0.0,0.0,0.0,0.0,0.0,0.0,0.179714258652,697.2637804285376
5.7,6387122.0239524,2654.854866172968,0.0,-55.781533558274404,465.75628288740006,0.0,0.0,0.02310525102688584,55.587933686496,8985.575698652641,6.873075940926577e-09,0.0,9.786558410723686,0.0,0.0,-0.00041565742807569685,0.0,0.0,0.0,303.9097962239976,0.46787233519639726,30866.91326820661,229.8262012811111,0.0,0.0,0.0,0.0,0.0,0.0,0.182909334213,722.8671810773733
5.8,6387116.39685672,2701.430474005056,0.0,-56.760190171442396,465.75587253516005,0.0,0.0,0.023923090587261362,56.563193695332004,8979.96814229856,7.2412072161313066e-09,0.0,9.786575622683422,0.0,0.0,-0.0004229499112071044,0.0,0.0,0.0,303.9338264834808,0.468187320027232,30892.578539132384,229.86254760277777,0.0,0.0,0.0,0.0,0.0,0.0,0.186103664107,748.9581920715932
5.9,6387110.67192024,2748.006040442256,0.0,-57.738848517703204,465.755455041456,0.0,0.0,0.02475515467251264,57.5384554317744,8974.26305985048,7.622254694750826e-09,0.0,9.786593134050676,0.0,0.0,-0.00043024240725394845,0.0,0.0,0.0,303.9582727687512,0.4685079500748956,30918.707955064277,229.8995261216667,0.0,0.0,0.0,0.0,0.0,0.0,0.189297235548,775.5386543640631
6.0,6387104.849082001,2794.581564774384,0.0,-58.7175086269272,465.75503041238403,0.0,0.0,0.025601443345824718,58.513718924779205,8968.460451156001,8.01644111284194e-09,0.0,9.786610944825462,0.0,0.0,-0.0004375349164413764,0.0,0.0,0.0,303.9831349822728,0.46883423405238245,30945.30244602844,229.93713684222223,0.0,0.0,0.0,0.0,0.0,0.0,0.192490035768,802.6104433574948
6.1,6387098.92840296,2841.1570462882078,0.0,-59.6961705292896,465.754598644896,0.0,0.0,0.026461956672241924,59.4889842045216,8962.56031600176,8.42398920874782e-09,0.0,9.786629054977306,0.0,0.0,-0.0004448274389892998,0.0,0.0,0.0,304.0084130252904,0.46916618082730055,30972.36295880911,229.97537977000002,0.0,0.0,0.0,0.0,0.0,0.0,0.195682052013,830.175468995419
6.2,6387092.909852641,2887.7324842644002,0.0,-60.67483425435601,465.75415973899203,0.0,0.0,0.02733669471711336,60.464251300872,8956.56265426584,8.845121723150398e-09,0.0,9.786647464536705,0.0,0.0,-0.00045211997512112074,0.0,0.0,0.0,304.03410679722003,0.469503799421356,30999.8904569965,230.0142549088889,0.0,0.0,0.0,0.0,0.0,0.0,0.198873271547,858.235675924978
6.3,6387086.79343104,2934.307877995824,0.0,-61.653499831996804,465.75371369772,0.0,0.0,0.02822565754758648,61.4395202437008,8950.4674657044,9.280061398878346e-09,0.0,9.786666173534138,0.0,0.0,-0.00045941252506198675,0.0,0.0,0.0,304.060216195344,0.46984709901241484,31027.88592093892,230.0537622638889,0.0,0.0,0.0,0.0,0.0,0.0,0.202063681648,886.7930436118386
6.4,6387080.57916864,2980.8832267662,0.0,-62.6321672923872,465.75326051803205,0.0,0.0,0.029128845231052563,62.4147910622688,8944.27475013456,9.72903098113399e-09,0.0,9.786685181908664,0.0,0.0,-0.0004667050890318093,0.0,0.0,0.0,304.08674111664004,0.4701960889324413,31056.350347886397,230.09390183944444,0.0,0.0,0.0,0.0,0.0,0.0,0.205253269611,915.849586483833
6.5,6387074.267004481,3027.458529862296,0.0,-63.6108366650928,465.752800199928,0.0,0.0,0.0300462578368536,63.390063786751206,8937.98450740392,1.0192253217842366e-08,0.0,9.786704489721249,0.0,0.0,-0.00047399766725399054,0.0,0.0,0.0,304.11368145473284,0.4705507786695595,31085.284751990694,230.1346736411111,0.0,0.0,0.0,0.0,0.0,0.0,0.208442022747,945.4073540506583
6.6,6387067.85699952,3074.0337865708802,0.0,-64.5895079802888,465.75233274340803,0.0,0.0,0.030977895434788804,64.3653384470184,8931.5967373296,1.0669950858673843e-08,0.0,9.786724096910943,0.0,0.0,-0.00048129025995018724,0.0,0.0,0.0,304.14103710324724,0.47091117786702247,31114.690164353196,230.1760776738889,0.0,0.0,0.0,0.0,0.0,0.0,0.211629928386,975.4684310666712
6.7,6387061.3490928,3120.6089961787206,0.0,-65.5681812678456,465.751858148472,0.0,0.0,0.0319237580962728,65.34061507263601,8925.11143966776,1.1162346656056414e-08,0.0,9.786744003569195,0.0,0.0,-0.0004885828673472922,0.0,0.0,0.0,304.1688079530648,0.47127729632475834,31144.567633120652,230.21811394222223,0.0,0.0,0.0,0.0,0.0,0.0,0.214816973873,1006.0349376457989
6.8,6387054.74334528,3167.18415796344,0.0,-66.54685655732881,465.75137641512,0.0,0.0,0.0328838458932384,66.31589369347441,8918.528614235522,1.1669663365297852e-08,0.0,9.78676420963506,0.0,0.0,-0.0004958754896634716,0.0,0.0,0.0,304.1969938941528,0.47164914399988594,31174.918223437297,230.26078245166667,0.0,0.0,0.0,0.0,0.0,0.0,0.218003146571,1037.1090294243331
6.9,6387048.039726481,3213.7592712240003,0.0,-67.5255338789136,465.75088754335206,0.0,0.0,0.0338581588991424,67.2911743390992,8911.84826085,1.21921237433291e-08,0.0,9.786784715108547,0.0,0.0,-0.0005031681271238729,0.0,0.0,0.0,304.22559481434484,0.4720267310051685,31205.743017540626,230.30408320722225,0.0,0.0,0.0,0.0,0.0,0.0,0.22118843386,1068.6928976997824
7.0,6387041.2382364,3260.33433522888,0.0,-68.5042132627752,465.750391536216,0.0,0.0,0.034846697188356,68.2664570396856,8905.07037929784,1.2729950550275045e-08,0.0,9.786805520050628,0.0,0.0,-0.000510460779950153,0.0,0.0,0.0,304.2546105999504,0.47241006761055965,31237.043114857148,230.34801621444444,0.0,0.0,0.0,0.0,0.0,0.0,0.224372823139,1100.788769569725
7.1,6387034.33887504,3306.9093492770403,0.0,-69.48289473786961,465.749888387616,0.0,0.0,0.035849460836164804,69.2417418247992,8898.19496936568,1.3283366548791306e-08,0.0,9.78682662440035,0.0,0.0,-0.0005177534483657139,0.0,0.0,0.0,304.2840411363648,0.47279916424371904,31268.81963205026,230.39258147833334,0.0,0.0,0.0,0.0,0.0,0.0,0.227556301825,1133.3989080993895
7.2,6387027.341672881,3353.48431266744,0.0,-70.4615783349816,465.74937810364804,0.0,0.0,0.0368664499193784,70.21702872431041,8891.22203087064,1.385259450364535e-08,0.0,9.786848028188206,0.0,0.0,-0.000525046132593958,0.0,0.0,0.0,304.3138863065448,0.47319403149052763,31301.0737029245,230.437779005,0.0,0.0,0.0,0.0,0.0,0.0,0.230738857351,1166.525612460508
7.3,6387020.24656896,3400.05922466856,0.0,-71.44026408367681,465.74886067821603,0.0,0.0,0.037897664515416,71.19231776808961,8884.151563568881,1.4437857182868405e-08,0.0,9.786869731414212,0.0,0.0,-0.0005323388328565418,0.0,0.0,0.0,304.34414599192326,0.47359468009405675,31333.80647866493,230.4836087988889,0.0,0.0,0.0,0.0,0.0,0.0,0.233920477172,1200.1712180988966
7.4,6387013.05362424,3446.6340845793598,0.0,-72.4189520141304,465.74833611741604,0.0,0.0,0.038943104703525605,72.1676089857024,8876.98356724704,1.503937735712715e-08,0.0,9.786891734108853,0.0,0.0,-0.0005396315493768675,0.0,0.0,0.0,304.3748200733232,0.4740011209566301,31367.019127837153,230.53007086722224,0.0,0.0,0.0,0.0,0.0,0.0,0.23710114876,1234.3380968733086
7.5,6387005.76277776,3493.20889166832,0.0,-73.39764215560321,465.747804415152,0.0,0.0,0.040002770562650405,73.1429024070192,8869.71804169176,1.5657377799392102e-08,0.0,9.786914036211185,0.0,0.0,-0.0005469242823783375,0.0,0.0,0.0,304.4059084282152,0.4744133651382769,31400.712836291543,230.57716521444445,0.0,0.0,0.0,0.0,0.0,0.0,0.240280859605,1269.0286572373789
7.6,6386998.374090481,3539.7836452039205,0.0,-74.37633453857521,465.74726557752,0.0,0.0,0.041076662174781606,74.1181980619104,8862.354986689681,1.6292081285565926e-08,0.0,9.786936637812655,0.0,0.0,-0.000554217032080863,0.0,0.0,0.0,304.43741093437444,0.4748314238593096,31434.888807450523,230.62489184666669,0.0,0.0,0.0,0.0,0.0,0.0,0.243459597218,1304.2453443832658
7.7,6386990.887501441,3586.35834454608,0.0,-75.35502919261201,465.746719598424,0.0,0.0,0.042164779620996004,75.09349597994161,8854.89440199696,1.694371059460561e-08,0.0,9.786959538852319,0.0,0.0,-0.000561509798711337,0.0,0.0,0.0,304.4693274668328,0.47525530849826164,31469.548262212826,230.67325076944445,0.0,0.0,0.0,0.0,0.0,0.0,0.24663734913,1339.9906404188062
7.8,6386983.3030716,3632.93298890232,0.0,-76.333726147584,465.74616648091205,0.0,0.0,0.0432671229848088,76.068796191288,8847.33628743072,1.761248850833049e-08,0.0,9.78698273933019,0.0,0.0,-0.0005688025824879255,0.0,0.0,0.0,304.5016578990984,0.47568503059549555,31504.69243909711,230.72224198944443,0.0,0.0,0.0,0.0,0.0,0.0,0.249814102889,1376.2670645350986
7.9,6386975.62077048,3679.50757760208,0.0,-77.3124254336664,465.745606224984,0.0,0.0,0.0443836923503448,77.0440987255152,8839.68064268616,1.8298637811544415e-08,0.0,9.787006239307239,0.0,0.0,-0.0005760953836375214,0.0,0.0,0.0,304.53440210346,0.47612060184907967,31540.32259409832,230.77186551166668,0.0,0.0,0.0,0.0,0.0,0.0,0.252989846065,1413.0771731597183
8.0,6386967.84059808,3726.08210991384,0.0,-78.29112708072961,465.74503883064006,0.0,0.0,0.0455144878026432,78.0194036121888,8831.9274675804,1.90023812907791e-08,0.0,9.787030038722518,0.0,0.0,-0.0005833882023817815,0.0,0.0,0.0,304.56755995068244,0.4765620341189114,31576.440001070758,230.82212134333332,0.0,0.0,0.0,0.0,0.0,0.0,0.256164566249,1450.4235601578155
8.1,6386959.9625544,3772.65658510608,0.0,-79.2698311183392,465.74446429788,0.0,0.0,0.04665950942826721,78.99471088148401,8824.07676190008,1.9723941736964503e-08,0.0,9.787054137636998,0.0,0.0,-0.0005906810389423626,0.0,0.0,0.0,304.601131309092,0.4770093394262018,31613.04595153652,230.87300949,0.0,0.0,0.0,0.0,0.0,0.0,0.25933825105,1488.308856970967
8.2,6386951.98663944,3819.23100253872,0.0,-80.2485375766704,465.743882626704,0.0,0.0,0.0478187573146944,79.97002056296641,8816.1285253404,2.046354194364856e-08,0.0,9.787078535989737,0.0,0.0,-0.0005979738935426667,0.0,0.0,0.0,304.63511604701523,0.47746252995244437,31650.14175478129,230.92452995722223,0.0,0.0,0.0,0.0,0.0,0.0,0.2625108881,1526.7357328326389
8.3,6386943.912822721,3865.8053614192804,0.0,-81.2272464855936,465.74329381406403,0.0,0.0,0.048992231550316796,80.9453326865064,8808.082757688,2.1221404706648153e-08,0.0,9.78710323387218,0.0,0.0,-0.000605266766404351,0.0,0.0,0.0,304.6695140294256,0.47792161804147737,31687.728737997968,230.97668275277778,0.0,0.0,0.0,0.0,0.0,0.0,0.26568246505,1565.7068949070376
8.4,6386935.7411652,3912.3796610467202,0.0,-82.2059578749792,465.742697866056,0.0,0.0,0.0501799322247456,81.92064728197441,8799.93945869904,2.199775282649254e-08,0.0,9.78712823119291,0.0,0.0,-0.0006125596577525627,0.0,0.0,0.0,304.704325120992,0.4783866161994831,31725.808246334556,231.0294678816667,0.0,0.0,0.0,0.0,0.0,0.0,0.268852969574,1605.2250885189367
8.5,6386927.4716364,3958.95390075048,0.0,-83.18467177439281,465.742094776584,0.0,0.0,0.051381859428811204,82.89596437924081,8791.69862816016,2.2792809104758182e-08,0.0,9.78715352804337,0.0,0.0,-0.0006198525678089585,0.0,0.0,0.0,304.7395491845544,0.4788575370939576,31764.38164279838,231.08288535111112,0.0,0.0,0.0,0.0,0.0,0.0,0.272022389365,1645.2930972973163
8.6,6386919.104236321,4005.52807976856,0.0,-84.1633882143144,465.74148454564806,0.0,0.0,0.0525980132542584,83.8712840075664,8783.36026573608,2.360679634738486e-08,0.0,9.787179124362622,0.0,0.0,-0.0006271454967969409,0.0,0.0,0.0,304.7751860808192,0.47933439355628715,31803.450308591262,231.1369351677778,0.0,0.0,0.0,0.0,0.0,0.0,0.275190712141,1685.9137433716733
8.7,6386910.63896496,4052.10219739992,0.0,-85.1421072243096,465.740867179344,0.0,0.0,0.0538283937934416,84.84660619743121,8774.924371274401,2.4439937363453952e-08,0.0,9.787205020181156,0.0,0.0,-0.0006344384449381664,0.0,0.0,0.0,304.81123566866404,0.47981719858071814,31843.01564287015,231.19161733777779,0.0,0.0,0.0,0.0,0.0,0.0,0.278357925638,1727.0898875826936
8.8,6386902.07582232,4098.676252974,0.0,-86.1208288345536,465.740242671576,0.0,0.0,0.055073001140544,85.821930978096,8766.39094440936,2.529245496466482e-08,0.0,9.787231215498984,0.0,0.0,-0.0006417314124542918,0.0,0.0,0.0,304.847697807576,0.48030596532538694,31883.079063082212,231.2469318677778,0.0,0.0,0.0,0.0,0.0,0.0,0.281524017617,1768.8244296546213
8.9,6386893.4148084,4145.25024569832,0.0,-87.0995530743072,465.739611022344,0.0,0.0,0.0563318353906632,86.797258379736,8757.759984988561,2.6164571966905638e-08,0.0,9.787257710316123,0.0,0.0,-0.0006490243995722103,0.0,0.0,0.0,304.884572356128,0.48080070711232076,31923.64200486914,231.302878765,0.0,0.0,0.0,0.0,0.0,0.0,0.28468897586,1811.1203083915684
9.0,6386884.655923201,4191.8241749328,0.0,-88.0782799740504,465.738972237744,0.0,0.0,0.0576048966407256,87.7725884319168,8749.03149264624,2.7056511189380677e-08,0.0,9.787284504663067,0.0,0.0,-0.0006563174065118329,0.0,0.0,0.0,304.921859164968,0.48130143742846776,31964.705922115005,231.3594580366667,0.0,0.0,0.0,0.0,0.0,0.0,0.287852788172,1853.9805018881873
9.1,6386875.79913624,4238.39803991544,0.0,-89.05700956365361,465.73832631168,0.0,0.0,0.058892184987048006,88.74792116450881,8740.205467199521,2.7968495453039557e-08,0.0,9.787311598509348,0.0,0.0,-0.0006636104334948167,0.0,0.0,0.0,304.959558087792,0.48180816992466685,32006.272287185646,231.41666968833334,0.0,0.0,0.0,0.0,0.0,0.0,0.291015442379,1897.4080277116157
9.2,6386866.84450848,4284.9718399452,0.0,-90.0357418729872,465.737673244152,0.0,0.0,0.060193700527776006,89.7232566070776,8731.2819083436,2.8900747583893352e-08,0.0,9.787338991885461,0.0,0.0,-0.0006709034807480545,0.0,0.0,0.0,304.997668978296,0.48232091841822405,32048.34259073716,231.47451372833333,0.0,0.0,0.0,0.0,0.0,0.0,0.294176926333,1941.4059431169376
9.3,6386857.792009441,4331.5455743210405,0.0,-91.0144769316168,465.73701303820803,0.0,0.0,0.061509443362884005,90.6985947897984,8722.260815773681,2.985349041039658e-08,0.0,9.78736668479142,0.0,0.0,-0.0006781965484897122,0.0,0.0,0.0,305.03619168408,0.4828396968913667,32090.918342051078,231.5329901627778,0.0,0.0,0.0,0.0,0.0,0.0,0.297337227907,1985.9773452578575
9.4,6386848.641608641,4378.11924231144,0.0,-91.99321476971761,465.736345693848,0.0,0.0,0.0628394135926512,91.6739357425416,8713.142189276401,3.082694676501804e-08,0.0,9.787394677196763,0.0,0.0,-0.0006854896369466831,0.0,0.0,0.0,305.07512605884,0.4833645194938202,32134.0010688907,231.59209900000002,0.0,0.0,0.0,0.0,0.0,0.0,0.300496334998,2031.1253713638564
9.5,6386839.39336704,4424.69284321536,0.0,-92.97195541716,465.73567120802403,0.0,0.0,0.064183611318576,92.649279494568,8703.92602854696,3.182133948336811e-08,0.0,9.787422969162462,0.0,0.0,-0.0006927827463388781,0.0,0.0,0.0,305.11447194408004,0.48389540054023134,32177.592317692626,231.6518402461111,0.0,0.0,0.0,0.0,0.0,0.0,0.303654235526,2076.8531989987455
9.6,6386830.047223681,4471.2663763317605,0.0,-93.9506989035096,465.734989580736,0.0,0.0,0.065542036643376,93.62462607605279,8694.61233328056,3.2836891404722354e-08,0.0,9.787451560658052,0.0,0.0,-0.0007000758768914451,0.0,0.0,0.0,305.154229190448,0.4844323545137755,32221.693653566774,231.71221390833335,0.0,0.0,0.0,0.0,0.0,0.0,0.306810917436,2123.164046228247
9.7,6386820.60320904,4517.83984089864,0.0,-94.9294452595512,465.73430081503204,0.0,0.0,0.0669146896706832,94.5999755168664,8685.201103233361,3.3873825371672475e-08,0.0,9.78748045168355,0.0,0.0,-0.0007073690288260406,0.0,0.0,0.0,305.194397639448,0.4849753960651265,32266.30666048786,231.77321999555556,0.0,0.0,0.0,0.0,0.0,0.0,0.309966368697,2170.0611718689715
9.8,6386811.06132312,4564.41323624544,0.0,-95.9081945142408,465.73360491091205,0.0,0.0,0.0683015705053488,95.57532784657441,8675.69233810056,3.4932364230824434e-08,0.0,9.78750964226945,0.0,0.0,-0.0007146622023643217,0.0,0.0,0.0,305.23497713258405,0.4855245400114253,32311.4329411518,231.83485851333333,0.0,0.0,0.0,0.0,0.0,0.0,0.3131205773,2217.547875684727
9.9,6386801.42156592,4610.9865616406405,0.0,-96.88694669805841,465.73290186228,0.0,0.0,0.0697026792531384,96.5506830950472,8666.086037577361,3.601273083210029e-08,0.0,9.787539132415768,0.0,0.0,-0.0007219553977314358,0.0,0.0,0.0,305.275967514408,0.4860798013398879,32357.074117262964,231.89712947055557,0.0,0.0,0.0,0.0,0.0,0.0,0.316273531264,2265.627498621133
10.0,6386791.683937441,4657.5598163832,0.0,-97.86570184056961,465.73219167523206,0.0,0.0,0.0711180160210368,97.52604129215521,8656.38220135896,3.711514802873827e-08,0.0,9.787568922122517,0.0,0.0,-0.0007292486151472944,0.0,0.0,0.0,305.317368620328,0.48664119520677457,32403.231829534187,231.96003287444447,0.0,0.0,0.0,0.0,0.0,0.0,0.319425218629,2314.3034230258672
10.1,6386781.848437681,4704.1329997416005,0.0,-98.8444599719496,465.731474349768,0.0,0.0,0.0725475809175528,98.5014024677688,8646.58082920152,3.8239838678688966e-08,0.0,9.787599011389718,0.0,0.0,-0.0007365418548387901,0.0,0.0,0.0,305.3591802888,0.4872087369368745,32449.90773768676,232.0235687327778,0.0,0.0,0.0,0.0,0.0,0.0,0.322575627464,2363.5790728737065
10.2,6386771.9150361605,4750.706111014801,0.0,-99.823221121764,465.73074987979203,0.0,0.0,0.0739913740511952,99.47676665114881,8636.68192076976,3.9387025643219084e-08,0.0,9.787629400217385,0.0,0.0,-0.0007438351170258345,0.0,0.0,0.0,305.40140236132805,0.48778244202556725,32497.10352064197,232.08773705333337,0.0,0.0,0.0,0.0,0.0,0.0,0.325724745859,2413.457913991561
10.3,6386761.88379384,4797.27914950176,0.0,-100.80198532018801,465.7300182714,0.0,0.0,0.0754493955329112,100.4521338727752,8626.68547578936,4.055693178691148e-08,0.0,9.787660088605532,0.0,0.0,-0.0007511284019318298,0.0,0.0,0.0,305.44403466722406,0.48836232613779196,32544.820876521084,232.1525378438889,0.0,0.0,0.0,0.0,0.0,0.0,0.328872561932,2463.9434543122406
10.4,6386751.75464976,4843.85211444048,0.0,-101.78075259739681,465.7292795245921,0.0,0.0,0.076921645473648,101.42750416221361,8616.59149389456,4.174977997766513e-08,0.0,9.78769107658466,0.0,0.0,-0.0007584217097801782,0.0,0.0,0.0,305.48707704189604,0.4889484051101089,32593.061522693224,232.21797111222224,0.0,0.0,0.0,0.0,0.0,0.0,0.332019063826,2515.0392440755522
10.5,6386741.527634401,4890.4250051604,0.0,-102.75952298265122,465.72853363327204,0.0,0.0,0.07840812398587681,102.4028775493344,8606.39997484152,4.2965793089662176e-08,0.0,9.787722364154778,0.0,0.0,-0.0007657150407925364,0.0,0.0,0.0,305.530529317704,0.48954069495069963,32641.82719601479,232.28403686666667,0.0,0.0,0.0,0.0,0.0,0.0,0.335164239709,2566.7488760964293
10.6,6386731.20274776,4936.99782093,0.0,-103.7382965061264,465.727780603536,0.0,0.0,0.07990883118328801,103.37825406370321,8596.11091829496,4.4205193998481045e-08,0.0,9.787753951285428,0.0,0.0,-0.0007730083951940518,0.0,0.0,0.0,305.574391327008,0.49013921183885134,32691.1196526858,232.35073511555555,0.0,0.0,0.0,0.0,0.0,0.0,0.338308077776,2619.075985980393
10.7,6386720.7799898395,4983.57056104824,0.0,-104.7170731979976,465.727020429288,0.0,0.0,0.08142376718018161,104.35363373549521,8585.724323919601,4.5468205584063485e-08,0.0,9.787785838037586,0.0,0.0,-0.0007803017732063815,0.0,0.0,0.0,305.618662896072,0.49074397212650317,32740.940668537176,232.4180658661111,0.0,0.0,0.0,0.0,0.0,0.0,0.341450566248,2672.02425239168
10.8,6386710.25933016,5030.1432247836,0.0,-105.6958530878304,465.726253116624,0.0,0.0,0.08295293209268641,105.3290165939712,8575.24019144112,4.6755050732110826e-08,0.0,9.78781802438079,0.0,0.0,-0.0007875951750511821,0.0,0.0,0.0,305.66334385116,0.49135499233927693,32791.292038935,232.48602912722222,0.0,0.0,0.0,0.0,0.0,0.0,0.344591693371,2725.5973972782817
10.9,6386699.6407992,5076.71581143504,0.0,-106.67463620580001,465.725478662496,0.0,0.0,0.0844963260369312,106.30440266930641,8564.65852049376,4.806595232972065e-08,0.0,9.787850510315053,0.0,0.0,-0.0007948886009518557,0.0,0.0,0.0,305.708434021584,0.49197228917544633,32842.175578972,232.55462490722223,0.0,0.0,0.0,0.0,0.0,0.0,0.347731447419,2779.799186135286
11.0,6386688.92439696,5123.28832027104,0.0,-107.653422581472,465.724697066904,0.0,0.0,0.0860539491314832,107.27979199137121,8553.97931077272,4.940113326975015e-08,0.0,9.787883295870877,0.0,0.0,-0.0008021820511335498,0.0,0.0,0.0,305.75393323056,0.49259587950696765,32893.59312356333,232.62385321444444,0.0,0.0,0.0,0.0,0.0,0.0,0.350869816693,2834.6334282490657
11.1,6386678.110123441,5169.86075059056,0.0,-108.6322122450216,465.723908329848,0.0,0.0,0.08762580149490962,108.255184590036,8543.202561973201,5.076081644854715e-08,0.0,9.787916381048277,0.0,0.0,-0.000809475525816176,0.0,0.0,0.0,305.799841298256,0.49322578038051085,32945.54652739873,232.69371405722225,0.0,0.0,0.0,0.0,0.0,0.0,0.354006789519,2890.1039769510417
11.2,6386667.197948161,5216.433101692561,0.0,-109.61100522631921,465.723112451328,0.0,0.0,0.0892118832473016,109.23058049456161,8532.32827375992,5.214522476682282e-08,0.0,9.787949765847271,0.0,0.0,-0.0008167690252248818,0.0,0.0,0.0,305.846158050936,0.4938620090184897,32998.03766522971,232.76420744444445,0.0,0.0,0.0,0.0,0.0,0.0,0.357142354253,2946.214729881029
11.3,6386656.187932081,5263.00537284552,0.0,-110.5898015552352,465.72230943134406,0.0,0.0,0.09081219450996961,110.20597973512321,8521.35644576712,5.355458112912805e-08,0.0,9.787983450267879,0.0,0.0,-0.0008240625495813239,0.0,0.0,0.0,305.89288330572,0.49450458281803167,33051.068431726024,232.83533338444445,0.0,0.0,0.0,0.0,0.0,0.0,0.360276499276,3002.9696292457857
11.4,6386645.08001424,5309.577563348401,0.0,-111.56860126164001,465.721499269896,0.0,0.0,0.09242673540483361,111.18138234189601,8510.28707769,5.498910844490064e-08,0.0,9.788017434340595,0.0,0.0,-0.0008313560991089044,0.0,0.0,0.0,305.94001688277604,0.4951535193525238,33104.640741714975,232.90709188611112,0.0,0.0,0.0,0.0,0.0,0.0,0.363409212997,3060.372662067994
11.5,6386633.874194641,5356.14967246968,0.0,-112.54740437540401,465.720681966984,0.0,0.0,0.0940555060553376,112.15678834383601,8499.12016919328,5.6449029626894515e-08,0.0,9.788051718004478,0.0,0.0,-0.0008386496740292802,0.0,0.0,0.0,305.98755859617603,0.4958088363726431,33158.756530277235,232.97948295777778,0.0,0.0,0.0,0.0,0.0,0.0,0.366540483854,3118.427860483115
11.6,6386622.5705342395,5402.72169950832,0.0,-113.52621092670242,465.71985751956004,0.0,0.0,0.0956985065861448,113.13219777172802,8487.8557199112,5.793456759275055e-08,0.0,9.788086301350987,0.0,0.0,-0.0008459432745675988,0.0,0.0,0.0,306.035508266088,0.49647055180481114,33213.41775269893,233.05250660944446,0.0,0.0,0.0,0.0,0.0,0.0,0.369670300313,3177.13930198358
11.7,6386611.16897208,5449.293643732801,0.0,-114.5050209454056,465.71902593372005,0.0,0.0,0.0973557371222232,114.10761065452802,8476.49372950848,5.944594526394931e-08,0.0,9.788121184349663,0.0,0.0,-0.0008532369009455169,0.0,0.0,0.0,306.08386570353605,0.4971386837548012,33268.626384758965,233.1261628488889,0.0,0.0,0.0,0.0,0.0,0.0,0.372798650866,3236.511109686918
11.8,6386599.66950816,5495.86550444208,0.0,-115.48383446107921,465.718187203368,0.0,0.0,0.0990271977903696,115.08302702241122,8465.034197680321,6.09833855663347e-08,0.0,9.788156366970037,0.0,0.0,-0.0008605305533846915,0.0,0.0,0.0,306.132630722592,0.4978132505056768,33324.384422537434,233.20045168555558,0.0,0.0,0.0,0.0,0.0,0.0,0.375925524034,3296.5474526421913
11.9,6386588.07220344,5542.43728093512,0.0,-116.4626515038984,465.717341331552,0.0,0.0,0.1007128887182952,116.058446905248,8453.477124000001,6.254711143133569e-08,0.0,9.788191849273097,0.0,0.0,-0.0008678242321120153,0.0,0.0,0.0,306.181803131232,0.49849427051985334,33380.693882894506,233.27537312833337,0.0,0.0,0.0,0.0,0.0,0.0,0.37905090837,3357.2525460693955
12.0,6386576.3769969605,5589.0089724804,0.0,-117.4414721037336,465.716488318272,0.0,0.0,0.10241281003493041,117.0338703329088,8441.82250816272,6.41373457929992e-08,0.0,9.788227631258856,0.0,0.0,-0.0008751179373456542,0.0,0.0,0.0,306.23138274352806,0.4991817624385827,33437.55680313519,233.3509271866667,0.0,0.0,0.0,0.0,0.0,0.0,0.38217479245,3418.6306516658938
12.1,6386564.58388872,5635.5805783464,0.0,-118.4202962904552,465.71562816048004,0.0,0.0,0.1041269618695104,118.00929733495921,8430.07034980272,6.575431159078271e-08,0.0,9.788263712896857,0.0,0.0,-0.0008824116693107563,0.0,0.0,0.0,306.281369367456,0.49987574508401467,33494.9752414403,233.42711387,0.0,0.0,0.0,0.0,0.0,0.0,0.385297164884,3480.6860778841224
12.2,6386552.69293968,5682.1520978625595,0.0,-119.39912409393361,465.714760861224,0.0,0.0,0.1058553443537088,118.98472794126961,8418.22064858472,6.739823176920519e-08,0.0,9.788300094217593,0.0,0.0,-0.0008897054282324685,0.0,0.0,0.0,306.331762804896,0.500576237459197,33552.951276770684,233.50393318722223,0.0,0.0,0.0,0.0,0.0,0.0,0.388418014308,3543.423180214083
12.3,6386540.704088881,5728.72353029736,0.0,-120.377955544344,465.713886420504,0.0,0.0,0.1075979576188944,119.9601621817104,8406.27340411248,6.906932927592708e-08,0.0,9.78833677522109,0.0,0.0,-0.0008969992143289571,0.0,0.0,0.0,306.38256286687204,0.5012832587465292,33611.487009058736,233.58138514833334,0.0,0.0,0.0,0.0,0.0,0.0,0.391537329388,3606.846361475415
12.4,6386528.617336321,5775.294874919281,0.0,-121.35679067155681,465.713004835272,0.0,0.0,0.10935480179887441,120.93560008615201,8394.22861602024,7.076782706419402e-08,0.0,9.788373755937846,0.0,0.0,-0.0009042930278271151,0.0,0.0,0.0,306.433769355264,0.5019968283118861,33670.58455925629,233.65946976222224,0.0,0.0,0.0,0.0,0.0,0.0,0.394655098821,3670.9600721142506
12.5,6386516.43271248,5821.866131027281,0.0,-122.33562950513762,465.712116108576,0.0,0.0,0.11112587702684641,121.91104168416001,8382.086283972722,7.249394809091673e-08,0.0,9.788411036337397,0.0,0.0,-0.0009115868689485991,0.0,0.0,0.0,306.485382075,0.5027169657035859,33730.2460693825,233.73818703833334,0.0,0.0,0.0,0.0,0.0,0.0,0.397771311332,3735.768810495284
12.6,6386504.150217361,5868.43729788984,0.0,-123.3144720752616,465.711220240416,0.0,0.0,0.1129111834387512,122.88648700590961,8369.846407573681,7.424791531911465e-08,0.0,9.788448616450243,0.0,0.0,-0.0009188807379150659,0.0,0.0,0.0,306.537400821864,0.503443690651876,33790.473702763215,233.81753698722224,0.0,0.0,0.0,0.0,0.0,0.0,0.400885955675,3801.2771232082077
12.7,6386491.76982048,5915.0083748364,0.0,-124.2933184117992,465.710317224696,0.0,0.0,0.1147107211711392,123.86193608127121,8357.50898642688,7.602995171547238e-08,0.0,9.788486496245929,0.0,0.0,-0.0009261746349516632,0.0,0.0,0.0,306.589825400784,0.5041770230720247,33851.26964393525,233.8975196177778,0.0,0.0,0.0,0.0,0.0,0.0,0.403999020637,3867.4896053502043
12.8,6386479.29155232,5961.57936110496,0.0,-125.2721685449256,465.70940707056,0.0,0.0,0.11652449036117041,124.8373889395056,8345.074020227521,7.784028025121235e-08,0.0,9.788524675785432,0.0,0.0,-0.0009334685602800476,0.0,0.0,0.0,306.642655607544,0.5049169830622598,33912.636098981544,233.97813494000002,0.0,0.0,0.0,0.0,0.0,0.0,0.407110495033,3934.4109008563205
12.9,6386466.7153824,6008.15025599448,0.0,-126.2510225042064,465.70848976886407,0.0,0.0,0.118352491147224,125.812845610788,8332.5415085184,7.967912390279309e-08,0.0,9.788563155038291,0.0,0.0,-0.0009407625141236213,0.0,0.0,0.0,306.69589123792804,0.5056635909063454,33974.57529538751,234.0593829638889,0.0,0.0,0.0,0.0,0.0,0.0,0.410220367709,4002.045702791537
13.0,6386454.0413412005,6054.7210588344005,0.0,-127.22988031951202,465.707565325704,0.0,0.0,0.12019472366889841,126.78830612498881,8319.91145096424,8.154670565121083e-08,0.0,9.788601934035011,0.0,0.0,-0.0009480564967057866,0.0,0.0,0.0,306.74953208772,0.506416867073582,34037.08948232831,234.14126369888888,0.0,0.0,0.0,0.0,0.0,0.0,0.413328627541,4070.398753676353
13.1,6386441.269398241,6101.29176883224,0.0,-128.2087420210176,465.70663374108,0.0,0.0,0.122051188067316,127.76377051167361,8307.1838471688,8.344324848234883e-08,0.0,9.788641012745128,0.0,0.0,-0.0009553505082482,0.0,0.0,0.0,306.803577955752,0.5071768322198372,34100.18093066886,234.22377715611114,0.0,0.0,0.0,0.0,0.0,0.0,0.416435263436,4139.474845783645
13.2,6386428.399584,6147.86238534792,0.0,-129.18760763859362,465.705695011944,0.0,0.0,0.12392188448420881,128.7392388010176,8294.35869673584,8.536897538715178e-08,0.0,9.788680391199144,0.0,0.0,-0.0009626445489760092,0.0,0.0,0.0,306.85802862866404,0.5079435071865152,34163.85193315537,234.30692334444444,0.0,0.0,0.0,0.0,0.0,0.0,0.419540264334,4209.278821473831
13.3,6386415.431898481,6194.43290758896,0.0,-130.1664772021104,465.704749138296,0.0,0.0,0.12580681306222322,129.7147110225864,8281.43599926912,8.732410936214939e-08,0.0,9.78872006942756,0.0,0.0,-0.0009699386191091257,0.0,0.0,0.0,306.912883899192,0.5087169130036485,34228.10480431954,234.39070227555555,0.0,0.0,0.0,0.0,0.0,0.0,0.422643619202,4279.815573501297
13.4,6386402.3663112,6241.00333491528,0.0,-131.14535074174321,465.703796120136,0.0,0.0,0.1277059739455296,130.6901872062504,8268.41575440288,8.930887340666397e-08,0.0,9.788760047399917,0.0,0.0,-0.0009772327188726968,0.0,0.0,0.0,306.968143560072,0.5094970708893831,34292.941880909566,234.47511395777778,0.0,0.0,0.0,0.0,0.0,0.0,0.425745317042,4351.090045349567
13.5,6386389.20282216,6287.57366659536,0.0,-132.1242282867528,465.70283595746406,0.0,0.0,0.129619367278908,131.66566738188,8255.297961710401,9.132349052665e-08,0.0,9.788800325146719,0.0,0.0,-0.0009845268484901248,0.0,0.0,0.0,307.023807394896,0.5102840022494628,34358.36552165061,234.56015840333336,0.0,0.0,0.0,0.0,0.0,0.0,0.428845346885,4423.1072315568845
13.6,6386375.94146184,6334.1439018672,0.0,-133.10310986792402,465.701868653328,0.0,0.0,0.13154699320866242,132.6411515793456,8242.08262079544,9.336818373329798e-08,0.0,9.788840902637507,0.0,0.0,-0.0009918210081830666,0.0,0.0,0.0,307.0798751964,0.511077728679806,34424.37810758009,234.64583562111113,0.0,0.0,0.0,0.0,0.0,0.0,0.431943697795,4495.872178046585
13.7,6386362.582199761,6380.714040090721,0.0,-134.08199551451762,465.70089420163197,0.0,0.0,0.133488851882316,133.6166398282128,8228.76973126176,9.544317604181266e-08,0.0,9.788881779933257,0.0,0.0,-0.0009991151981766694,0.0,0.0,0.0,307.13634674512804,0.5118782719675374,34490.98204214336,234.73214562277778,0.0,0.0,0.0,0.0,0.0,0.0,0.435040358867,4569.389982462263
13.8,6386349.1250664005,6427.284080473441,0.0,-135.06088525670881,465.69991260847206,0.0,0.0,0.1354449434480016,134.59213215865682,8215.35929268264,9.754869047385656e-08,0.0,9.788922956973032,0.0,0.0,-0.001006409418690845,0.0,0.0,0.0,307.19322182772004,0.5126856540884094,34558.179751145864,234.81908841833334,0.0,0.0,0.0,0.0,0.0,0.0,0.438135319228,4643.66579449814
13.9,6386335.570031281,6473.854022375281,0.0,-136.039779124368,465.69892387080006,0.0,0.0,0.1374152680550712,135.56762859993842,8201.85130469232,9.968495005423373e-08,0.0,9.788964433848303,0.0,0.0,-0.0010137036699507404,0.0,0.0,0.0,307.250500227768,0.5134998972109266,34625.97368304041,234.90666401833334,0.0,0.0,0.0,0.0,0.0,0.0,0.441228568039,4718.704816253381
14.0,6386321.9170944,6520.4238650037605,0.0,-137.01867714736562,465.697927985568,0.0,0.0,0.139399825854096,136.5431291825376,8188.2457668336,1.0185217781472956e-07,0.0,9.789006210498119,0.0,0.0,-0.001020997952178013,0.0,0.0,0.0,307.30818172276804,0.5143210236958297,34694.36630887927,234.9948724338889,0.0,0.0,0.0,0.0,0.0,0.0,0.44432009449,4794.5123025672565
14.1,6386308.16628624,6566.9936077188,0.0,-137.9975793558768,465.69692495887205,0.0,0.0,0.14139861699656162,137.51863393602,8174.542678710241,1.0405059679184183e-07,0.0,9.789048286952996,0.0,0.0,-0.0010282922655960646,0.0,0.0,0.0,307.36626609936,0.5151490560960957,34763.3601226015,235.08371367555554,0.0,0.0,0.0,0.0,0.0,0.0,0.447409887805,4871.0935613590955
14.2,6386294.31757632,6613.5632497584,0.0,-138.976485779772,465.695914787664,0.0,0.0,0.1434116416354776,138.4941428899512,8160.74203989552,1.0628043002678067e-07,0.0,9.789090663212946,0.0,0.0,-0.0010355866104300427,0.0,0.0,0.0,307.424753128944,0.5159840171569382,34832.95764098504,235.17318775444446,0.0,0.0,0.0,0.0,0.0,0.0,0.450497937242,4948.453954011317
14.3,6386280.37099512,6660.132790452,0.0,-139.95539644861682,465.69489746889604,0.0,0.0,0.1454388999241584,139.4696560748112,8146.843849993201,1.0854190056581777e-07,0.0,9.789133339308473,0.0,0.0,-0.0010428809868998586,0.0,0.0,0.0,307.48364259511203,0.5168259298255988,34903.16140383821,235.26329468111112,0.0,0.0,0.0,0.0,0.0,0.0,0.453584232089,5026.598895685455
14.4,6386266.326512161,6706.7022290376,0.0,-140.9343113928912,465.69387300561607,0.0,0.0,0.1474803920177472,140.44517351955602,8132.848108546081,1.108352314616824e-07,0.0,9.789176315239603,0.0,0.0,-0.0010501753952306605,0.0,0.0,0.0,307.542934272312,0.5176748172291871,34973.97397419129,235.35403446666666,0.0,0.0,0.0,0.0,0.0,0.0,0.456668761668,5105.53385564773
14.5,6386252.184127441,6753.27156481416,0.0,-141.9132306421608,465.69284139782405,0.0,0.0,0.1495361180723016,141.42069525466562,8118.75481512744,1.1316064577181633e-07,0.0,9.789219590975875,0.0,0.0,-0.0010574698356458497,0.0,0.0,0.0,307.602627931944,0.5185307027040552,35045.39793820071,235.44540712277777,0.0,0.0,0.0,0.0,0.0,0.0,0.459751515336,5185.2643577957415
14.6,6386237.943840961,6799.84079705016,0.0,-142.89215422629601,465.69180264552,0.0,0.0,0.1516060782447936,142.3962213100104,8104.56396934104,1.1551836655889725e-07,0.0,9.789263166578277,0.0,0.0,-0.0010647643083670833,0.0,0.0,0.0,307.66272335150404,0.5193936097772467,35117.43590543634,235.53741266,0.0,0.0,0.0,0.0,0.0,0.0,0.462832482481,5265.795980802102
14.7,6386223.6056832,6846.4099251055195,0.0,-143.871082175472,465.690756748704,0.0,0.0,0.1536902726931096,143.37175171485123,8090.27557072968,1.1790861689171156e-07,0.0,9.789307042016349,0.0,0.0,-0.0010720588136160184,0.0,0.0,0.0,307.723220299344,0.5202635621768024,35190.09050897725,235.63005109000002,0.0,0.0,0.0,0.0,0.0,0.0,0.465911652525,5347.134358689009
14.8,6386209.16962368,6892.97894818776,0.0,-144.8500145195592,465.689703704328,0.0,0.0,0.1557887015769648,144.3472864993632,8075.88961886664,1.203316198442816e-07,0.0,9.789351217290113,0.0,0.0,-0.0010793533516195472,0.0,0.0,0.0,307.784118549912,0.5211405838214529,35263.364405507506,235.72332242444443,0.0,0.0,0.0,0.0,0.0,0.0,0.468989014923,5429.285180923993
14.9,6386194.63569288,6939.54786559584,0.0,-145.82895128842802,465.68864351544005,0.0,0.0,0.15790136505637922,145.3228256934168,8061.406113294721,1.2278759849481851e-07,0.0,9.789395692460559,0.0,0.0,-0.0010866479225993273,0.0,0.0,0.0,307.84541787156,0.5220246988360809,35337.26027541188,235.8172266738889,0.0,0.0,0.0,0.0,0.0,0.0,0.472064559164,5512.254193138133
15.0,6386180.003860321,6986.11667662872,0.0,-146.8078925122536,465.687576178992,0.0,0.0,0.1600282632922872,146.2983693268824,8046.82505355672,1.2527677592851476e-07,0.0,9.78944046746674,0.0,0.0,-0.0010939425267752695,0.0,0.0,0.0,307.907118029592,0.5229159315414127,35411.78082296739,235.91176385,0.0,0.0,0.0,0.0,0.0,0.0,0.475138274772,5596.0471972696905
15.1,6386165.274126001,7032.685380585361,0.0,-147.7868382206016,465.686501698032,0.0,0.0,0.1621693964480616,147.2739174293256,8032.1464392564,1.2779937523632238e-07,0.0,9.789485542369647,0.0,0.0,-0.0011012371643760125,0.0,0.0,0.0,307.96921879236004,0.5238143064591726,35486.928776295455,236.00693396500003,0.0,0.0,0.0,0.0,0.0,0.0,0.478210151303,5680.6700519950355
15.2,6386150.44648992,7079.2539767342405,0.0,-148.7657884433424,465.685420069512,0.0,0.0,0.1643247646867704,148.2494700309216,8017.37026993656,1.3035561951442942e-07,0.0,9.789530917169307,0.0,0.0,-0.001108531835619722,0.0,0.0,0.0,308.031719925168,0.5247198483069286,35562.70688784061,236.10273703000001,0.0,0.0,0.0,0.0,0.0,0.0,0.481280178348,5766.128673207445
15.3,6386135.52095208,7125.822464374321,0.0,-149.74474321095602,465.68433129648,0.0,0.0,0.1664943681733104,149.2250271609312,8002.49654510952,1.3294573186391088e-07,0.0,9.789576591835255,0.0,0.0,-0.0011158265407315456,0.0,0.0,0.0,308.09462119027205,0.5256325820084004,35639.11793403547,236.19917305722223,0.0,0.0,0.0,0.0,0.0,0.0,0.484348345534,5852.42903420863
15.4,6386120.497542961,7172.390842774081,0.0,-150.72370255300802,465.683235375888,0.0,0.0,0.168678207073188,150.2005888501392,7987.52526434856,1.3556993539264844e-07,0.0,9.789622566428486,0.0,0.0,-0.0011231212799348855,0.0,0.0,0.0,308.157922356024,0.526552532698613,35716.16471573152,236.2962420577778,0.0,0.0,0.0,0.0,0.0,0.0,0.487414642519,5939.577166331172
15.5,6386105.3762016,7218.959111202,0.0,-151.7026664993688,465.682132310784,0.0,0.0,0.17087628155373843,151.1761551275016,7972.45642719648,1.3822845321323627e-07,0.0,9.789668840918532,0.0,0.0,-0.0011304160534531436,0.0,0.0,0.0,308.221623178584,0.5274797256929739,35793.85005834285,236.39394404444445,0.0,0.0,0.0,0.0,0.0,0.0,0.490479058999,6027.57915922581
15.6,6386090.15698896,7265.52726898752,0.0,-152.6816350802136,465.68102209812,0.0,0.0,0.17308859178229682,152.15172602319362,7957.2900331656,1.409215084449007e-07,0.0,9.789715415335907,0.0,0.0,-0.0011377108615079773,0.0,0.0,0.0,308.28572341716,0.5284141865388109,35872.176811750345,236.49227902833334,0.0,0.0,0.0,0.0,0.0,0.0,0.493541584702,6116.441161148719
15.7,6386074.83987456,7312.09531539912,0.0,-153.660608325108,465.67990473789604,0.0,0.0,0.17531513792802722,153.1273015670856,7942.026081829201,1.4364932421175514e-07,0.0,9.789762289650156,0.0,0.0,-0.0011450057043245335,0.0,0.0,0.0,308.350222834008,0.5293559409586811,35951.147850636895,236.59124702222223,0.0,0.0,0.0,0.0,0.0,0.0,0.496602209392,6206.169379583956
15.8,6386059.424888881,7358.663249705281,0.0,-154.639586264532,465.678780230112,0.0,0.0,0.1775559201613128,154.10288178874322,7926.664572699601,1.4641212364506866e-07,0.0,9.789809463922255,0.0,0.0,-0.0011523005821244693,0.0,0.0,0.0,308.415121185288,0.5303050149122154,36030.76607448732,236.69084803777778,0.0,0.0,0.0,0.0,0.0,0.0,0.499660922868,6296.770081530737
15.9,6386043.91197096,7405.23107120496,0.0,-155.61856892805122,465.677648577816,0.0,0.0,0.1798109386534512,155.0784667186464,7911.2055053196,1.4921012988064829e-07,0.0,9.78985693812176,0.0,0.0,-0.0011595954951294416,0.0,0.0,0.0,308.48041822716004,0.5312614345342738,36111.03440782785,236.79108208722224,0.0,0.0,0.0,0.0,0.0,0.0,0.502717714964,6388.249593982244
16.0,6386028.301151281,7451.79877916664,0.0,-156.59755634584081,465.67650977796,0.0,0.0,0.1820801935763496,156.0540563857512,7895.648879201521,1.5204356606128235e-07,0.0,9.789904712279169,0.0,0.0,-0.0011668904435663426,0.0,0.0,0.0,308.54611371578403,0.5322252261916365,36191.95580032184,236.89194918277778,0.0,0.0,0.0,0.0,0.0,0.0,0.50577257555,6480.614304165026
16.1,6386012.59246032,7498.36637291976,0.0,-157.5765485474664,465.67536383054403,0.0,0.0,0.184363685103744,157.0296508205376,7879.99469388816,1.5491265533412252e-07,0.0,9.789952786364031,0.0,0.0,-0.0011741854276550846,0.0,0.0,0.0,308.612207401224,0.5331964164469278,36273.53322676978,236.99344933777778,0.0,0.0,0.0,0.0,0.0,0.0,0.50882549453,6573.87066016144
16.2,6385996.785867601,7544.93385170232,0.0,-158.555545563408,465.67421073252007,0.0,0.0,0.18666141340998002,158.005250052876,7864.242948861361,1.5781762085434894e-07,0.0,9.790001160437331,0.0,0.0,-0.0011814804476208145,0.0,0.0,0.0,308.67869903659204,0.5341750320689236,36355.76968754022,237.09558256277776,0.0,0.0,0.0,0.0,0.0,0.0,0.511876461844,6668.025171340574
16.3,6385980.881342641,7591.50121481328,0.0,-159.53454742292644,465.67305048998406,0.0,0.0,0.1889733786703176,158.9808541120272,7848.3936436944,1.607586857829014e-07,0.0,9.790049834499094,0.0,0.0,-0.0011887755036851897,0.0,0.0,0.0,308.745588378048,0.5351611000428587,36438.66820833035,237.19834887222223,0.0,0.0,0.0,0.0,0.0,0.0,0.514925467468,6763.08440850189
