time,eiPosition_m_X,eiPosition_m_Y,eiPosition_m_Z,gePosition_m_X,gePosition_m_Y,gePosition_m_Z,eiVelocity_m_s_X,eiVelocity_m_s_Y,eiVelocity_m_s_Z,feVelocity_m_s_X,feVelocity_m_s_Y,feVelocity_m_s_Z,altitudeMsl_m,longitude_rad,latitude_rad,localGravity_m_s2,eulerAngle_rad_Yaw,eulerAngle_rad_Pitch,eulerAngle_rad_Roll,bodyAngularRateWrtEi_rad_s_Roll,bodyAngularRateWrtEi_rad_s_Pitch,bodyAngularRateWrtEi_rad_s_Yaw,altitudeRateWrtMsl_m_s,speedOfSound_m_s,airDensity_kg_m3,ambientPressure_Pa,ambientTemperature_K,aero_bodyForce_N_X,aero_bodyForce_N_Y,aero_bodyForce_N_Z,aero_bodyMoment_Nm_L,aero_bodyMoment_Nm_M,aero_bodyMoment_Nm_N,mach,dynamicPressure_Pa,trueAirspeed_m_s,feVelocity_m_s_Z_1
0.0,6387281.000000001,0.0,0.0,6387281.000000001,0.0,0.0,0.0,465.76787589315,0.0,0.0,0.0,0.0,9144.0,0.0,0.0,9.786072158144812,0.0,-0.0,0.0,0.0,0.0,1.1726615295546747e-20,-0.0,303.22990953514415,0.4590410846190738,30148.630867738,228.7993739345824,0.0,0.0,0.0,0.0,0.0,0.0,0.0,0.0,0.0,0.0
0.0099999997764825,6387280.999510697,4.657678758828739,2.9961204862357494e-20,6387280.999512397,2.5321927381583006e-10,2.9961204862357506e-20,-0.09786072158598973,465.7678758588967,5.992240972626665e-18,2.0797153486420382e-20,7.254066258997309e-08,0.09752107829453843,9143.999512396906,3.964429838536316e-17,4.6907604134912384e-27,9.78607215964136,-5.357399992820183e-46,1.469367938527762e-39,-7.292115000396445e-07,0.0,0.0,1.1726615295546747e-20,-0.09752107829453843,303.22991162934574,0.4590411116038136,30148.633056457864,228.79937709490395,0.0,0.0,0.0,0.0,0.0,0.0,0.0003216077166143805,0.0021828232469827476,0.09752099231517311,0.09752107829453843
0.0199999995529651,6387280.9980427865,9.315357516946722,1.198448194584545e-19,6387280.998049579,1.9315620761517495e-09,1.198448194584545e-19,-0.19572144320179877,465.7678757518549,1.1984481947079447e-17,4.159430697941167e-20,2.8588121901052697e-07,0.19504215661879232,9143.998049578537,3.024075622697e-16,1.8763041659674955e-26,9.78607216413103,-1.7143679979646198e-44,2.35098870164395e-38,-1.4584230003024082e-06,0.0,0.0,1.1726615295546747e-20,-0.19504215661879232,303.2299179119894,0.4590411925585431,30148.639622659015,228.79938657592746,0.0,0.0,0.0,0.0,0.0,0.0,0.000643215433228761,0.00873129438142993,0.19504198463034628,0.19504215661879232
0.0299999993294477,6387280.995596266,13.97303627363748,2.696508438157303e-19,6387280.995611551,6.4544446843228815e-09,2.696508438157303e-19,-0.2935821648773658,465.767875573452,1.79767229251918e-17,6.239146048551754e-20,6.414486283802575e-07,0.29256323500259723,9143.995611551707,1.01051522373252e-15,4.221684375573843e-26,9.7860721716138,-1.028620799040513e-43,9.403954806572676e-38,-2.1876345010105165e-06,0.0,0.0,1.1726615295546747e-20,-0.2925632350025973,303.2299283830455,0.45904132748290727,30148.65056631319,228.79940237760871,0.0,0.0,0.0,0.0,0.0,0.0,0.00096482306253165,0.019645418454775205,0.2925629922771454,0.29256323500259723
0.0399999991059303,6387280.992171142,18.630715028187407,4.793792779799296e-19,6387280.992198316,1.524414431059995e-08,4.793792779799298e-19,-0.3914428866425701,465.7678753236879,2.39689639087935e-17,8.31886140112929e-20,1.139243168130302e-06,0.3900843134757289,9143.992198315278,2.3866406267737036e-15,7.505216673032909e-26,9.786072182089674,2.117582368133499e-22,3.088330836371088e-28,-2.9168460023866404e-06,0.0,0.0,1.1726615295546747e-20,-0.3900843134757289,303.2299430425186,0.4590415163770053,30148.665887429357,228.79942449995525,0.0,0.0,0.0,0.0,0.0,0.0,0.0012864307500422,0.034925202608700634,0.3900839692606926,0.3900843134757289
0.050000000745058,6387280.9877674095,23.288393779882885,7.490301220150946e-19,6387280.987809865,2.9722913802743278e-08,7.490301220150946e-19,-0.48930360852729055,465.7678750025627,2.996120489971432e-17,1.039857675632993e-19,1.7792646306541844e-06,0.4876053920679625,9143.987809864711,4.6534533018775135e-15,1.1726901062355329e-25,9.786072195558669,-1.371494399837109e-42,7.523163845250139e-37,-3.646057504653454e-06,0.0,0.0,1.1726615295546747e-20,-0.48760539206796244,303.22996189042766,0.4590417592411393,30148.68558603329,228.7994529429964,0.0,0.0,0.0,0.0,0.0,0.0,0.0016080383211374,0.05457066147494225,0.4876049769074917,0.4876053920679625
0.0599999986588954,6387280.98238507,27.946072528010298,1.078603376003566e-18,6387280.982446207,5.1313040660261326e-08,1.078603376003566e-18,-0.5871643305614063,465.7678746100764,3.5953445899784054e-17,1.247829211480926e-19,2.56151301634278e-06,0.5851264708090738,9143.982446207956,8.033628206005336e-15,1.6886737548697618e-25,9.786072212020757,-4.235164736261367e-22,-9.264992507255417e-28,-4.375269008033627e-06,0.0,0.0,1.1726615295546747e-20,-0.5851264708090738,303.2299849267377,0.4590420560749361,30148.709662096335,228.7994877066807,0.0,0.0,0.0,0.0,0.0,0.0,0.0019296457758173,0.07858180202099851,0.5851259845542908,0.5851264708090738
0.0700000002980232,6387280.976024123,32.603751271856055,1.4680990400459808e-18,6387280.976107338,8.143677989664867e-08,1.468099040045981e-18,-0.6850250527747961,465.7678741462288,4.194568691083248e-17,1.455800747722287e-19,3.485988394977319e-06,0.682647549728838,9143.976107338198,1.2749835211771044e-14,2.298472613836222e-25,9.78607223147596,0.0,0.0,-5.104480512749838e-06,0.0,0.0,1.1726615295546747e-20,-0.6826475497288381,303.230012151477,0.4590424068788528,30148.73811565757,228.79952879105235,0.0,0.0,0.0,0.0,0.0,0.0,0.0022512532304972,0.10695864654285418,0.682646961537838,0.682647549728838
0.0799999982118606,6387280.968684568,37.26143001070652,1.9175171142612757e-18,6387280.968793255,1.2151640818274245e-07,1.917517114261276e-18,-0.7828857751973393,465.7678736110199,4.793792793468937e-17,1.663772284422747e-19,4.552690836425895e-06,0.7801686288570306,9143.968793255435,1.902474758452664e-14,3.002086683879747e-25,9.78607225392428,-1.7555128352744782e-41,6.018531076184509e-36,-5.833692019024749e-06,0.0,0.0,1.1726615295546747e-20,-0.7801686288570306,303.23004356464463,0.45904281165298366,30148.77094672702,228.79957619611136,0.0,0.0,0.0,0.0,0.0,0.0,0.0025728605687618,0.1397012117624934,0.7801679385213852,0.7801686288570306
0.0900000035762786,6387280.960366406,41.91910874384809,2.4268575987866843e-18,6387280.960503963,1.7297418919497433e-07,2.4268575987866843e-18,-0.8807464978589152,465.7678730044501,5.3930168973184523e-17,1.8717438216476775e-19,5.761620202732969e-06,0.8776897082234276,9143.960503963075,2.708103655758498e-14,3.799515965859755e-25,9.786072279365701,-5.924855824175294e-41,1.805559322853313e-35,-6.562903527081037e-06,0.0,0.0,1.1726615295546747e-20,-0.8776897082234276,303.2300791662245,0.45904327039725057,30148.80815530104,228.7996299218358,0.0,0.0,0.0,0.0,0.0,0.0,0.0028944679070264,0.17680951997589978,0.8776889768314362,0.8776897082234276
0.1000000014901161,6387280.95106964,46.576787470567176,2.9961204937777365e-18,6387280.951239462,2.3723241693005548e-07,2.9961204937777377e-18,-0.9786072207894022,465.767872326519,5.99224100281477e-17,2.0797153594629748e-19,7.112776494636866e-06,0.9752107878578044,9143.951239462254,3.7141378113956326e-14,4.69076046075026e-25,9.786072307800227,0.0,0.0,-7.292115037141382e-06,0.0,0.0,1.1726615295546747e-20,-0.9752107878578044,303.2301189562104,0.4590437831117147,30148.84974138768,228.79968996821813,0.0,0.0,0.0,0.0,0.0,0.0,0.0032160750124603,0.2182836046270464,0.9752099538149834,0.9752107878578044
0.1099999994039535,6387280.940794263,51.23446619015012,3.6253057994082646e-18,6387280.940999748,3.157133160812009e-07,3.625305799408265e-18,-1.0764679440186797,465.7678715772268,6.591465110140871e-17,2.2876868979339354e-19,8.606159851569747e-06,1.072731867789936,9143.94099974843,4.942843738947624e-14,5.675820169639863e-25,9.786072339227866,-4.827660311003488e-41,1.2037062152323415e-35,-8.021326549428441e-06,0.0,0.0,1.1726615295546747e-20,-1.072731867789936,303.23016293462024,0.4590443497967658,30148.895705022027,228.79975633528804,0.0,0.0,0.0,0.0,0.0,0.0,0.0035376818850636,0.2641234768639275,1.0727309307985307,1.072731867789936
0.1199999973177909,6387280.929540279,55.892144901883356,4.314413515870393e-18,6387280.929784822,4.098392109654015e-07,4.314413515870393e-18,-1.1743286675766267,465.7678707565734,7.190689219479732e-17,2.495658437126005e-19,1.0241770274443663e-05,1.1702529480495982,9143.929784822738,6.416489512059214e-14,6.754695093731753e-25,9.786072373648617,-1.0533077054513576e-40,2.4074124304610024e-35,-8.750538064164898e-06,0.0,0.0,1.1726615295546747e-20,-1.1702529480495982,303.23021110144725,0.4590449704524951,30148.94604621526,228.79982902303826,0.0,0.0,0.0,0.0,0.0,0.0,0.0038592887576669,0.3143291924264998,1.1702519691085815,1.1702529480495982
0.1299999952316284,6387280.91730769,60.54982360505324,5.063443643374547e-18,6387280.91759469,5.210323132814665e-07,5.063443643374548e-18,-1.2721893914931222,465.76786986455886,7.789913331014329e-17,2.7036299771052303e-19,1.2019607556347017e-05,1.2677740286665669,9143.917594689721,8.157341441586006e-14,7.9273852343437105e-25,9.786072411062467,-1.1410833490235159e-40,2.4074124304570012e-35,-9.47974958157342e-06,0.0,0.0,1.1726615295546747e-20,-1.2677740286665669,303.2302634566701,0.45904564507881895,30149.000764964778,228.7999080314393,0.0,0.0,0.0,0.0,0.0,0.0,0.0041808956302702,0.36890077361074686,1.267772884765625,1.2677740286665669
0.1400000005960464,6387280.904096492,65.20750229894617,5.872396182149451e-18,6387280.904429343,6.50714964672261e-07,5.872396182149453e-18,-1.3700501157980454,465.7678689011831,8.389137444927645e-17,2.911601517936983e-19,1.3939671975579564e-05,1.3652951096706167,9143.904429342565,1.018766787321056e-13,9.193890592908106e-25,9.786072451469437,-8.470329472432652e-22,-4.323663205244782e-27,-1.0208961101876681e-05,0.0,0.0,1.1726615295546747e-20,-1.3652951096706167,303.2303200003157,0.4590463736762968,30149.05986132049,228.79999336053538,0.0,0.0,0.0,0.0,0.0,0.0,0.0045025018043816,0.42783828730461493,1.365293923075676,1.3652951096706167
0.1500000059604644,6387280.889906687,69.86518098284856,6.741271132442123e-18,6387280.890288787,8.003093421848462e-07,6.7412711324421255e-18,-1.467910840521275,465.76786786644624,8.988361561402656e-17,3.119573059686634e-19,1.600196325609993e-05,1.462816191091524,9143.890288786948,1.2529734576126683e-13,1.05542111709719e-24,9.786072494869504,1.694065894483265e-21,9.264992740780483e-27,-1.0938172625297352e-05,0.0,0.0,1.1726615295546747e-20,-1.4628161910915243,303.2303807323578,0.4590471562448125,30149.123335277873,228.8000850102899,0.0,0.0,0.0,0.0,0.0,0.0,0.0048241084441542,0.4911417112121203,1.4628149613857269,1.462816191091524
0.1599999964237213,6387280.874738275,74.52285965604673,7.670068494517885e-18,6387280.875173019,9.712377874620873e-07,7.670068494517885e-18,-1.5657715656926905,465.76786676034806,9.58758568062234e-17,3.3275446024203047e-19,1.8206481399167608e-05,1.5603372729590637,9143.875173019464,1.520580989693487e-13,1.200834697019664e-24,9.786072541262687,-5.617641127747583e-40,9.629649721772322e-35,-1.1667384152058107e-05,0.0,0.0,1.1726615295546747e-20,-1.5603372729590637,303.2304456528081,0.4590479927847656,30149.1911868746,228.80018298072494,0.0,0.0,0.0,0.0,0.0,0.0,0.0051457146182656,0.5588111345172023,1.5603358770427704,1.5603372729590637
0.1700000017881393,6387280.858591256,79.18053831782714,8.65878826866035e-18,6387280.859082042,1.1649225728433522e-06,8.658788268660351e-18,-1.6636322913421706,465.7678655828888,1.0186809802769671e-16,3.5355161462029168e-19,2.0553226752646426e-05,1.6578583553030122,9143.859082042381,1.823816109772212e-13,1.355629799235846e-24,9.786072590648976,-5.968743708251849e-40,9.629649721751203e-35,-1.2396595682381618e-05,0.0,0.0,1.1726615295546747e-20,-1.6578583553030122,303.23051476165455,0.45904888329625726,30149.263416124486,228.80028727182577,0.0,0.0,0.0,0.0,0.0,0.0,0.0054673203267157,0.630846646403786,1.6578569153528213,1.6578583553030122
0.1800000071525573,6387280.84146563,83.83821696747614,9.707430455171433e-18,6387280.842015852,1.3827858927015768e-06,9.707430455171433e-18,-1.7614930174995946,465.76786433406835,1.0786033928027634e-16,3.7434876910999894e-19,2.3042199179362576e-05,1.7553794381531442,9143.842015852297,2.1649054220468e-13,1.5198064239348098e-24,9.786072643028376,8.470329472360586e-22,5.558995778390964e-27,-1.3125807216490549e-05,0.0,0.0,1.1726615295546747e-20,-1.7553794381531442,303.23058805890884,0.4590498277797173,30149.3400230684,228.8003978836148,0.0,0.0,0.0,0.0,0.0,0.0,0.0057889260351657,0.7072482022799087,1.7553779536628724,1.7553794381531442
0.1899999976158142,6387280.823361396,88.49589560428015,1.0815995054371345e-17,6387280.823974454,1.6262501146684372e-06,1.0815995054371347e-17,-1.8593537441948416,465.76786301388677,1.1385258056579204e-16,3.951459237177496e-19,2.5673398403622172e-05,1.8529005215392356,9143.82397445375,2.5460758020288697e-13,1.693364571317087e-24,9.786072698400883,-1.3341897749666038e-39,1.925929944341023e-34,-1.385501875460759e-05,0.0,0.0,1.1726615295546747e-20,-1.8529005215392356,303.23066554454846,0.4590508262351498,30149.42100771301,228.8005148160626,0.0,0.0,0.0,0.0,0.0,0.0,0.0061105312779545,0.7880159359214678,1.8528988693199158,1.8529005215392356
0.2000000029802322,6387280.804278553,93.15357422752552,1.1984482066598598e-17,6387280.804957842,1.8967374677686168e-06,1.1984482066598601e-17,-1.9572144714577906,465.767861622344,1.198448218860736e-16,4.159430784501109e-19,2.8446824773549606e-05,1.9504216054910615,9143.804957842201,2.969553908286542e-13,1.876304241594667e-24,9.786072756766504,-1.4044102922248511e-39,1.9259299443360302e-34,-1.4584230296955403e-05,0.0,0.0,1.1726615295546747e-20,-1.9504216054910617,303.23074721858984,0.4590518786630768,30149.506370107356,228.80063806919864,0.0,0.0,0.0,0.0,0.0,0.0,0.0064321365207433,0.8731498473284581,1.9504199076299669,1.9504216054910615
0.209999993443489,6387280.784217106,97.81125283649868,1.3212891492209996e-17,6387280.784966021,2.195670233004421e-06,1.3212891492209997e-17,-2.055075199318321,465.76786015944003,1.2583706324295078e-16,4.367402333135897e-19,3.136247808292819e-05,2.0479426900383984,9143.784966021056,3.4375664808292934e-13,2.0686254349910014e-24,9.786072818125227,-2.9492616198235273e-39,3.8518598886615643e-34,-1.531344184375666e-05,0.0,0.0,1.1726615295546747e-20,-2.0479426900383984,303.230833081015,0.45905298506359415,30149.596110266324,228.80076764300094,0.0,0.0,0.0,0.0,0.0,0.0,0.0067537417635321,0.9626500256848243,2.047940945940018,2.0479426900383984
0.2199999988079071,6387280.763177051,102.46893143048598,1.4501223331580648e-17,6387280.763998988,2.524470587422911e-06,1.4501223331580648e-17,-2.1529359278063107,465.7678586251748,1.3182930463825338e-16,4.575373883147982e-19,3.442035840284203e-05,2.1454637752110197,9143.76399898804,3.952340096981075e-13,2.2703281517409974e-24,9.786072882477066,-3.089702656097543e-39,3.8518598886505546e-34,-1.6042653395234023e-05,0.0,0.0,1.1726615295546747e-20,-2.1454637752110197,303.23092313183025,0.45905414543712764,30149.690228231855,228.80090353748443,0.0,0.0,0.0,0.0,0.0,0.0,0.0070753460749983,1.056516560174486,2.1454618615970613,2.1454637752110197
0.2300000041723251,6387280.741158387,107.12661000877381,1.5849477585103954e-17,6387280.742056742,2.8845609852851343e-06,1.5849477585103954e-17,-2.25079665695164,465.7678570195485,1.3782154607381125e-16,4.783345434602737e-19,3.7620465873765694e-05,2.2429848610387038,9143.742056742025,4.516101768146625e-13,2.481412392091024e-24,9.786072949822021,-3.2301436933146237e-39,3.8518598886390327e-34,-1.6771864951610185e-05,0.0,0.0,1.1726615295546747e-20,-2.2429848610387038,303.2310173710369,0.459055359784054,30149.78872404232,228.80104575265662,0.0,0.0,0.0,0.0,0.0,0.0,0.0073969503864645,1.1547494507974483,2.2429830225601197,2.2429848610387038
0.2399999946355819,6387280.718161116,111.78428857064858,1.7257654253191617e-17,6387280.71913929,3.2773635170087806e-06,1.7257654253191617e-17,-2.348657386784187,465.767855342561,1.4381378755145407e-16,4.99131698756553e-19,4.09628002204395e-05,2.340505947551225,9143.719139289818,5.131077936168144e-13,2.7018781562989066e-24,9.786073020160073,0.0,0.0,-1.750107651310766e-05,0.0,0.0,1.1726615295546747e-20,-2.340505947551225,303.23111579860176,0.4590566281043253,30149.89159770198,228.80119428847337,0.0,0.0,0.0,0.0,0.0,0.0,0.0077185546979308,1.2573487867376458,2.340503938217163,2.340505947551225
0.25,6387280.694185239,116.44196711539668,1.872575333627363e-17,6387280.695246627,3.7043005328996516e-06,1.8725753336273635e-17,-2.4465181173338313,465.7678535942123,1.4980602907301163e-16,5.199288542102036e-19,4.4447361444904724e-05,2.4380270347783584,9143.695246626878,5.799495449849838e-13,2.9317254446339302e-24,9.78607309349123,0.0,0.0,-1.8230288079948466e-05,0.0,0.0,1.1726615295546747e-20,-2.4380270347783584,303.2312184145403,0.45905795039853614,30149.998849267606,228.80134914496435,0.0,0.0,0.0,0.0,0.0,0.0,0.0080401580780744,1.3643146571790081,2.4380248538742064,2.4380270347783584
0.2599999904632568,6387280.669230754,121.0996456423045,2.02537748347983e-17,6387280.670378747,4.166794331285927e-06,2.02537748347983e-17,-2.5443788486304526,465.7678517745024,1.557982706403138e-16,5.407260098278375e-19,4.807414996511043e-05,2.5355481227498786,9143.670378747529,6.52358107670075e-13,3.170954257376842e-24,9.78607316981552,-3.6514668110528984e-39,3.8518598886013976e-34,-1.895949965235687e-05,0.0,0.0,1.1726615295546747e-20,-2.5355481227498786,303.2313252188729,0.4590593266673584,30150.11047880258,228.80151032216645,0.0,0.0,0.0,0.0,0.0,0.0,0.008361761458218,1.475647151305465,2.5355460148372653,2.5355481227498786
0.270000010728836,6387280.643297661,125.75732415065839,2.1841718749232216e-17,6387280.644535661,4.666267089214671e-06,2.184171874923222e-17,-2.642239580703928,465.76784988343127,1.6179051225519025e-16,5.615231656159468e-19,5.1843165367450586e-05,2.633069211495563,9143.64453566199,7.305561394435795e-13,3.4195645948198435e-24,9.7860732491329,-7.58381570494178e-39,7.703719777175655e-34,-1.9688711230554528e-05,0.0,0.0,1.1726615295546747e-20,-2.633069211495563,303.23143621155117,0.4590607569105996,30150.22648630054,228.80167782001362,0.0,0.0,0.0,0.0,0.0,0.0,0.0086833648383617,1.5913463583009513,2.6330669304943086,2.633069211495563
0.2800000011920929,6387280.616385963,130.41500263974478,2.3489585080060262e-17,6387280.617717365,5.204141139665808e-06,2.3489585080060262e-17,-2.7401003135841386,465.76784792099886,1.6778275391947085e-16,5.823203215810536e-19,5.575440772353049e-05,2.730590301045187,9143.617717364583,8.147663224988575e-13,3.6775564572665964e-24,9.786073331443397,-7.864697790092549e-39,7.703719777147492e-34,-2.041792281476485e-05,0.0,0.0,1.1726615295546747e-20,-2.730590301045187,303.2315513925952,0.4590622411289608,30150.346871827966,228.80185163854273,0.0,0.0,0.0,0.0,0.0,0.0,0.0090049672871828,1.7114123673494013,2.730587846151352,2.730590301045187
0.2899999916553497,6387280.588495655,135.07268110885002,2.5197373827785657e-17,6387280.589923857,5.7818388156192685e-06,2.5197373827785657e-17,-2.8379610473009613,465.76784588720545,1.7377499563498533e-16,6.0311747772989e-19,5.980787724364937e-05,2.8281113914285236,9143.589923856443,9.052113390384489e-13,3.944929845032226e-24,9.786073416747,-8.14557987764384e-39,7.703719777118303e-34,-2.114713440521123e-05,0.0,0.0,1.1726615295546747e-20,-2.828111391428524,303.2316707619952,0.4590637793227815,30150.47163542236,228.8020317777467,0.0,0.0,0.0,0.0,0.0,0.0,0.0093265697360038,1.8358451784508105,2.8281090071144104,2.8281113914285236
0.3000000119209289,6387280.559626741,139.7303595572605,2.6965084992929848e-17,6387280.561155137,6.400782259470361e-06,2.6965084992929857e-17,-2.9358217818842784,465.76784378205076,1.7976723740356347e-16,6.239146340687381e-19,6.40035737223722e-05,2.925632482675353,9143.561155136436,1.0021138414362658e-12,4.221684758443308e-24,9.786073505043717,-1.6852923935362778e-38,1.5407439554176188e-33,-2.1876346002113586e-05,0.0,0.0,1.1726615295546747e-20,-2.9256324826753533,303.2317943197514,0.4590653714925406,30150.600777132928,228.80221823763296,0.0,0.0,0.0,0.0,0.0,0.0,0.0096481721848249,1.9646449699730426,2.9256299227714537,2.925632482675353
0.3100000023841858,6387280.529779221,144.38803798426267,2.8792718576032645e-17,6387280.531411209,7.062393786873145e-06,2.8792718576032645e-17,-3.033682517363967,465.7678416055349,1.8575947922703507e-16,6.447117906043603e-19,6.83414970929579e-05,3.023153574815446,9143.531411207969,1.1056965092016676e-12,4.507821197837881e-24,9.786073596333539,1.6940658944003903e-21,1.9147652853044287e-26,-2.260555760569532e-05,0.0,0.0,1.1726615295546747e-20,-3.023153574815446,303.2319220658441,0.4590670176384812,30150.734296990064,228.80241101817967,0.0,0.0,0.0,0.0,0.0,0.0,0.0099697737023234,2.0978117419161033,3.0231510837345126,3.023153574815446
0.3199999928474426,6387280.498953091,149.04571638914285,3.068027457765213e-17,6387280.500692064,7.768095678829923e-06,3.068027457765213e-17,-3.1315432537699057,465.7678393576577,1.9175172110722998e-16,6.655089473432784e-19,7.282164777387675e-05,3.1206746678785806,9143.500692064224,1.2161820164290963e-12,4.803339163565451e-24,9.786073690616483,1.6940658943932958e-21,1.976531988297712e-26,-2.333476921618157e-05,0.0,0.0,1.1726615295546747e-20,-3.120674667878581,303.23205400029747,0.45906871776142527,30150.872195071533,228.80261011943114,0.0,0.0,0.0,0.0,0.0,0.0,0.0102913742884993,2.235345672647852,3.120671999391556,3.1206746678785806
0.3300000131130218,6387280.467148354,153.70339477118748,3.2627752998364686e-17,6387280.468997712,8.519310268320623e-06,3.26277529983647e-17,-3.229403991131974,465.76783703841943,1.9774396304597787e-16,6.863061042920448e-19,7.744402549065085e-05,3.2181957618945325,9143.468997712023,1.3337930453612081e-12,5.108238655986971e-24,9.786073787892532,1.6940658943859767e-21,2.0382986148570897e-26,-2.4063980833792254e-05,0.0,0.0,1.1726615295546747e-20,-3.2181957618945325,303.2321901230767,0.4590704718614566,30151.014471395534,228.80281554134328,0.0,0.0,0.0,0.0,0.0,0.0,0.0106129758059978,2.3772469405361565,3.2181929150485993,3.2181957618945325
0.3400000035762787,6387280.434365012,158.3610731296829,3.4635153838764994e-17,6387280.436328151,9.317459663088812e-06,3.4635153838764994e-17,-3.3272647294800515,465.76783464781994,2.037362050451086e-16,7.071032614571814e-19,8.220862989958568e-05,3.315716856893077,9143.436328151358,1.4587522429882742e-12,5.422519675474852e-24,9.786073888161685,3.388131788756864e-21,4.200130484077223e-26,-2.479319245875078e-05,0.0,0.0,1.1726615295546747e-20,-3.3157168568930775,303.23233043417645,0.45907227993905014,30151.161126012405,228.80302728391646,0.0,0.0,0.0,0.0,0.0,0.0,0.0109345754608511,2.523515367213149,3.3157140760116577,3.315716856893077
0.3499999940395355,6387280.400603059,163.0187514639155,3.6702477099466015e-17,6387280.402683375,1.0163966352047283e-05,3.6702477099466015e-17,-3.4251254688440165,465.76783218585916,2.097284471064519e-16,7.279004188452104e-19,8.711546169662612e-05,3.4132379529039882,9143.40268337542,1.5912823159880809e-12,5.746182222412977e-24,9.786073991423962,3.3881317887413258e-21,4.323663739722261e-26,-2.5522404091282283e-05,0.0,0.0,1.1726615295546747e-20,-3.4132379529039882,303.23247493362027,0.4590741419950722,30151.312159004545,228.80324534719495,0.0,0.0,0.0,0.0,0.0,0.0,0.0112561751157045,2.674151309414558,3.413234991668701,3.4132379529039882
0.3600000143051147,6387280.365862501,167.6764297731717,3.8829722781099035e-17,6387280.36806339,1.1060252390961979e-05,3.882972278109904e-17,-3.522986209253748,465.76782965253716,2.1572068923183755e-16,7.486975764628942e-19,9.216452046894781e-05,3.5107590499570422,9143.368063389882,1.7316059032360002e-12,6.079226297196679e-24,9.786074097679343,3.3881317887253357e-21,4.4471971507613953e-26,-2.625161573160494e-05,0.0,0.0,1.1726615295546747e-20,-3.5107590499570422,303.23262362137785,0.4590760580297129,30151.46757039992,228.80346973114214,0.0,0.0,0.0,0.0,0.0,0.0,0.0115777747705578,2.8291547671403885,3.510755907325745,3.5107590499570422
0.3700000047683716,6387280.330143335,172.33410805673785,4.101689088431362e-17,6387280.332468195,1.200774016479045e-05,4.101689088431362e-17,-3.620846950739126,465.76782704785404,2.2171293142309543e-16,7.694947343165748e-19,9.735580615033088e-05,3.6082801480820152,9143.33246819475,1.879945695157923e-12,6.4216519002327475e-24,9.786074206927836,-4.1570546699043464e-38,3.0814879107391747e-33,-2.6980827379945642e-05,0.0,0.0,1.1726615295546747e-20,-3.6082801480820157,303.23277649744324,0.45907802804349107,30151.62736025347,228.80370043575826,0.0,0.0,0.0,0.0,0.0,0.0,0.0118993734940886,2.98852574039064,3.6082770682888032,3.6082801480820152
0.3799999952316284,6387280.293445562,176.99178631390035,4.326398140977766e-17,6387280.295897787,1.3007851885231503e-05,4.326398140977767e-17,-3.7187076933300283,465.7678243718096,2.2770517368205525e-16,7.9029189241292395e-19,0.00010268931902115966,3.7058012473086825,9143.29589778775,2.03652435506639e-12,6.773459031939437e-24,9.786074319169439,0.0,0.0,-2.7710039036524295e-05,0.0,0.0,1.1726615295546747e-20,-3.7058012473086825,303.23293356182,0.4590800520370658,30151.79152863191,228.8039374610582,0.0,0.0,0.0,0.0,0.0,0.0,0.0122209722176194,3.1522645859010314,3.7057979839458466,3.7058012473086825
0.3899999856948852,6387280.255769181,181.64946454394564,4.557099435817731e-17,6387280.258352169,1.4062009937242693e-05,4.557099435817732e-17,-3.816568437056336,465.7678216244039,2.336974160105468e-16,8.110890507583743e-19,0.00010816505894608458,3.8033223476668216,9143.258352168883,2.2015645734121113e-12,7.13464769274646e-24,9.786074434404163,-4.381760361618655e-38,3.081487910708042e-33,-2.8439250701564302e-05,0.0,0.0,1.1726615295546747e-20,-3.8033223476668216,303.2330948145016,0.45908213001098513,30151.960075593288,228.80418080704231,0.0,0.0,0.0,0.0,0.0,0.0,0.0125425700098276,3.320371303671573,3.803319144908905,3.8033223476668216
0.4000000059604645,6387280.217114193,186.30714274616008,4.793792973021704e-17,6387280.219831339,1.5171636497871078e-05,4.7937929730217027e-17,-3.9144291819479275,465.76781880563703,2.3968965841039993e-16,8.318862093596274e-19,0.00011378302578984273,3.900843449186204,9143.219831339284,2.375289008108008e-12,7.505217883094984e-24,9.786074552631991,-4.494113209464812e-38,3.0814879106918613e-33,-2.9168462375287325e-05,0.0,0.0,1.1726615295546747e-20,-3.9008434491862034,303.2332602554769,0.45908426196574853,30152.13300119211,228.80443047370335,0.0,0.0,0.0,0.0,0.0,0.0,0.0128641678020358,3.4928462504379927,3.900840060565949,3.900843449186204
0.4099999964237213,6387280.177480598,190.9648209198301,5.03647875266196e-17,6387280.1803353,1.6338153882770714e-05,5.03647875266196e-17,-4.01228992803468,465.7678159155089,2.456819008834443e-16,8.52683368223146e-19,0.00011954321983307909,3.9983645518966076,9143.180335300085,2.5579203387807295e-12,7.88516960343764e-24,9.786074673852927,-4.6064660586826997e-38,3.0814879106752712e-33,-2.989767405792025e-05,0.0,0.0,1.1726615295546747e-20,-3.9983645518966084,303.23342988473416,0.4590864479018708,30152.310305484432,228.80468646103412,0.0,0.0,0.0,0.0,0.0,0.0,0.0131857646629214,3.6696890694645528,3.9983612215290067,3.9983645518966076
0.4199999868869781,6387280.136868395,195.62249906424202,5.285156774812607e-17,6387280.13986405,1.75629843729439e-05,5.2851567748126084e-17,-4.110150675346474,465.7678129540196,2.5167414343150973e-16,8.73480527355542e-19,0.00012544564087140108,4.09588565582781,9143.139864050156,2.7496812396454116e-12,8.274502854238518e-24,9.78607479806698,-4.718818909306602e-38,3.081487910658271e-33,-3.062688574968125e-05,0.0,0.0,1.1726615295546747e-20,-4.09588565582781,303.2336037022714,0.4590886878200061,30152.491988538033,228.8049487690423,0.0,0.0,0.0,0.0,0.0,0.0,0.0135073605924844,3.850900117486992,4.0958821371860505,4.09588565582781
0.4300000071525574,6387280.095277584,200.2801771786822,5.53982703954958e-17,6387280.098417586,1.8847550110785962e-05,5.53982703954958e-17,-4.208011423913189,465.767809921169,2.576663860564261e-16,8.942776867633676e-19,0.00013149028911632385,4.193406761009583,9143.09841758609,2.9507943632306556e-12,8.673217635973163e-24,9.786074925274152,-4.831171761370821e-38,3.0814879106408607e-33,-3.135609745079373e-05,0.0,0.0,1.1726615295546747e-20,-4.193406761009582,303.23378170809616,0.4590909817209502,30152.678050432507,228.80521739775023,0.0,0.0,0.0,0.0,0.0,0.0,0.0138289565220475,4.036479394505305,4.193403298149109,4.193406761009583
0.4399999976158142,6387280.052708168,204.9378552624371,5.800489546950644e-17,6387280.055995913,2.019327344660269e-05,5.800489546950647e-17,-4.305872173764704,465.7678068169571,2.636586287600231e-16,9.150748464531443e-19,0.00013767716429432503,4.290927867471704,9143.055995914696,3.161482394630044e-12,9.08131394912858e-24,9.786075055474427,-4.943524614909643e-38,3.0814879106230414e-33,-3.208530916148108e-05,0.0,0.0,1.1726615295546747e-20,-4.290927867471704,303.23396390217215,0.45909332960494664,30152.868491203033,228.80549234711398,0.0,0.0,0.0,0.0,0.0,0.0,0.0141505515202879,4.226427257255224,4.290924213806153,4.290927867471704
0.449999988079071,6387280.009160139,209.59553331479307,6.067144297095396e-17,6387280.0125990305,2.160157676535164e-05,6.067144297095396e-17,-4.403732924930896,465.7678036413841,2.6965087154413053e-16,9.358720064314552e-19,0.00014400626668639716,4.388448975243948,9143.012599030299,3.3819680243769052e-12,9.498791794203233e-24,9.786075188667821,-1.5167632409872104e-37,9.244463731814437e-33,-3.2814520881966704e-05,0.0,0.0,1.1726615295546747e-20,-4.388448975243948,303.23415028451615,0.45909573147294575,30153.063310942474,228.80577361717062,0.0,0.0,0.0,0.0,0.0,0.0,0.0144721465185284,4.420744062472475,4.388445129463196,4.388448975243948
0.4600000083446502,6387279.964633507,214.2532113350365,6.33979129006526e-17,6387279.968226934,2.3073882140124627e-05,6.339791290065263e-17,-4.501593677441648,465.7678003944498,2.756431144105782e-16,9.566691667048219e-19,0.00015047759629640542,4.485970084356091,9142.968226934034,3.6124738941934588e-12,9.92565117170705e-24,9.78607532485433,-2.067292130619314e-37,1.2325951642344693e-32,-3.354373261247227e-05,0.0,0.0,1.1726615295546747e-20,-4.485970084356091,303.2343408551159,0.4590981873255342,30153.262509714572,228.80606120791296,0.0,0.0,0.0,0.0,0.0,0.0,0.0147937405854463,4.619429453421328,4.485966045120239,4.485970084356091
0.4699999988079071,6387279.919128266,218.91088932245378,6.618430525943495e-17,6387279.922879627,2.461161192122745e-05,6.618430525943495e-17,-4.599454431326835,465.76779707615424,2.8163535736119586e-16,9.774663272799169e-19,0.00015709115271248105,4.583491194837906,9142.922879627038,3.8532226892181676e-12,1.0361892082161412e-23,9.786075464033951,-1.0561166369433367e-37,6.162975821134251e-33,-3.427294435322117e-05,0.0,0.0,1.1726615295546747e-20,-4.583491194837907,303.23453561395866,0.4591006971633148,30153.466087584722,228.80635511933397,0.0,0.0,0.0,0.0,0.0,0.0,0.0151153337210416,4.822483786837512,4.5834874513893125,4.583491194837906
0.4799999892711639,6387279.872644417,223.56856727633132,6.903062004815182e-17,6387279.876557111,2.621618856292116e-05,6.903062004815183e-17,-4.697315186616339,465.7677936864974,2.876276003978133e-16,9.982634881630813e-19,0.00016384693635448425,4.681012306719175,9142.876557110443,4.1044371108804896e-12,1.0807514526099162e-23,9.786075606206682,-1.0785872088993733e-37,6.162975821095334e-33,-3.5002156104436806e-05,0.0,0.0,1.1726615295546747e-20,-4.6810123067191745,303.2347345610317,0.4591032609869043,30153.67404461983,228.80665535142663,0.0,0.0,0.0,0.0,0.0,0.0,0.015436926856637,5.029907062721032,4.681008367046356,4.681012306719175
0.4900000095367431,6387279.825181962,228.22624519595544,7.193685726767234e-17,6387279.82925938,2.788903406899408e-05,7.193685726767236e-17,-4.795175943340039,465.76779022547925,2.936198435222603e-16,1.0190606493609883e-18,0.00017074494715723715,4.778533420029668,9142.829259380847,4.366339790099328e-12,1.1262518504064604e-23,9.786075751372534,-1.1010577811846235e-37,6.162975821055598e-33,-3.57313678663391e-05,0.0,0.0,1.1726615295546747e-20,-4.778533420029669,303.23493769634166,0.4591058787971849,30153.88638090869,228.80696190421318,0.0,0.0,0.0,0.0,0.0,0.0,0.0157585181295871,5.241699281071884,4.7785292827034,4.778533420029668
0.5,6387279.7767409,232.8839230806125,7.490301691888402e-17,6387279.780986443,2.963157061649327e-05,7.490301691888403e-17,-4.893036701527812,465.76778669309994,2.9961208673636674e-16,1.0398578108803099e-18,0.00017778518498634552,4.876054534799161,9142.780986442789,4.639153384935488e-12,1.1726904016613488e-23,9.78607589953149,0.0,0.0,-3.646057963915319e-05,0.0,0.0,1.1726615295546747e-20,-4.876054534799161,303.23514501986085,0.4591085505946145,30154.10309650604,228.8072747776645,0.0,0.0,0.0,0.0,0.0,0.0,0.0160801094025373,5.457861155361523,4.876050198360443,4.876054534799161
0.5099999904632568,6387279.727321231,237.54160092958904,7.792909900269255e-17,6387279.731738291,3.144522069433151e-05,7.792909900269255e-17,-4.990897461209539,465.7677830893593,3.056043300419622e-16,1.0606549727274781e-18,0.0001849676499847161,4.973575651057431,9142.731738290593,4.923100602292508e-12,1.2200671064313045e-23,9.786076050683572,-1.1459989267702013e-37,6.1629758209736684e-33,-3.718979142309899e-05,0.0,0.0,1.1726615295546747e-20,-4.9735756510574305,303.2353565316051,0.45911127638023047,30154.324191513984,228.80759397181765,0.0,0.0,0.0,0.0,0.0,0.0,0.0164017006754875,5.678392685589951,4.973571114017487,4.973575651057431
0.5199999809265137,6387279.67692295,242.19927874217132,8.101510352002195e-17,6387279.681514929,3.3331406791421616e-05,8.101510352002196e-17,-5.088758222415097,465.7677794142573,3.115965734408767e-16,1.0814521349090448e-18,0.00019229234222603906,5.071096768834255,9142.6815149288,5.218404149090917e-12,1.2683819647741945e-23,9.78607620482876,-1.1684695000842465e-37,6.162975820931473e-33,-3.7919003218403395e-05,0.0,0.0,1.1726615295546747e-20,-5.071096768834256,303.23557223154637,0.4591140561545193,30154.549665990315,228.8079194866435,0.0,0.0,0.0,0.0,0.0,0.0,0.0167232919484376,5.903293871757172,5.07109252028656,5.071096768834255
0.5299999713897705,6387279.625546063,246.85695651764578,8.416103047181462e-17,6387279.630316355,3.529155073829316e-05,8.416103047181462e-17,-5.186618985174368,465.76777566779407,3.1758881693494003e-16,1.1022492974316821e-18,0.0001997592614375734,5.168617888159405,9142.63031635514,5.52528662919134e-12,1.3176349767490328e-23,9.786076361967067,-1.190940073754941e-37,6.162975820888463e-33,-3.864821502528631e-05,0.0,0.0,1.1726615295546747e-20,-5.168617888159405,303.2357921196858,0.45911688991835986,30154.779520025008,228.80825132215716,0.0,0.0,0.0,0.0,0.0,0.0,0.0170448813587427,6.132564713863182,5.168613435943604,5.168617888159405
0.5400000214576721,6387279.57319057,251.51463425529886,8.736687985903115e-17,6387279.578142572,3.732707498920717e-05,8.736687985903116e-17,-5.28447974951723,465.7677718499697,3.235810605259818e-16,1.1230464603017023e-18,0.00020736840783178997,5.266139009062661,9142.578142571881,5.843970744124205e-12,1.3678261424159793e-23,9.786076522098488,-3.3881317883605048e-21,-6.670795582556857e-26,-3.93774268439694e-05,0.0,0.0,1.1726615295546747e-20,-5.266139009062662,303.2360161960045,0.45911977767239354,30155.01375368913,228.80858947834412,0.0,0.0,0.0,0.0,0.0,0.0,0.0173664689064025,6.36620521190798,5.266134351600647,5.266139009062661
0.550000011920929,6387279.519856469,256.1723119544169,9.063265168265049e-17,6387279.524993572,3.9439401894469486e-05,9.063265168265049e-17,-5.382340515473562,465.7677679607839,3.2957330421583183e-16,1.1438436235258978e-18,0.00021511978141333592,5.363660131573794,9142.52499357335,6.174679179162613e-12,1.4189554618363387e-23,9.786076685223032,-3.388131788335957e-21,-6.794328871760001e-26,-4.010663867467781e-05,0.0,0.0,1.1726615295546747e-20,-5.363660131573794,303.236244460518,0.45912271941771626,30155.252367090998,228.8089339552415,0.0,0.0,0.0,0.0,0.0,0.0,0.0176880583167076,6.604216436098753,5.36365526725769,5.363660131573794
0.5600000023841858,6387279.465543759,260.8299896142862,9.395834594366988e-17,6387279.470869367,4.162995370043064e-05,9.395834594366992e-17,-5.480201283073242,465.76776400023675,3.3556554800631993e-16,1.1646407871108807e-18,0.0002230133820483381,5.461181255722582,9142.470869367493,6.5176346033226595e-12,1.471022935072564e-23,9.786076851340683,0.0,0.0,-4.0835850517633194e-05,0.0,0.0,1.1726615295546747e-20,-5.46118125572258,303.23647691318286,0.4591257151546843,30155.495360279292,228.8092847527981,0.0,0.0,0.0,0.0,0.0,0.0,0.0180096440017223,6.846597672964043,5.461176673526763,5.461181255722582
0.5699999928474426,6387279.410252443,265.4876672341932,9.734396264310485e-17,6387279.41576995,4.3900152410878944e-05,9.734396264310486e-17,-5.578062052346151,465.7677599683285,3.415577918992759e-16,1.1854379510629627e-18,0.0002310492098802242,5.5587023815388,9142.415769949768,6.873059647663313e-12,1.5240285621882507e-23,9.786077020451453,-2.561644744282763e-37,1.2325951641416438e-32,-4.1565062373058954e-05,0.0,0.0,1.1726615295546747e-20,-5.5587023815388,303.23671355400904,0.45912876488436094,30155.742733360385,228.80964187104368,0.0,0.0,0.0,0.0,0.0,0.0,0.0183312315493822,7.093349635975307,5.558697589183806,5.5587023815388
0.5799999833106995,6387279.353982518,270.1453448134244,1.0078950178198922e-16,6387279.35969532,4.6251420549378967e-05,1.0078950178198922e-16,-5.675922823322167,465.7677558650588,3.4755003589652946e-16,1.206235115388696e-18,0.00023922726491390194,5.656223509052223,9142.359695320174,7.241177024639363e-12,1.5779723432481434e-23,9.786077192555338,-3.388131788259613e-21,-7.164927519367984e-26,-4.229427424117674e-05,0.0,0.0,1.1726615295546747e-20,-5.656223509052225,303.2369543829871,0.4591318686075717,30155.994486421754,228.81000530997864,0.0,0.0,0.0,0.0,0.0,0.0,0.0186528172343969,7.344471611661093,5.656218504840851,5.656223509052223
0.5899999737739563,6387279.296733987,274.80302235126607,1.0429496336137513e-16,6387279.30264548,4.868518050088824e-05,1.0429496336137515e-16,-5.773783596031168,465.76775169042776,3.5354227999991057e-16,1.227032280094933e-18,0.00024754754701575906,5.75374463829263,9142.30264547985,7.622209425024491e-12,1.6328542783181306e-23,9.78607736765234,-2.651527047305641e-37,1.2325951641226358e-32,-4.3023486122208234e-05,0.0,0.0,1.1726615295546747e-20,-5.75374463829263,303.2371994001023,0.4591350263250939,30156.250619547314,228.81037506959584,0.0,0.0,0.0,0.0,0.0,0.0,0.0189744029194116,7.599965026964306,5.753739911109924,5.75374463829263
0.6000000238418579,6387279.238506846,279.4606998470046,1.0786034738233294e-16,6387279.244620427,5.120285426919509e-05,1.0786034738233298e-16,-5.8716443705030334,465.7677474444355,3.5953452421124887e-16,1.2478294451881059e-18,0.0002560100563987871,5.851265769289792,9142.244620426522,8.01637947993581e-12,1.688674367465247e-23,9.786077545742463,3.388131788206464e-21,7.4119978148274e-26,-4.375269801637856e-05,0.0,0.0,1.1726615295546747e-20,-5.85126576928979,303.23744860535453,0.45913823803790793,30156.51113283782,228.81075114991032,0.0,0.0,0.0,0.0,0.0,0.0,0.0192959867417812,7.859829168413498,5.851260826766967,5.851265769289792
0.6100000143051147,6387279.179301099,284.11837729992646,1.1148565384595148e-16,6387279.185620164,5.380586413530182e-05,1.114856538459515e-16,-5.969505146767644,465.76774312708187,3.655267685323742e-16,1.2686266106746465e-18,0.00026461479292954736,5.948786902073484,9142.185620163596,8.423909863911422e-12,1.7454326107576737e-23,9.7860777268257,3.3881317881792142e-21,7.53553234963419e-26,-4.448190992390937e-05,0.0,0.0,1.1726615295546747e-20,-5.9487869020734845,303.23770199871916,0.45914150374669555,30156.77602637017,228.81113355090054,0.0,0.0,0.0,0.0,0.0,0.0,0.0196175705641508,8.124064749480118,5.948781742424011,5.948786902073484
0.6200000047683716,6387279.119116744,288.77605470931786,1.1517088275333767e-16,6387279.125644691,5.6495632622772974e-05,1.1517088275333772e-16,-6.067365924854878,465.7677387383669,3.715190129651163e-16,1.2894237765613475e-18,0.0002733617565439917,6.046308036673485,9142.125644689939,8.845023289485677e-12,1.8031290082647375e-23,9.786077910902053,3.388131788151514e-21,7.659064421550704e-26,-4.5211121845022344e-05,0.0,0.0,1.1726615295546747e-20,-6.046308036673485,303.23795958019053,0.4591448234524035,30157.0453002431,228.81152227257402,0.0,0.0,0.0,0.0,0.0,0.0,0.0199391525238752,8.392671770164174,6.0463026580810535,6.046308036673485
0.6299999952316284,6387279.0579537805,293.4337320744654,1.1891603410561689e-16,6387279.064694004,5.9273581908655606e-05,1.1891603410561693e-16,-6.165226704794616,465.76773427829073,3.7751125751130513e-16,1.3102209428545202e-18,0.00028225094745537246,6.143829173119572,9142.064694003278,9.279942414962458e-12,1.8617635600569123e-23,9.786078097971524,-5.6625833263459275e-37,2.4651903281653097e-32,-4.594033377994087e-05,0.0,0.0,1.1726615295546747e-20,-6.143829173119571,303.23822134976814,0.4591481971560562,30157.318954562037,228.8119173149459,0.0,0.0,0.0,0.0,0.0,0.0,0.0202607344835996,8.665650230465662,6.143824064350127,6.143829173119572
0.6399999856948853,6387278.995812207,298.09140939465533,1.2272110790393275e-16,6387279.002768105,6.214113413534506e-05,1.2272110790393275e-16,-6.263087486616736,465.76772974685304,3.835035021727703e-16,1.3310181095607172e-18,0.00029128236553051126,6.241350311441518,9142.00276810475,9.728889893241626e-12,1.9213362662058155e-23,9.786078288034119,3.388131788094762e-21,7.906131037625035e-26,-4.666954572888835e-05,0.0,0.0,1.1726615295546747e-20,-6.2413503114415185,303.2384873074366,0.45915162485850436,30157.59698941867,228.8123186780092,0.0,0.0,0.0,0.0,0.0,0.0,0.020582316443324,8.943000130384581,6.241344980007171,6.241350311441518
0.6499999761581421,6387278.9326920295,302.7490866691741,1.2658610414944713e-16,6387278.939866997,6.509971168779884e-05,1.2658610414944715e-16,-6.360948270351116,465.7677251440541,3.894957469513415e-16,1.3518152766866102e-18,0.0003004560108442277,6.338871451669099,9141.939866997762,1.019208841522027e-11,1.9818471267842124e-23,9.786078481089826,3.3881317880657107e-21,8.029664349263104e-26,-4.73987576920882e-05,0.0,0.0,1.1726615295546747e-20,-6.3388714516691,303.23875745317036,0.45915510656048786,30157.879404896055,228.81272636174222,0.0,0.0,0.0,0.0,0.0,0.0,0.0209038965404033,9.224722896863847,6.338865895664215,6.338871451669099
0.6600000262260437,6387278.868593245,307.4067638973081,1.3051102284334026e-16,6387278.875990676,6.81507367777158e-05,1.3051102284334026e-16,-6.458809056027636,465.7677204698938,3.954879918488488e-16,1.3726124442389324e-18,0.0003097718834021112,6.436392593832088,9141.875990675497,1.0669760644691676e-11,2.0432961418660122e-23,9.786078677138661,-5.932230268198846e-37,2.4651903281018966e-32,-4.812796966976031e-05,0.0,0.0,1.1726615295546747e-20,-6.436392593832088,303.23903178698777,0.4591586422633261,30158.166201124623,228.8131403661895,0.0,0.0,0.0,0.0,0.0,0.0,0.0212254747748374,9.510817102960543,6.436386811321258,6.436392593832088
0.6700000166893005,6387278.803515849,312.0644410783437,1.3449586398681064e-16,6387278.811139146,7.129563165144645e-05,1.344958639868107e-16,-6.556669843676177,465.7677157243721,4.0148023686712177e-16,1.393409612223935e-18,0.0003192299830712741,6.533913737960266,9141.811139145908,1.1162129250896307e-11,2.1056833115262727e-23,9.786078876180602,-6.022112585734604e-37,2.4651903280801042e-32,-4.885718166212809e-05,0.0,0.0,1.1726615295546747e-20,-6.533913737960268,303.2393103088435,0.4591622319675364,30158.45737817013,228.81356069129984,0.0,0.0,0.0,0.0,0.0,0.0,0.0215470530092716,9.801283462146129,6.533908217590332,6.533913737960266
0.6800000071525574,6387278.737459848,316.72211821156725,1.385406275810751e-16,6387278.745312401,7.453581855534139e-05,1.385406275810751e-16,-6.654530633326615,465.7677109074891,4.074724820079903e-16,1.41420678064823e-18,0.00032883031013468113,6.631434884083406,9141.745312401044,1.1669416903097106e-11,2.169008635841195e-23,9.786079078215675,6.776263575951708e-21,1.680053106325707e-25,-4.9586393669416695e-05,0.0,0.0,1.1726615295546747e-20,-6.631434884083404,303.2395930187605,0.45916587567453127,30158.752936171237,228.81398733712518,0.0,0.0,0.0,0.0,0.0,0.0,0.0218686312437057,10.096122687892064,6.631429133247375,6.631434884083406
0.6899999976158142,6387278.670425235,321.379795296265,1.4264531362736873e-16,6387278.678510444,7.787271994366166e-05,1.4264531362736868e-16,-6.752391425008832,465.76770601924477,4.1346472727328414e-16,1.4350039495185505e-18,0.0003385728643902804,6.728956032231279,9141.678510444313,1.2191846303130471e-11,2.2332721148881283e-23,9.786079283243872,6.7762635758900016e-21,1.7047597706592662e-25,-5.031560569184603e-05,0.0,0.0,1.1726615295546747e-20,-6.728956032231279,303.2398799167127,0.45916957338510817,30159.052875217185,228.81442030364377,0.0,0.0,0.0,0.0,0.0,0.0,0.0221902076154947,10.395334780198338,6.728950048904419,6.728956032231279
0.699999988079071,6387278.602412016,326.0374723317237,1.4680992212694487e-16,6387278.61073328,8.13077578548473e-05,1.4680992212694487e-16,-6.850252218752706,465.767701059639,4.1945697266483305e-16,1.4558011188412079e-18,0.00034845764570545345,6.826477182433671,9141.610733280259,1.2729640087754509e-11,2.298473748745565e-23,9.786079491265172,-6.2917595494802884e-37,2.4651903280127578e-32,-5.10448177296395e-05,0.0,0.0,1.1726615295546747e-20,-6.826477182433671,303.24017100266894,0.4591733251000172,30159.357195393648,228.81485959082673,0.0,0.0,0.0,0.0,0.0,0.0,0.0225117839872837,10.698919739064966,6.826471455173492,6.826477182433671
0.7099999785423279,6387278.533420193,330.6951493172295,1.5103445308107536e-16,6387278.541980904,8.484235467385589e-05,1.5103445308107538e-16,-6.948113014588116,465.76769602867193,4.254492181844669e-16,1.4765982886229941e-18,0.00035848465436342044,6.923998334720352,9141.541980903197,1.3283020948001978e-11,2.364613537493148e-23,9.786079702279599,3.388131787881943e-21,8.770869202260217e-26,-5.17740297830205e-05,0.0,0.0,1.1726615295546747e-20,-6.923998334720351,303.2404662766418,0.45917713082058786,30159.66589683372,228.81530519871112,0.0,0.0,0.0,0.0,0.0,0.0,0.0228333584964275,11.006878277963393,6.923992370830536,6.923998334720352
0.7200000286102295,6387278.463449757,335.35282625206884,1.5531890649105003e-16,6387278.472253313,8.847793278564498e-05,1.5531890649105003e-16,-7.0459738125449425,465.76769092634345,4.314414638340154e-16,1.4973954588700413e-18,0.0003686538904396193,7.021519489121094,9141.472253313133,1.3852211574929437e-11,2.43169148121166e-23,9.78607991628715,6.776263575699478e-21,1.7788800133311799e-25,-5.250324185221069e-05,0.0,0.0,1.1726615295546747e-20,-7.021519489121093,303.2407657386193,0.45918099054785155,30159.978979646625,228.8157571272974,0.0,0.0,0.0,0.0,0.0,0.0,0.0231549330055713,11.31920968342217,7.021513286487579,7.021519489121094
0.7300000190734863,6387278.392500716,340.01050313552804,1.5966328235817732e-16,6387278.401550514,9.221591422865458e-05,1.5966328235817734e-16,-7.1438346126530625,465.7676857526535,4.374337096153084e-16,1.5181926295895023e-18,0.0003789653536630219,7.11904064566568,9141.401550513472,1.4437434605366371e-11,2.4997075799830343e-23,9.786080133287818,-1.9684219591529246e-36,7.395570983827388e-32,-5.323245393743349e-05,0.0,0.0,1.1726615295546747e-20,-7.11904064566568,303.24106938857466,0.4591849042826641,30160.296443927757,228.81621537656386,0.0,0.0,0.0,0.0,0.0,0.0,0.02347650565207,11.635915382384205,7.119034692756653,7.11904064566568
0.7400000095367432,6387278.320573064,344.6681799668935,1.6406758068378373e-16,6387278.329872499,9.605772138784233e-05,1.6406758068378376e-16,-7.241695414942354,465.7676805076023,4.434259555301757e-16,1.5389898007877491e-18,0.0003894190441092492,7.216561804383876,9141.329872500812,1.503891273041796e-11,2.5686618338903478e-23,9.786080353281614,-6.651288861488438e-37,2.465190327918376e-32,-5.3961666038912276e-05,0.0,0.0,1.1726615295546747e-20,-7.216561804383876,303.2413772265104,0.4591888720262742,30160.61828980472,228.81667994653313,0.0,0.0,0.0,0.0,0.0,0.0,0.0237980782985687,11.956994661378042,7.216555608413697,7.216561804383876
0.75,6387278.247666806,349.32585674545174,1.6853180146921416e-16,6387278.257219278,0.00010000477644025523,1.685318014692142e-16,-7.339556219442701,465.76767519118954,4.494182015804471e-16,1.5597869724709732e-18,0.0004000149617847019,7.314082965305467,9141.25721927855,1.5656868608663466e-11,2.6385542430178242e-23,9.786080576268521,-1.3482342388994552e-36,4.930380655787921e-32,-5.4690878156866966e-05,0.0,0.0,1.1726615295546747e-20,-7.3140829653054675,303.2416892523991,0.4591928937795673,30160.944517376003,228.81715083718333,0.0,0.0,0.0,0.0,0.0,0.0,0.0241196490824222,12.28244823387514,7.31407652407074,7.314082965305467
0.7599999904632568,6387278.173781942,353.983533470489,1.7305594471583185e-16,6387278.183590841,0.00010405850197876135,1.7305594471583188e-16,-7.43741702618398,465.76766980341534,4.554104477679521e-16,1.5805841446462072e-18,0.000410753106903746,7.411604128460225,9141.183590841018,1.6291524963808775e-11,2.7093848074508355e-23,9.786080802248566,-1.3662107059127424e-36,4.930380655738436e-32,-5.542009029152446e-05,0.0,0.0,1.1726615295546747e-20,-7.411604128460224,303.24200546625275,0.4591969695439468,30161.275126782508,228.81762804855197,0.0,0.0,0.0,0.0,0.0,0.0,0.0244412180036306,12.612276099875496,7.411597930339814,7.411604128460225
0.7699999809265137,6387278.098918466,358.64121014129177,1.776400104250183e-16,6387278.108987194,0.00010822032011110424,1.7764001042501832e-16,-7.5352778351960685,465.76766434427986,4.61402694094521e-16,1.6013813173195829e-18,0.0004216334792649999,7.509125293877925,9141.108987193886,1.6943104443633555e-11,2.781153527275893e-23,9.786081031221725,-1.3841871733430354e-36,4.930380655688296e-32,-5.6149302443102925e-05,0.0,0.0,1.1726615295546747e-20,-7.509125293877926,303.242325868034,0.45920109932020176,30161.61011811563,228.81811158060245,0.0,0.0,0.0,0.0,0.0,0.0,0.024762786924839,12.94647754590766,7.5091188459968565,7.509125293877925
0.7799999713897705,6387278.023076383,363.29888675714625,1.822839985981732e-16,6387278.0334083345,0.00011249165273711699,1.822839985981732e-16,-7.633138646508845,465.76765881378304,4.673949405619832e-16,1.622178490498073e-18,0.0004326560788751693,7.606646461588342,9141.033408334888,1.7611829663392612e-11,2.85386040258066e-23,9.78608126318801,-1.4021636411958194e-36,4.9303806556375e-32,-5.687851461182925e-05,0.0,0.0,1.1726615295546747e-20,-7.606646461588342,303.2426504577397,0.45920528310957626,30161.94949150406,228.81860143335007,0.0,0.0,0.0,0.0,0.0,0.0,0.0250843558460474,13.28505399891454,7.6066397616539,7.606646461588342
0.7900000214576721,6387277.946255694,367.95656331733903,1.8698790923671477e-16,6387277.956854265,0.00011687392251897109,1.869879092367148e-16,-7.730999460152194,465.76765321192465,4.733871871721686e-16,1.6429756641881692e-18,0.00044382090581024093,7.704167631621254,9140.956854265156,1.8297923357719585e-11,2.927505433453945e-23,9.786081498147414,-1.4201401094765833e-36,4.9303806555860493e-32,-5.7607726797923344e-05,0.0,0.0,1.1726615295546747e-20,-7.704167631621254,303.2429792353519,0.45920952091314027,30162.29324706273,228.81909760678784,0.0,0.0,0.0,0.0,0.0,0.0,0.0254059229046106,13.62800688583905,7.704161167922974,7.704167631621254
0.800000011920929,6387277.868456395,372.61423982115645,1.9175174234207923e-16,6387277.879324982,0.00012136855163371365,1.9175174234207923e-16,-7.828860276155994,465.76764753870475,4.793794339269071e-16,1.663772838395944e-18,0.0004551279601463537,7.801688804006434,9140.879324982423,1.9001608185322927e-11,3.0020886199857e-23,9.786081736099947,-1.4381165781908128e-36,4.93038065553394e-32,-5.833693900160687e-05,0.0,0.0,1.1726615295546747e-20,-7.801688804006436,303.2433122008669,0.4592138127321674,30162.64138492343,228.81960010093107,0.0,0.0,0.0,0.0,0.0,0.0,0.0257274881005287,13.975333352795362,7.801682083580017,7.801688804006434
0.8100000023841858,6387277.789678488,377.27191626788476,1.9657549791572137e-16,6387277.8008204885,0.00012597696225839173,1.9657549791572137e-16,-7.926721094550119,465.7676417941236,4.853716808280283e-16,1.6845700131284286e-18,0.0004665772416824921,7.899209978773662,9140.800820488957,1.9723106804937953e-11,3.077609962267023e-23,9.7860819770456,-1.4560930473439956e-36,4.93038065548118e-32,-5.906615122310671e-05,0.0,0.0,1.1726615295546747e-20,-7.899209978773661,303.2436493542616,0.45921815856769327,30162.993905199055,228.82010891576536,0.0,0.0,0.0,0.0,0.0,0.0,0.0260490532964468,14.32703625366931,7.899202999237061,7.899209978773662
0.8199999928474426,6387277.709921973,381.9295926568105,2.0145917595911415e-16,6387277.721340785,0.00013070057691656986,2.0145917595911417e-16,-8.024581915364452,465.7676359781809,4.913639278773622e-16,1.7053671883922966e-18,0.0004781687507721936,7.99673115595271,9140.721340783624,2.0462641929578395e-11,3.154069460390161e-23,9.78608222098438,-1.4740695169416193e-36,4.9303806554277617e-32,-5.979536346264104e-05,0.0,0.0,1.1726615295546747e-20,-7.99673115595271,303.2439906955271,0.459222558420958,30163.350808019404,228.82062405129855,0.0,0.0,0.0,0.0,0.0,0.0,0.0263706166297197,14.683115588460883,7.996724405506135,7.99673115595271
0.8299999833106995,6387277.629186848,386.58726898721994,2.064027764737488e-16,6387277.640885865,0.00013554081757738458,2.0640277647374886e-16,-8.12244273862887,465.7676300908767,4.973561750767384e-16,1.726164364193739e-18,0.0004899024870066605,8.094252335573355,9140.640885866422,2.122043618548357e-11,3.231467114448502e-23,9.786082467916284,-1.4920459869891682e-36,4.930380655373686e-32,-6.052457572043501e-05,0.0,0.0,1.1726615295546747e-20,-8.094252335573355,303.2443362246496,0.45922701229315255,30163.71209351067,228.82114550753118,0.0,0.0,0.0,0.0,0.0,0.0,0.0266921799629926,15.04356993022718,8.094245321163179,8.094252335573355
0.8399999737739563,6387277.547473118,391.2449452583996,2.1140629946113498e-16,6387277.5594557375,0.00014049910669509702,2.1140629946113503e-16,-8.220303564373253,465.7676241322111,5.033484224279869e-16,1.7469615405394282e-18,0.0005017784507396437,8.191773517665371,9140.559455737353,2.19967122748724e-11,3.309802924536585e-23,9.786082717841314,-1.5100224574921333e-36,4.93038065531896e-32,-6.125378799671201e-05,0.0,0.0,1.1726615295546747e-20,-8.191773517665371,303.2446859416151,0.4592315201854832,30164.07776180067,228.8216732844637,0.0,0.0,0.0,0.0,0.0,0.0,0.0270137414336204,15.408400705911104,8.191766236820222,8.191773517665371
0.8500000238418579,6387277.464780779,395.9026214696358,2.1646974492280046e-16,6387277.477050396,0.00014557686644675415,2.1646974492280046e-16,-8.318164392627482,465.76761810218403,5.093406699329372e-16,1.767758717435916e-18,0.0005137966417011512,8.289294702258536,9140.47705039528,2.2791692856591013e-11,3.389076890750092e-23,9.786082970759475,-1.5279989284559976e-36,4.930380655263575e-32,-6.198300029169197e-05,0.0,0.0,1.1726615295546747e-20,-8.289294702258534,303.2450398464142,0.4592360820992333,30164.447813023806,228.822207382104,0.0,0.0,0.0,0.0,0.0,0.0,0.027335301041603,15.777607915512661,8.289287643089295,8.289294702258536
0.8600000143051147,6387277.381109832,400.56029762021495,2.2159311286029146e-16,6387277.393669844,0.00015077551907870658,2.2159311286029156e-16,-8.416025223421437,465.7676120007954,5.153329175934194e-16,1.7885558948898154e-18,0.0005259570601064328,8.386815889382627,9140.393669843612,2.3605600600364357e-11,3.4692890131858526e-23,9.786083226670755,-1.54597539988625e-36,4.9303806552075356e-32,-6.271221260560001e-05,0.0,0.0,1.1726615295546747e-20,-8.386815889382625,303.2453979390182,0.4592406980354493,30164.82224729565,228.8227478004304,0.0,0.0,0.0,0.0,0.0,0.0,0.0276568606495857,16.151192985974763,8.386808558746338,8.386815889382627
0.8700000047683716,6387277.296460276,405.2179737094234,2.267764032751725e-16,6387277.309314079,0.00015609648697591184,2.2677640327517256e-16,-8.513886056784992,465.76760582804536,5.21325165411263e-16,1.8093530729076176e-18,0.0005382597058936142,8.484337079067412,9140.309314078939,2.443865819764679e-11,3.550439291941839e-23,9.786083485575162,-1.5639518717883767e-36,4.9303806551508405e-32,-6.34414249386578e-05,0.0,0.0,1.1726615295546747e-20,-8.484337079067412,303.24576021942704,0.45924536799556964,30165.20106476393,228.8232945394655,0.0,0.0,0.0,0.0,0.0,0.0,0.0279784202575683,16.529154490354497,8.484329474403381,8.484337079067412
0.8799999952316284,6387277.21083211,409.8756497365476,2.3201961616902623e-16,6387277.2239831,0.00016154119252332748,2.320196161690262e-16,-8.611746892748034,465.7675995839338,5.27317413388298e-16,1.8301502514958156e-18,0.0005507045790701935,8.581858271342671,9140.223983100128,2.5291088339921865e-11,3.6325277271171733e-23,9.78608374747271,-1.5819283441678665e-36,4.930380655093491e-32,-6.417063729108701e-05,0.0,0.0,1.1726615295546747e-20,-8.581858271342673,303.2461266876309,0.4592500919809223,30165.58426556776,228.82384759921723,0.0,0.0,0.0,0.0,0.0,0.0,0.0282999761402606,16.911492428651865,8.581850390060424,8.581858271342671
0.8899999856948853,6387277.124225337,414.5333257008738,2.3732275154345377e-16,6387277.137676911,0.00016711105796730409,2.3732275154345377e-16,-8.709607731340434,465.76759326846076,5.333096615263543e-16,1.8509474306611408e-18,0.0005632916796437906,8.679379466238188,9140.137676911721,2.616311369700224e-11,3.715554318812122e-23,9.78608401236337,-1.5999048170302036e-36,4.930380655035486e-32,-6.489984966311278e-05,0.0,0.0,1.1726615295546747e-20,-8.679379466238187,303.2464973435955,0.45925486999253395,30165.97184982221,228.8244069796566,0.0,0.0,0.0,0.0,0.0,0.0,0.028621532022953,17.298208227809777,8.679372286941529,8.679379466238188
0.8999999761581421,6387277.036639955,419.19100160168836,2.426858094000745e-16,6387277.05039551,0.0001728075054155852,2.4268580940007446e-16,-8.807468572592075,465.7675868816263,5.393019098272613e-16,1.871744610410146e-18,0.0005760210076913981,8.776900663783728,9140.050395510312,2.7054956917030028e-11,3.7995190671280955e-23,9.786084280247168,-3.235762580761752e-36,9.860761309953647e-32,-6.562906205495676e-05,0.0,0.0,1.1726615295546747e-20,-8.776900663783728,303.24687218732043,0.4592597020318878,30166.363817679718,228.82497268080624,0.0,0.0,0.0,0.0,0.0,0.0,0.0289430879056453,17.68930331477115,8.776893202598572,8.776900663783728
0.9100000262260436,6387276.948075964,423.84867743827783,2.48108789740526e-16,6387276.9621389,0.00017863195704521787,2.4810878974052607e-16,-8.905329416532837,465.76758042343016,5.452941582928493e-16,1.8925417907493825e-18,0.0005888925632207883,8.874421864009072,9139.962138899304,2.7966840659027822e-11,3.8844219721676544e-23,9.786084551124084,-6.543431056901483e-36,1.9721522619670031e-31,-6.635827446684062e-05,0.0,0.0,1.1726615295546747e-20,-8.874421864009072,303.247251218776,0.4592645881001033,30166.760169263594,228.82554470264455,0.0,0.0,0.0,0.0,0.0,0.0,0.0292646400630474,18.08477483565015,8.874414118255615,8.874421864009072
0.9200000166893004,6387276.858533366,428.50635320992853,2.535916925664643e-16,6387276.872907074,0.00018458583524115968,2.535916925664644e-16,-9.003190263192597,465.76757389387257,5.512864069249478e-16,1.9133389716854035e-18,0.0006019063461705134,8.971943066943993,9139.872907074156,2.889898761459955e-11,3.970263034034501e-23,9.78608482499414,-6.6153369542767e-36,1.9721522619430136e-31,-6.708748689898599e-05,0.0,0.0,1.1726615295546747e-20,-8.971943066943995,303.2476344379661,0.45926952819875483,30167.1609047344,228.82612304520146,0.0,0.0,0.0,0.0,0.0,0.0,0.0295861940830945,18.484625644332613,8.97193503391266,8.971943066943993
0.9300000071525574,6387276.768012159,433.16402891592685,2.591345178795637e-16,6387276.782700037,0.00019067056211115416,2.591345178795637e-16,-9.101051112601239,465.7675672929534,5.572786557253864e-16,1.9341361532245802e-18,0.0006150623563405944,9.069464272618266,9139.782700037144,2.985162043197909e-11,4.057042252833485e-23,9.78608510185732,-6.7762635741388084e-21,-2.2977191485541678e-25,-6.781669935161979e-05,0.0,0.0,1.1726615295546747e-20,-9.069464272618266,303.2480218448656,0.4592745223290542,30167.566024223677,228.8267077084629,0.0,0.0,0.0,0.0,0.0,0.0,0.0299077443778514,18.888854313875623,9.069456930793763,9.069464272618266
