time,gePosition_m_X,gePosition_m_Y,gePosition_m_Z,feVelocity_m_s_X,feVelocity_m_s_Y,feVelocity_m_s_Z,altitudeMsl_m,longitude_rad,latitude_rad,localGravity_m_s2,eulerAngle_rad_Yaw,eulerAngle_rad_Pitch,eulerAngle_rad_Roll,bodyAngularRateWrtEi_rad_s_Roll,bodyAngularRateWrtEi_rad_s_Pitch,bodyAngularRateWrtEi_rad_s_Yaw,altitudeRateWrtMsl_m_s,speedOfSound_m_s,airDensity_kg_m3,ambientPressure_Pa,ambientTemperature_K,aero_bodyForce_N_X,aero_bodyForce_N_Y,aero_bodyForce_N_Z,aero_bodyMoment_Nm_L,aero_bodyMoment_Nm_M,aero_bodyMoment_Nm_N,mach,dynamicPressure_Pa,trueAirspeed_m_s
0.0,6387280.999951441,0.0,0.0,0.0,0.0,0.0,9144.0,0.0,0.0,9.78607229664024,0.0,-0.0,0.0,0.0,0.0,0.0,0.0,303.2314967110032,0.45935725912772696,30180.52669774471,228.79957777777778,0.0,0.0,-0.0,0.0,0.0,0.0,0.0,0.0,0.0
0.1,6387280.95136632,2.370449814058632e-07,0.0,0.0,7.087644931575361e-06,0.975210801168096,9143.95140198696,3.711203299353818e-14,0.0,9.786072436817761,0.0,0.0,-7.2921151837995234e-06,0.0,0.0,0.0,-0.975210801168096,303.231706656024,0.4593598618995028,30180.73568047168,228.79989272000003,0.0,0.0,-0.0,0.0,0.0,0.0,0.0032160581489,0.21843390749840808,0.9752099570075593
0.2,6387280.80506232,1.896359851965624e-06,0.0,0.0,2.8421693845662963e-05,1.95042163124952,9143.80512035928,2.968962708608564e-13,0.0,9.7860728758212,0.0,0.0,-1.4584230590279045e-05,0.0,0.0,0.0,-1.9504216312495202,303.2323385972544,0.459367696329075,30181.364725520645,228.80084070611113,0.0,0.0,-0.0,0.0,0.0,0.0,0.00643210298902,0.8737505576880493,1.95041994307606
0.3,6387280.561283281,6.40021452086616e-06,0.0,0.0,6.39784439070168e-05,2.925632520007992,9143.561317666801,1.002024955607615e-12,0.0,9.78607361410776,0.0,0.0,-2.1876346442067456e-05,0.0,0.0,0.0,-2.925632520007992,303.23339183274004,0.4593807537122107,30182.413133983475,228.8024206827778,0.0,0.0,-0.0,0.0,0.0,0.0,0.00964812121458,1.965994734801301,2.925629988140999
0.4,6387280.219937759,1.517087894101608e-05,0.0,0.0,0.00011375789774907841,3.90084349722552,9143.21999387904,2.3751704040945506e-12,0.0,9.786074651738401,0.0,0.0,-2.9168462961957063e-05,0.0,0.0,0.0,-3.90084349722552,303.23486636217604,0.4593990340494253,30183.880905860162,228.80463265111112,0.0,0.0,-0.0,0.0,0.0,0.0,0.0128640995202,3.495241080045168,3.900840122122439
0.5,6387279.7811172,2.96306231271036e-05,0.0,0.0,0.00017776005911457842,4.87605459267192,9142.781148965521,4.6390050448010935e-12,0.0,9.78607598865216,0.0,0.0,-3.6460580372446296e-05,0.0,0.0,0.0,-4.87605459267192,303.236762186172,0.45942253734123417,30185.768041198582,228.80747660944445,0.0,0.0,-0.0,0.0,0.0,0.0,0.0160800246011,5.461594091596495,4.8760503749558755
0.6,6387279.244730161,5.1201717179292e-05,0.0,0.0,0.00025598493285440885,5.851265836098721,9142.24478295672,8.016201455643509e-12,0.0,9.78607762487952,0.0,0.0,-4.375269889633691e-05,0.0,0.0,0.0,-5.851265836098721,303.2390793044232,0.45945126358763727,30188.07454004663,228.81095255944444,0.0,0.0,-0.0,0.0,0.0,0.0,0.0192958831531,7.865188124655594,5.8512607765819515
0.7,6387278.6108376,8.13064313063448e-05,0.0,0.0,0.00034843252499690405,6.82647725734584,9141.61089579168,1.2729432401482023e-11,0.0,9.78607956042048,0.0,0.0,-5.1044818756226454e-05,0.0,0.0,0.0,-6.826477257345839,303.2418177172344,0.4594852127906962,30190.80040250005,228.81506050055557,0.0,0.0,-0.0,0.0,0.0,0.0,0.0225116618731,10.70618739152285,6.826471356879572
0.8,6387277.879439521,0.0001213670358462912,0.0,0.0,0.000455102842683528,7.80168888613128,9140.8794874704,1.9001370871504034e-11,0.0,9.78608179530552,0.0,0.0,-5.833694017491493e-05,0.0,0.0,0.0,-7.801688886131281,303.2449774243008,0.459524384950411,30193.945628606736,228.81980043222222,0.0,0.0,-0.0,0.0,0.0,0.0,0.025727347459,13.984785961660966,7.801682145887124
0.9,6387277.050505441,0.0001728058012857504,0.0,0.0,0.000575995893811344,8.776900752234,9140.050557992881,2.7054690115806206e-11,0.0,9.786084329473681,0.0,0.0,-6.562906337490564e-05,0.0,0.0,0.0,-8.776900752234,303.248558426232,0.45956878006832763,30197.510218510324,228.82517235611112,0.0,0.0,-0.0,0.0,0.0,0.0,0.0289429266101,17.701207761704545,8.776893173442359
1.0,6387276.12406584,0.0002370449982862968,0.0,0.0,0.00071111168787792,9.75211288546344,9139.12410732864,3.7112063684454944e-11,0.0,9.786087162955441,0.0,0.0,-7.29211885789951e-05,0.0,0.0,0.0,-9.75211288546344,303.2525607224184,0.4596183981454769,30201.494172306568,228.83117627111113,0.0,0.0,-0.0,0.0,0.0,0.0,0.032158386027,21.85570657555584,9.752104469485916
1.1,6387275.10009024,0.000315506897704272,0.0,0.0,0.0008604502349294641,10.72732531556808,9138.10013541672,4.9396165463352905e-11,0.0,9.786090295750801,0.0,0.0,-8.021331600978434e-05,0.0,0.0,0.0,-10.72732531556808,303.2569843137744,0.45967323918443576,30205.897490091236,228.8378121777778,0.0,0.0,-0.0,0.0,0.0,0.0,0.0353737124121,26.448566044576275,10.727316063958437
1.2,6387273.9786091205,0.00040961377060572,0.0,0.0,0.0010240115464721761,11.702538072326881,9136.978642257121,6.412966971190321e-11,0.0,9.786093727859761,0.0,0.0,-8.750544588997389e-05,0.0,0.0,0.0,-11.70253807232688,303.26182919999525,0.4597333031857196,30210.72017200797,228.84508007666668,0.0,0.0,-0.0,0.0,0.0,0.0,0.0385888924696,31.480099667682225,11.702527986852012
1.3,6387272.759592,0.000520787888304792,0.0,0.0,0.001201795635048576,12.677751185518801,9135.75962778888,8.153525110105763e-11,0.0,9.78609745928232,0.0,0.0,-9.479757844226253e-05,0.0,0.0,0.0,-12.677751185518801,303.2670953810808,0.4597985901513899,30215.962218248285,228.85297996777777,0.0,0.0,-0.0,0.0,0.0,0.0,0.0418039129057,36.950650801297115,12.677740268004383
1.4,6387271.443038881,0.000650451522359784,0.0,0.0,0.0013938025139662322,13.652964684922802,9134.443092012001,1.0183558474996844e-10,0.0,9.78610149001848,0.0,0.0,-0.00010208971388885162,0.0,0.0,0.0,-13.652964684922802,303.27278285764083,0.4598691000840236,30221.62362886006,228.86151185111112,0.0,0.0,-0.0,0.0,0.0,0.0,0.0450187604289,42.86059265968658,13.652952937407644
1.5,6387270.028980241,0.000800026944624648,0.0,0.0,0.001600032198126816,14.628178600317842,9133.02903483504,1.2525334626438575e-10,0.0,9.786105820068242,0.0,0.0,-0.0001093818524538414,0.0,0.0,0.0,-14.62817860031784,303.27889162967523,0.45994483298516675,30227.70440413059,228.87067572722222,0.0,0.0,-0.0,0.0,0.0,0.0,0.0482334217499,49.210328314910605,14.628166024950987
1.6,6387268.51741608,0.00097093642725204,0.0,0.0,0.001820484703258008,15.603392961482882,9131.517456258001,1.5201121177313486e-10,0.0,9.7861104494316,0.0,0.0,-0.00011667399435783107,0.0,0.0,0.0,-15.603392961482882,303.285421697184,0.4600257888573963,30234.204544203494,228.8804715961111,0.0,0.0,-0.0,0.0,0.0,0.0,0.0514478835823,56.00029069711079,15.6033795606265
1.7,6387266.90831592,0.0011646022427146561,0.0,0.0,0.002055160045995792,16.578607798166402,9129.908356219921,1.823318579654663e-10,0.0,9.78611537813904,0.0,0.0,-0.00012396613982582145,0.0,0.0,0.0,-16.578607798166402,303.292373060472,0.46011196770328916,30241.12404927032,228.89089945833334,0.0,0.0,-0.0,0.0,0.0,0.0,0.0546621326421,63.2309425951328,16.578593574323374
1.8,6387265.201679761,0.001382446663835712,0.0,0.0,0.002304058244430048,17.55382314017784,9128.201734690321,2.164379621289294e-10,0.0,9.7861206061296,0.0,0.0,-0.0001312582890788114,0.0,0.0,0.0,-17.55382314017784,303.299745719844,0.4602033695254222,30248.46291957044,228.90195931388888,0.0,0.0,-0.0,0.0,0.0,0.0,0.0578761556484,70.90277665566451,17.553808095930812
1.9,6387263.39753808,0.001625891963798088,0.0,0.0,0.0025671793173364563,18.52903901729616,9126.397591577761,2.5455220218742055e-10,0.0,9.78612613346424,0.0,0.0,-0.0001385504423397999,0.0,0.0,0.0,-18.529039017296164,303.3075396756048,0.46029999432585694,30256.22115524752,228.91365116333333,0.0,0.0,-0.0,0.0,0.0,0.0,0.0610899393235,79.01631538352329,18.529023155492343
2.0,6387261.49589088,0.001896360416187,0.0,0.0,0.0028445232848165764,19.50425545923936,9124.49592688224,2.968972567362644e-10,0.0,9.786131960112481,0.0,0.0,-0.0001458425998307893,0.0,0.0,0.0,-19.50425545923936,303.31575492744963,0.4604018421087163,30264.398756636703,228.9259750072222,0.0,0.0,-0.0,0.0,0.0,0.0,0.0643034703929,87.57211114357128,19.504238782845714
2.1,6387259.496707681,0.0021952742949900004,0.0,0.0,0.00313609016835576,20.47947249587784,9122.49674048184,3.436958050828798e-10,0.0,9.78613808607432,0.0,0.0,-0.00015313476177677873,0.0,0.0,0.0,-20.47947249587784,303.3243914762928,0.460508912876062,30272.99572392953,228.93893084555557,0.0,0.0,-0.0,0.0,0.0,0.0,0.0675167355856,96.57074615832121,20.479455007983017
2.2,6387257.39998848,0.002524055874624408,0.0,0.0,0.0034418799898660803,21.45469015689912,9120.40003234608,3.951705272799413e-10,0.0,9.78614451138024,0.0,0.0,-0.00016042692839776868,0.0,0.0,0.0,-21.454690156899122,303.3334493221344,0.460621206632017,30282.01205741326,228.95251867944447,0.0,0.0,-0.0,0.0,0.0,0.0,0.0707297216345,106.0128325108094,21.454671860741996
2.3,6387255.20576376,0.0028841274299769362,0.0,0.0,0.00376189277281104,22.429908472143122,9118.205802414,4.515441041672669e-10,0.0,9.786151235969282,0.0,0.0,-0.00016771909991775827,0.0,0.0,0.0,-22.429908472143122,303.3429284652792,0.4607387233796735,30291.44775737519,228.96673850833335,0.0,0.0,-0.0,0.0,0.0,0.0,0.0739424152759,115.8990121426805,22.429889371166183
2.4,6387252.914003041,0.00327691123640064,0.0,0.0,0.00409612854145272,23.40512747132784,9115.91405062464,5.130392174102153e-10,0.0,9.786158259932881,0.0,0.0,-0.0001750112765597481,0.0,0.0,0.0,-23.405127471327837,303.352828906032,0.4608614631221238,30301.302824054714,228.98159033277778,0.0,0.0,-0.0,0.0,0.0,0.0,0.0771548032506,126.22995685562375,23.40510756914478
2.5,6387250.524736799,0.0037038295697301602,0.0,0.0,0.004444587321455281,24.3803471842932,9113.52477691704,5.798785495258659e-10,0.0,9.7861655831796,0.0,0.0,-0.00018230345854573717,0.0,0.0,0.0,-24.3803471842932,303.3631506446976,0.4609894258640064,30311.577257739125,228.9970741538889,0.0,0.0,-0.0,0.0,0.0,0.0,0.0803668723034,137.00636831089443,24.380326484618422
2.6,6387248.03793456,0.00416630470635792,0.0,0.0,0.0048072691393668005,25.35556764078768,9111.03798116928,6.522847839353788e-10,0.0,9.786173205770401,0.0,0.0,-0.00018959564609872615,0.0,0.0,0.0,-25.355567640787683,303.373893681276,0.4611226116084134,30322.27105885933,229.01318997222222,0.0,0.0,-0.0,0.0,0.0,0.0,0.0835786091836,148.22897803075006,25.355546147476304
2.7,6387245.4536268,0.0046657589231853605,0.0,0.0,0.005184174022924081,26.330788870559765,9108.453663350881,7.304806049936649e-10,0.0,9.786181127674801,0.0,0.0,-0.0001968878394417158,0.0,0.0,0.0,-26.33078887055976,303.38505801637683,0.46126102035998334,30333.384227606857,229.02993778722222,0.0,0.0,-0.0,0.0,0.0,0.0,0.0867900006449,159.89854739653526,26.330766587710517
2.8,6387242.771783041,0.00520361449772352,0.0,0.0,0.00557530200074784,27.306010903418883,9105.771823370402,8.146886980260383e-10,0.0,9.78618934892328,0.0,0.0,-0.0002041800387957066,0.0,0.0,0.0,-27.306010903418883,303.39664365060963,0.46140465212232384,30344.916764412625,229.0473176,0.0,0.0,-0.0,0.0,0.0,0.0,0.090001033446,172.01586765251224,27.30598783521026
2.9,6387239.99240328,0.00578129370797112,0.0,0.0,0.00598065310279992,28.281233769174484,9102.9924611364,9.051317493683592e-10,0.0,9.78619786951584,0.0,0.0,-0.00021147224438569602,0.0,0.0,0.0,-28.281233769174484,303.4086505836696,0.4615535069005887,30356.868669563923,229.06532941166668,0.0,0.0,-0.0,0.0,0.0,0.0,0.0932116943505,184.58175990155144,28.28120991991616
3.0,6387237.115518,0.006400218832627921,0.0,0.0,0.0064002273598956,29.25645749751408,9100.11557658792,1.0020324464036847e-09,0.0,9.786206689422,0.0,0.0,-0.0002187644564326846,0.0,0.0,0.0,-29.25645749751408,303.421078816776,0.46170758469890094,30369.239943443783,229.08397322166667,0.0,0.0,-0.0,0.0,0.0,0.0,0.0964219701271,197.59707511039846,29.256432871768872
3.1,6387234.141127201,0.007061812151003281,0.0,0.0,0.006834024804130321,30.231682118308083,9097.14116960304,1.1056134775971765e-09,0.0,9.78621580864176,0.0,0.0,-0.00022605667516067485,0.0,0.0,0.0,-30.231682118308083,303.4339283493192,0.461866885521899,30382.030586483143,229.10324903111112,0.0,0.0,-0.0,0.0,0.0,0.0,0.0996318475498,211.06269410536487,30.231656720760473
3.2,6387231.0692004,0.00776749594301616,0.0,0.0,0.00728204546863584,31.206907661244,9094.069240120802,1.2160975325414784e-09,0.0,9.78622522723608,0.0,0.0,-0.000233348900791664,0.0,0.0,0.0,-31.206907661244,303.44719918251843,0.4620314093747366,30395.240599017146,229.12315684111113,0.0,0.0,-0.0,0.0,0.0,0.0,0.102841313398,224.97952757663722,31.206881496677276
3.3,6387227.8997376,0.00851869248931704,0.0,0.0,0.0077442893876412,32.1821341561008,9090.89978804976,1.3337073019811523e-09,0.0,9.786234945144,0.0,0.0,-0.0002406411335476526,0.0,0.0,0.0,-32.1821341561008,303.4608913163736,0.4622011562620522,30408.869981476724,229.1436966511111,0.0,0.0,-0.0,0.0,0.0,0.0,0.106050354457,239.3485160754045,32.18210722961425
3.4,6387224.63276928,0.009316824071166002,0.0,0.0,0.0082207565961984,33.1573616330232,9087.632813268001,1.458665477861546e-09,0.0,9.786244962396,0.0,0.0,-0.0002479333736526432,0.0,0.0,0.0,-33.15736163302321,303.4750047514944,0.46237612618899954,30422.91873419704,229.1648684627778,0.0,0.0,-0.0,0.0,0.0,0.0,0.109258957518,254.17063001673083,33.15733394940915
3.5,6387221.2682649605,0.010163312970646082,0.0,0.0,0.0087114471309444,34.132590121272,9084.268315684081,1.5911947533637008e-09,0.0,9.786255278992082,0.0,0.0,-0.00025522562132863306,0.0,0.0,0.0,-34.132590121272,303.48953948788085,0.46255631916176326,30437.386857752655,229.1866722761111,0.0,0.0,-0.0,0.0,0.0,0.0,0.112467109379,269.4468696785978,34.13256168600261
3.6,6387217.80625512,0.0110595814704804,0.0,0.0,0.009216361029095281,35.1078196507176,9080.806295206561,1.7315178229340215e-09,0.0,9.78626589490176,0.0,0.0,-0.0002625178767986228,0.0,0.0,0.0,-35.1078196507176,303.504495526752,0.4627417351844663,30452.274352430853,229.2091080922222,0.0,0.0,-0.0,0.0,0.0,0.0,0.115674796841,285.17826520142575,35.10779046938673
3.7,6387214.24670928,0.012007051854215042,0.0,0.0,0.009735498329208241,36.083050251230404,9077.246751713521,1.879857382329655e-09,0.0,9.786276810186001,0.0,0.0,-0.0002698101402846113,0.0,0.0,0.0,-36.083050251230404,303.5198728678032,0.4629323742638086,30467.58121880619,229.2321759116667,0.0,0.0,-0.0,0.0,0.0,0.0,0.118882006716,301.3658765914254,36.083020329399254
3.8,6387210.589627441,0.0130071464061276,0.0,0.0,0.010268859071151121,37.0582819526808,9073.58968511352,2.036436128656888e-09,0.0,9.78628802481432,0.0,0.0,-0.0002771024120106012,0.0,0.0,0.0,-37.0582819526808,303.5356715119488,0.46312823640545936,30483.307457309595,229.255875735,0.0,0.0,-0.0,0.0,0.0,0.0,0.122088725819,318.0107937177248,37.058251296083704
3.9,6387206.835040079,0.014061287411349122,0.0,0.0,0.01081644329546232,38.0335147849392,9069.83509531512,2.2014767604165253e-09,0.0,9.78629953878672,0.0,0.0,-0.0002843946921975912,0.0,0.0,0.0,-38.0335147849392,303.5518914594936,0.4633293216150878,30499.45306837199,229.28020756277778,0.0,0.0,-0.0,0.0,0.0,0.0,0.125294940974,335.11413631476387,38.03348339927785
4.0,6387202.982947201,0.01517089715580312,0.0,0.0,0.011378251043808001,39.008748777266405,9065.98298213544,2.375201977502145e-09,0.0,9.786311352103201,0.0,0.0,-0.00029168698106958043,0.0,0.0,0.0,-39.008748777266405,303.56853271074243,0.4635356298988783,30516.018052520052,229.30517139611112,0.0,0.0,-0.0,0.0,0.0,0.0,0.128500639011,352.67705398229384,39.008716668973754
4.1,6387199.03328784,0.01633739792623608,0.0,0.0,0.011954282359134481,39.9839839601424,9062.03334551352,2.5578344812908527e-09,0.0,9.786323464763761,0.0,0.0,-0.00029897927884856956,0.0,0.0,0.0,-39.98398396014241,303.5855952669144,0.46374716126301546,30533.00241028047,229.33076723611111,0.0,0.0,-0.0,0.0,0.0,0.0,0.131705806766,370.70072618489866,39.983951135112065
4.2,6387194.98615344,0.01756221201030888,0.0,0.0,0.01254453728554632,40.959220362828006,9057.98618529696,2.7495969746432874e-09,0.0,9.78633587679888,0.0,0.0,-0.00030627158575755926,0.0,0.0,0.0,-40.959220362828,303.6030791277048,0.4639639157147147,30550.406142179923,229.35699508222223,0.0,0.0,-0.0,0.0,0.0,0.0,0.134910431085,389.18636225438917,40.959186827581995
4.3,6387190.84145256,0.018846761696566322,0.0,0.0,0.01314901586797104,41.9344580154984,9053.84150139432,2.9507121619385215e-09,0.0,9.7863485881476,0.0,0.0,-0.0003135639020195485,0.0,0.0,0.0,-41.93445801549841,303.620984294028,0.4641858932596451,30568.229248649342,229.3838549366667,0.0,0.0,-0.0,0.0,0.0,0.0,0.13811449882,408.13520138836645,41.93442377637561
4.4,6387186.59924616,0.02019246927440664,0.0,0.0,0.0137677181524944,42.9096969474144,9049.5992936532,3.1614027491787857e-09,0.0,9.78636159890136,0.0,0.0,-0.000320856227857538,0.0,0.0,0.0,-42.9096969474144,303.6393107664936,0.464413093905022,30586.471730359037,229.41134680000002,0.0,0.0,-0.0,0.0,0.0,0.0,0.141317996829,427.54851265165837,42.90966201138212
4.5,6387182.25950376,0.02160075703423392,0.0,0.0,0.01440064418645184,43.8849371887512,9045.25956195168,3.381891443919652e-09,0.0,9.786374908999202,0.0,0.0,-0.00032814856349252836,0.0,0.0,0.0,-43.884937188751195,303.65805854540645,0.46464551765806067,30605.133587835702,229.43947067222223,0.0,0.0,-0.0,0.0,0.0,0.0,0.144520911981,447.42759497679833,43.884901562542154
4.6,6387177.8222558405,0.023073047267366642,0.0,0.0,0.015047794018215122,44.8601787690744,9040.82230616784,3.61240095539221e-09,0.0,9.78638851844112,0.0,0.0,-0.00033544090914851683,0.0,0.0,0.0,-44.8601787690744,303.6772276316808,0.46488316452494566,30624.21482160601,229.46822655444447,0.0,0.0,-0.0,0.0,0.0,0.0,0.147723231152,467.7737771640253,44.860142459796364
4.7,6387173.28747192,0.024610762266068162,0.0,0.0,0.015709167696918002,45.8354217185592,9036.28752614928,3.853153994485611e-09,0.0,9.7864024272576,0.0,0.0,-0.00034273326504850594,0.0,0.0,0.0,-45.8354217185592,303.6968180256216,0.465126034513923,30643.715432244535,229.49761444833334,0.0,0.0,-0.0,0.0,0.0,0.0,0.150924941224,488.588417880805,45.83538473313683
4.8,6387168.65518248,0.02621532432369912,0.0,0.0,0.0163847652734316,46.8106660664664,9031.655221774081,4.104373273816883e-09,0.0,9.78641663544864,0.0,0.0,-0.0003500256314144963,0.0,0.0,0.0,-46.8106660664664,303.71682972783844,0.4653741276316927,30663.635420373714,229.52763435444447,0.0,0.0,-0.0,0.0,0.0,0.0,0.154126029091,509.8729056694907,46.81062841240129
4.9,6387163.92535704,0.027888155734565042,0.0,0.0,0.01707458679877944,47.785911842971196,9026.92539288984,4.366281507800743e-09,0.0,9.78643114301424,0.0,0.0,-0.00035731800846948507,0.0,0.0,0.0,-47.7859118429712,303.7372627392456,0.46562744388650074,30683.974786615992,229.55828627333335,0.0,0.0,-0.0,0.0,0.0,0.0,0.157326481652,531.6286589339168,47.78587352758186
5.0,6387159.097995601,0.029630678793977284,0.0,0.0,0.0177786323260272,48.7611590776392,9022.098039374641,4.639101412597237e-09,0.0,9.78644594992392,0.0,0.0,-0.0003646103964354748,0.0,0.0,0.0,-48.761159077639206,303.75811706014804,0.4658859832850471,30704.73353159381,229.58957020611112,0.0,0.0,-0.0,0.0,0.0,0.0,0.160526285818,553.8571259465809,48.76112010861915
5.1,6387154.17312864,0.031444315798466405,0.0,0.0,0.01849690190872824,49.7364078003408,9017.1731610456,4.923055706216458e-09,0.0,9.78646105623864,0.0,0.0,-0.0003719027955364644,0.0,0.0,0.0,-49.73640780034081,303.7793926911552,0.46614974583660856,30725.911655929613,229.62148615388892,0.0,0.0,-0.0,0.0,0.0,0.0,0.163725428506,576.5597848668383,49.73636818545382
5.2,6387149.15072568,0.033330489045264006,0.0,0.0,0.01922939560174656,50.7116580406416,9012.15075775032,5.218367108536007e-09,0.0,9.78647646189744,0.0,0.0,-0.00037919520599545467,0.0,0.0,0.0,-50.71165804064161,303.8010896331816,0.46641873154788505,30747.509160245845,229.65403411722224,0.0,0.0,-0.0,0.0,0.0,0.0,0.166923896645,599.7381437073856,50.711617787975065
5.3,6387144.03078672,0.035290620833400003,0.0,0.0,0.019976113461165363,51.6869098287168,9007.03082936688,5.525258341335888e-09,0.0,9.786492166961281,0.0,0.0,-0.0003864876280324442,0.0,0.0,0.0,-51.68690982871681,303.8232078868368,0.4666929404281534,30769.52604521283,229.68721409722224,0.0,0.0,-0.0,0.0,0.0,0.0,0.17012167717,623.3937403629892,51.686868946277855
5.4,6387138.81334224,0.037326133462392004,0.0,0.0,0.02073705554379936,52.662163194132006,9001.81337574288,5.8439521283508765e-09,0.0,9.78650817139968,0.0,0.0,-0.0003937800618734342,0.0,0.0,0.0,-52.662163194132006,303.8457474524256,0.4669723724851443,30791.962311548767,229.72102609555557,0.0,0.0,-0.0,0.0,0.0,0.0,0.173318757029,647.5281425913329,52.662121689788385
5.5,6387133.498361761,0.0394384492329768,0.0,0.0,0.021512221907652004,53.637418166452804,8996.49839669544,6.174671195322876e-09,0.0,9.78652447521264,0.0,0.0,-0.0004010725077394233,0.0,0.0,0.0,-53.6374181664528,303.8684986141368,0.46727508642875,30816.748071625265,229.75547594833333,0.0,0.0,-0.0,0.0,0.0,0.0,0.176515245,672.1689252320666,53.63737604916751
5.6,6387128.08584528,0.0416289904474152,0.0,0.0,0.022301612612067843,54.6126747758544,8991.085892041681,6.5176382699485595e-09,0.0,9.78654107843064,0.0,0.0,-0.0004083649658524122,0.0,0.0,0.0,-54.6126747758544,303.8915566420872,0.4675928785939748,30843.00651848704,229.79056100666668,0.0,0.0,-0.0,0.0,0.0,0.0,0.179711078297,697.3083416136011,54.612632054253005
5.7,6387122.57582328,0.043899179408882404,0.0,0.0,0.02310522771715344,55.587933052207205,8985.57586169016,6.873076082036447e-09,0.0,9.7865579810232,0.0,0.0,-0.00041565743643740173,0.0,0.0,0.0,-55.587933052207205,303.9150301432224,0.46791639692812564,30869.738105762823,229.8262782477778,0.0,0.0,-0.0,0.0,0.0,0.0,0.182906182125,722.9352403709519,55.587889734368154
5.8,6387116.968265281,0.0462504384217728,0.0,0.0,0.02392306728438696,56.563193024772,8979.96830539704,7.2412073634545485e-09,0.0,9.786575182990319,0.0,0.0,-0.00042294991971539075,0.0,0.0,0.0,-56.563193024772005,303.93891911845685,0.4682456414415101,30896.942834266585,229.86262767388888,0.0,0.0,-0.0,0.0,0.0,0.0,0.186100543648,749.0514709413662,56.563149119865166
5.9,6387111.263171281,0.048684189792004805,0.0,0.0,0.02475513137622192,57.538454723724,8974.26322300992,7.622254848252534e-09,0.0,9.786592684392959,0.0,0.0,-0.0004302424159093818,0.0,0.0,0.0,-57.538454723723994,303.9632235687048,0.4685806121439203,30924.620704812285,229.89960928555558,0.0,0.0,-0.0,0.0,0.0,0.0,0.18929415004,775.6589155074007,57.53841024058179
6.0,6387105.46057176,0.0512018558264112,0.0,0.0,0.0256014200559348,58.5137181786288,8968.460614376401,8.016441272591925e-09,0.0,9.786610485170161,0.0,0.0,-0.0004375349252423702,0.0,0.0,0.0,-58.5137181786288,303.9879434942712,0.468921309045664,30952.771718213895,229.9372230838889,0.0,0.0,-0.0,0.0,0.0,0.0,0.192486988486,802.7594890017092,58.51367312687022
6.1,6387099.56043624,0.0538048588333488,0.0,0.0,0.026461933388448003,59.488983419356806,8962.5604793136,8.423989374868261e-09,0.0,9.786628585352402,0.0,0.0,-0.0004448274479373603,0.0,0.0,0.0,-59.488983419356806,304.0130788960704,0.4692677321575639,30981.39587538114,229.9754690705556,0.0,0.0,-0.0,0.0,0.0,0.0,0.19567904618,830.3551391022544,59.48893780805377
6.2,6387093.56276472,0.0564946211220888,0.0,0.0,0.027336671439049682,60.4642504757784,8956.562817638642,8.845121895711102e-09,0.0,9.78664698493968,0.0,0.0,-0.0004521199842163491,0.0,0.0,0.0,-60.46425047577841,304.03862977501683,0.4696198814894124,31010.493177127977,230.01434724666666,0.0,0.0,-0.0,0.0,0.0,0.0,0.198870310329,858.447846241884,60.46420431448463
6.3,6387087.467587681,0.05927256500373121,0.0,0.0,0.028225634274795842,61.439519377459206,8950.467629168641,9.280061578053845e-09,0.0,9.786665683932,0.0,0.0,-0.00045941253430333934,0.0,0.0,0.0,-61.439519377459206,304.0645961320248,0.4699777570525478,31040.063624412018,230.0538576127778,0.0,0.0,-0.0,0.0,0.0,0.0,0.202060768148,887.0396235987555,61.439472676000555
6.4,6387081.274874641,0.06214011279029041,0.0,0.0,0.029128821963443522,62.4147901545744,8944.27491369024,9.729031167133728e-09,0.0,9.78668468235984,0.0,0.0,-0.000466705098419328,0.0,0.0,0.0,-62.414790154574405,304.0909779673992,0.47034135885779293,31070.10721809511,230.09400017055555,0.0,0.0,-0.0,0.0,0.0,0.0,0.205250406865,916.1325171011232,62.41474292243929
6.5,6387074.9846256,0.06509868679560961,0.0,0.0,0.03004623457393848,63.39006283638481,8937.98467108152,1.0192253410544168e-08,0.0,9.786703980162239,0.0,0.0,-0.00047399767678831754,0.0,0.0,0.0,-63.39006283638481,304.1177752820544,0.47071068691545553,31100.623959134842,230.13477492111113,0.0,0.0,-0.0,0.0,0.0,0.0,0.208439213718,945.7286054369141,63.3900150836386
6.6,6387068.5968405595,0.0681497093341416,0.0,0.0,0.030977872176415202,64.3653374533704,8931.59690106816,1.0669951058269699e-08,0.0,9.78672357740016,0.0,0.0,-0.00048129026963230693,0.0,0.0,0.0,-64.3653374533704,304.14498807720963,0.47108574123790464,31131.61384839308,230.17618186555555,0.0,0.0,-0.0,0.0,0.0,0.0,0.211627175956,975.830000034577,64.36528918995067
6.7,6387062.1115500005,0.0712946027230824,0.0,0.0,0.0319237348418616,65.3406140344872,8925.111603528241,1.116234686272085e-08,0.0,9.786743474073601,0.0,0.0,-0.000488582877175297,0.0,0.0,0.0,-65.3406140344872,304.17261635316964,0.47146652183647847,31163.076886827414,230.21822100555556,0.0,0.0,-0.0,0.0,0.0,0.0,0.21481428084,1006.4388450822337,65.34056527121326
6.8,6387055.528723441,0.07453478927932321,0.0,0.0,0.0328838226424848,66.3158926102152,8918.528778187441,1.166966357880398e-08,0.0,9.78676367015208,0.0,0.0,-0.0004958754996382866,0.0,0.0,0.0,-66.3158926102152,304.2006601111536,0.47185302872200013,31195.01307549122,230.26089234222223,0.0,0.0,-0.0,0.0,0.0,0.0,0.218000515643,1037.557317527679,66.31584335674967
6.9,6387048.848391361,0.07787169132280321,0.0,0.0,0.0338581356517416,67.2911732098152,8911.84842492384,1.219212396390381e-08,0.0,9.78678416566608,0.0,0.0,-0.0005031681372452764,0.0,0.0,0.0,-67.2911732098152,304.22911935207605,0.47224526190683874,31227.42241524633,230.30419587666668,0.0,0.0,-0.0,0.0,0.0,0.0,0.221185867649,1069.1876270640169,67.29112347742655
7.0,6387042.0704928,0.0813067311740712,0.0,0.0,0.034846673944003204,68.2664558634624,8905.0705434936,1.2729950777953247e-08,0.0,9.78680496058512,0.0,0.0,-0.0005104607902192655,0.0,0.0,0.0,-68.26645586346241,304.25799407624163,0.47264322140336323,31260.30490714612,230.34813161055555,0.0,0.0,-0.0,0.0,0.0,0.0,0.224370324154,1101.3320161392367,68.2664056625672
7.1,6387035.19508872,0.0848413311552,0.0,0.0,0.0358494375945552,69.2417406010272,8898.19513368336,1.328336678346828e-08,0.0,9.786826054970161,0.0,0.0,-0.0005177534587812561,0.0,0.0,0.0,-69.2417406010272,304.2872842851744,0.4730469072223966,31293.660552148198,230.39269954444444,0.0,0.0,-0.0,0.0,0.0,0.0,0.227553872466,1133.9927599657885,69.24168994252382
7.2,6387028.22214864,0.08847691359009122,0.0,0.0,0.0368664266799024,70.2170274517704,8891.222195310242,1.3852594745600345e-08,0.0,9.78684744879072,0.0,0.0,-0.0005250461431562455,0.0,0.0,0.0,-70.2170274517704,304.31698997948405,0.4734563193778542,31327.489351305918,230.43789968055557,0.0,0.0,-0.0,0.0,0.0,0.0,0.230736499906,1167.1721665110085,70.2169763466197
7.3,6387021.15167256,0.0922149008038656,0.0,0.0,0.0378976412777688,71.1923164458672,8884.1517281304,1.4437857432136328e-08,0.0,9.786869142016322,0.0,0.0,-0.0005323388435662346,0.0,0.0,0.0,-71.1923164458672,304.3471111600848,0.4738714578810742,31361.791305672654,230.48373202000002,0.0,0.0,-0.0,0.0,0.0,0.0,0.233918193807,1200.8725765019049,71.19226490520707
7.4,6387013.98369096,0.0960567151237776,0.0,0.0,0.0389430814670976,72.167607613188,8876.98373193048,1.5039377613550924e-08,0.0,9.7868911347384,0.0,0.0,-0.0005396315602322238,0.0,0.0,0.0,-72.167607613188,304.377647828196,0.4742923227454566,31396.56641625389,230.53019656444445,0.0,0.0,-0.0,0.0,0.0,0.0,0.237098941513,1235.0963634155837,72.16755564863811
7.5,6387006.71817336,0.1000037788776912,0.0,0.0,0.040002747327136795,73.14290098299361,8869.7182065276,1.5657378063076446e-08,0.0,9.786913426865521,0.0,0.0,-0.0005469242933802142,0.0,0.0,0.0,-73.14290098299361,304.4085999841224,0.47471891398285493,31431.81468410299,230.57729331444446,0.0,0.0,-0.0,0.0,0.0,0.0,0.240278730384,1269.8459335031887,73.1428486062361
7.6,6386999.35511976,0.1040575143959088,0.0,0.0,0.041076638939267995,74.118196585764,8862.35515167792,1.629208155668537e-08,0.0,9.78693601845864,0.0,0.0,-0.0005542170432302026,0.0,0.0,0.0,-74.11819658576401,304.43996762938804,0.47515123160770006,31467.536110321198,230.62502227222225,0.0,0.0,-0.0,0.0,0.0,0.0,0.24345754779,1305.1237257659593,74.11814380783885
7.7,6386991.89453016,0.1082193440102568,0.0,0.0,0.04216475638548241,75.0934944510648,8854.8945671376,1.694371087317761e-08,0.0,9.786958909517761,0.0,0.0,-0.0005615098100061915,0.0,0.0,0.0,-75.09349445106481,304.4717507646024,0.47558927563184544,31503.730696009767,230.67338343944445,0.0,0.0,-0.0,0.0,0.0,0.0,0.246635381115,1340.9322119743858,75.09344128379851
7.8,6386984.33640456,0.112490690053476,0.0,0.0,0.0432670997486856,76.06879460815681,8847.33645269328,1.7612488794215423e-08,0.0,9.78698210004288,0.0,0.0,-0.0005688025939301819,0.0,0.0,0.0,-76.06879460815681,304.50394939068,0.4760330460697218,31540.398442269936,230.72237681666667,0.0,0.0,-0.0,0.0,0.0,0.0,0.249812217757,1377.2738966538427,76.06874106446729
7.9,6386976.680773441,0.1168729748613552,0.0,0.0,0.0443836691130024,77.04409708752,8839.6808081316,1.829863810423613e-08,0.0,9.787005590034,0.0,0.0,-0.0005760953952261708,0.0,0.0,0.0,-77.04409708752,304.53656350914486,0.4764825429342136,31577.539350202955,230.7720024061111,0.0,0.0,-0.0,0.0,0.0,0.0,0.252988045127,1414.151317103742,77.04404317865405
8.0,6386968.92757584,0.121367620769988,0.0,0.0,0.045514464563472,78.01940191872,8831.927633208721,1.90023815908012e-08,0.0,9.78702937946064,0.0,0.0,-0.0005833882141171607,0.0,0.0,0.0,-78.01940191872,304.56959312030165,0.47693776623923606,31615.153420910072,230.8222602088889,0.0,0.0,-0.0,0.0,0.0,0.0,0.256162850649,1451.567043378381,78.01934765722544
8.1,6386961.07687272,0.1259760501182112,0.0,0.0,0.046659486186962404,78.9947091316272,8824.0769276808,1.972394204414245e-08,0.0,9.78705346838376,0.0,0.0,-0.0005906810508241505,0.0,0.0,0.0,-78.99470913162722,304.6030382256744,0.4773987159987045,31653.240655636164,230.87315022666667,0.0,0.0,-0.0,0.0,0.0,0.0,0.259336621761,1489.5236783013058,78.9946545300192
8.2,6386953.1286336,0.1306996852454712,0.0,0.0,0.04781873407064641,79.9700187555024,8816.128691304,2.0463542257633293e-08,0.0,9.787077856772882,0.0,0.0,-0.0005979739055711393,0.0,0.0,0.0,-79.9700187555024,304.6368988261776,0.47786539222653396,31691.801055434607,230.9246724611111,0.0,0.0,-0.0,0.0,0.0,0.0,0.262509345915,1528.0238574748887,79.96996382635865
8.3,6386945.08288896,0.13553994849456721,0.0,0.0,0.048992208302916,80.9453308208256,8808.08292383448,2.1221405027788734e-08,0.0,9.787102544658481,0.0,0.0,-0.0006052667785801292,0.0,0.0,0.0,-80.9453308208256,304.6711749224208,0.4783377949376706,31730.834621550286,230.9768269138889,0.0,0.0,-0.0,0.0,0.0,0.0,0.265681010577,1567.0702492468101,80.94527557711042
8.4,6386936.93957784,0.14049826220829842,0.0,0.0,0.0501799089733824,81.9206453571624,8799.93962505888,2.1997753154265376e-08,0.0,9.78712753201008,0.0,0.0,-0.0006125596700751196,0.0,0.0,0.0,-81.9206453571624,304.70586651623285,0.4788159241455141,31770.341355180204,231.0296135861111,0.0,0.0,-0.0,0.0,0.0,0.0,0.268851603228,1606.6655547531527,81.92058981159782
8.5,6386928.6987612005,0.145576048732512,0.0,0.0,0.051381836172876005,82.89596239438322,8791.698794702881,2.2792809439163266e-08,0.0,9.78715281885816,0.0,0.0,-0.0006198525802781091,0.0,0.0,0.0,-82.8959623943832,304.7409736079184,0.47929977986501066,31810.321257473486,231.08303247944446,0.0,0.0,-0.0,0.0,0.0,0.0,0.272021111362,1646.812507889671,82.89590655965861
8.6,6386920.360378081,0.15077473041427442,0.0,0.0,0.052597989992836804,83.87128196174879,8783.36043249216,2.3606796688596727e-08,0.0,9.78717840520272,0.0,0.0,-0.0006271455094120986,0.0,0.0,0.0,-83.87128196174879,304.7764961990016,0.47978936211110607,31850.774329722903,231.13708359666668,0.0,0.0,-0.0,0.0,0.0,0.0,0.275189522488,1687.5138753261588,83.87122585164498
8.7,6386911.92448944,0.15609572960309043,0.0,0.0,0.0538283705265336,84.8466040897392,8774.92453821336,2.4439937711472602e-08,0.0,9.78720429104376,0.0,0.0,-0.0006344384577000872,0.0,0.0,0.0,-84.8466040897392,304.81243429161606,0.4802846708987464,31891.70057307758,231.19176693777777,0.0,0.0,-0.0,0.0,0.0,0.0,0.278356824131,1728.772456501657,84.84654771739469
8.8,6386903.3910648,0.1615404686499888,0.0,0.0,0.05507297786754001,85.82192880792,8766.39111159216,2.529245531966479e-08,0.0,9.787230476381282,0.0,0.0,-0.000641731425364077,0.0,0.0,0.0,-85.82192880792,304.84878788210403,0.480785706243393,31933.099988878166,231.24708250555557,0.0,0.0,-0.0,0.0,0.0,0.0,0.281523003829,1770.5910836340333,85.82187218674547
8.9,6386894.76010416,0.16711036990721762,0.0,0.0,0.0563318121109536,86.7972561458568,8757.76015238472,2.6164572328712393e-08,0.0,9.787256961215279,0.0,0.0,-0.0006490244126280672,0.0,0.0,0.0,-86.7972561458568,304.88555697900006,0.4812924681594765,31974.972578321664,231.30303030111114,0.0,0.0,-0.0,0.0,0.0,0.0,0.284688049135,1812.9726217151922,86.79719929004953
9.0,6386886.031607521,0.17280685573007282,0.0,0.0,0.057604873353091196,87.7725861337248,8749.03166028624,2.7056511557296085e-08,0.0,9.78728374557624,0.0,0.0,-0.0006563174197140567,0.0,0.0,0.0,-87.7725861337248,304.922741576208,0.4818049566629737,32017.31834274872,231.35961032666668,0.0,0.0,-0.0,0.0,0.0,0.0,0.28785194762,1855.9199685014992,87.77252905663018
9.1,6386877.205574881,0.1786313484750696,0.0,0.0,0.058892161691184004,88.7479188010896,8740.20563505288,2.796849582741268e-08,0.0,9.78731082943368,0.0,0.0,-0.0006636104468450461,0.0,0.0,0.0,-88.7479188010896,304.960341682872,0.48232317176986117,32060.137283356344,231.41682258333333,0.0,0.0,-0.0,0.0,0.0,0.0,0.291014686866,1899.4360545377217,88.7478615168396
9.2,6386868.282036721,0.18458527050116164,0.0,0.0,0.060193677223072804,89.72325417751681,8731.2820764408,2.890074796437513e-08,0.0,9.787338212818081,0.0,0.0,-0.0006709034942430346,0.0,0.0,0.0,-89.72325417751682,304.998357289848,0.4828471134950851,32103.429401533067,231.47466707333334,0.0,0.0,-0.0,0.0,0.0,0.0,0.294176254475,1943.5238431426637,89.72319670000114
9.3,6386859.26093208,0.19067004416852162,0.0,0.0,0.06150942004873201,90.6985922934864,8722.2609841452,2.985349079698701e-08,0.0,9.78736589572944,0.0,0.0,-0.0006781965621330244,0.0,0.0,0.0,-90.6985922934864,305.03678840932804,0.4833767818556528,32147.19469861953,231.53314379833336,0.0,0.0,-0.0,0.0,0.0,0.0,0.297336638062,1988.1863304091667,90.69853463749585
9.4,6386850.14232192,0.19688709184037043,0.0,0.0,0.06283939026783121,91.67393317795441,8713.14235789176,3.082694715754259e-08,0.0,9.78739387816776,0.0,0.0,-0.0006854896507360146,0.0,0.0,0.0,-91.67393317795442,305.075635032168,0.4839121768665104,32191.43317586062,231.59225276,0.0,0.0,-0.0,0.0,0.0,0.0,0.300495825257,2033.426545223262,91.67387535761816
9.5,6386840.92614528,0.20323783588084324,0.0,0.0,0.0641835879824784,92.64927686140079,8703.926197406161,3.182133988165224e-08,0.0,9.787422160163521,0.0,0.0,-0.000692782760275004,0.0,0.0,0.0,-92.64927686140079,305.114897167512,0.48445329854518066,32236.144834644867,231.65199396055556,0.0,0.0,-0.0,0.0,0.0,0.0,0.303653803709,2079.247549230654,92.64921889174914
9.6,6386831.61246312,0.2097236986568184,0.0,0.0,0.06554201329539121,93.6246233733912,8694.61250241408,3.2836891808417006e-08,0.0,9.78745074165576,0.0,0.0,-0.0007000758909739937,0.0,0.0,0.0,-93.6246233733912,305.154574812312,0.48500014690764043,32281.3296763608,231.71236740111112,0.0,0.0,-0.0,0.0,0.0,0.0,0.30681056108,2125.6524368798114,93.62456526869767
9.7,6386822.20121448,0.2163461025370032,0.0,0.0,0.06691466631020161,94.59997274349121,8685.2012726412,3.387382578077765e-08,0.0,9.78747962270544,0.0,0.0,-0.0007073690430549823,0.0,0.0,0.0,-94.59997274349121,305.19466796961603,0.48555272197089716,32326.987702396942,231.7733730838889,0.0,0.0,-0.0,0.0,0.0,0.0,0.309966085051,2172.644335388454,94.59991451881592
9.8,6386812.692460321,0.22310646989254324,0.0,0.0,0.068301547131456,95.57532500187601,8675.69250778272,3.493236464499106e-08,0.0,9.78750880331256,0.0,0.0,-0.0007146622167399722,0.0,0.0,0.0,-95.575325001876,305.235176642472,0.486111023751443,32373.118914093942,231.83501101055555,0.0,0.0,-0.0,0.0,0.0,0.0,0.313120363318,2220.2264047674894,95.57526667245612
9.9,6386803.08617016,0.2300062230958032,0.0,0.0,0.0697026558652248,96.5506801781112,8666.086207533841,3.601273125115385e-08,0.0,9.787538283477119,0.0,0.0,-0.0007219554122539628,0.0,0.0,0.0,-96.55068017811121,305.276100824784,0.4866750522662854,32419.72331293609,231.89728118333335,0.0,0.0,-0.0,0.0,0.0,0.0,0.316273383593,2268.4018378114392,96.550621759456
10.0,6386793.38231352,0.2370467845225008,0.0,0.0,0.0711179926184928,97.52603830206719,8656.38237165072,3.711514845285328e-08,0.0,9.78756806316864,0.0,0.0,-0.0007292486298169507,0.0,0.0,0.0,-97.5260383020672,305.31744052569604,0.48724480753294724,32466.800900264036,231.96018360444444,0.0,0.0,-0.0,0.0,0.0,0.0,0.319425133607,2317.17386009365,97.52597980913889
10.1,6386783.58095136,0.24422957654926802,0.0,0.0,0.072547557499464,98.5013994036144,8646.5809997676,3.823983910734182e-08,0.0,9.78759814244808,0.0,0.0,-0.0007365418696549407,0.0,0.0,0.0,-98.5013994036144,305.35919574216,0.4878202895684361,32514.351677562052,232.023718275,0.0,0.0,-0.0,0.0,0.0,0.0,0.322575601105,2366.545729995023,98.50134085185697
10.2,6386773.6820532,0.2515560215557848,0.0,0.0,0.0739913506166472,99.4767635123184,8636.68209167112,3.938702607588621e-08,0.0,9.787628521284962,0.0,0.0,-0.0007438351319879313,0.0,0.0,0.0,-99.4767635123184,305.40136647722403,0.4884014983907902,32562.37564626657,232.0878851966667,0.0,0.0,-0.0,0.0,0.0,0.0,0.325724773851,2416.520738660919,99.47670491796244
10.3,6386763.68558856,0.2590275419238648,0.0,0.0,0.0754493720812944,100.45213065804961,8626.685646965041,4.055693222341833e-08,0.0,9.787659199709761,0.0,0.0,-0.00075112841704092,0.0,0.0,0.0,-100.45213065804961,305.443952733936,0.4889884340175324,32610.87280786186,232.1526843727778,0.0,0.0,-0.0,0.0,0.0,0.0,0.328872639626,2467.1022100442533,100.45207203677859
10.4,6386753.5916184,0.2666455600368456,0.0,0.0,0.076921622004048,101.42750087098321,8616.591665436,4.174978041836076e-08,0.0,9.787690177692001,0.0,0.0,-0.0007584217250359091,0.0,0.0,0.0,-101.42750087098321,305.48695450924805,0.489581096466701,32659.84316378433,232.21811580444447,0.0,0.0,-0.0,0.0,0.0,0.0,0.332019186228,2518.29350089113,101.42744223865763
10.5,6386743.400112241,0.27441149828111283,0.0,0.0,0.0784081004973792,102.40287418038001,8606.40014671824,4.2965793533673935e-08,0.0,9.78772145526216,0.0,0.0,-0.0007657150561958995,0.0,0.0,0.0,-102.40287418038,305.530371806208,0.4901794857563342,32709.286715566162,232.28417949333334,0.0,0.0,-0.0,0.0,0.0,0.0,0.335164401474,2570.0980007264784,102.40281555343734
10.6,6386733.111039601,0.28232677904457604,0.0,0.0,0.0799088076749784,103.3782506164152,8596.11109047648,4.420519444545987e-08,0.0,9.787753032450722,0.0,0.0,-0.0007730084107438883,0.0,0.0,0.0,-103.37825061641522,305.574204627864,0.4907836019044703,32759.203464739516,232.35087544222225,0.0,0.0,-0.0,0.0,0.0,0.0,0.338308273195,2622.5191318875704,103.37819201095543
10.7,6386722.72446144,0.290392824717888,0.0,0.0,0.0814237436514504,104.35363020895922,8585.72449646688,4.5468206034009366e-08,0.0,9.787784909196722,0.0,0.0,-0.0007803017889018779,0.0,0.0,0.0,-104.3536302089592,305.61845297116804,0.4913934449296629,32809.59341278868,232.41820365277778,0.0,0.0,-0.0,0.0,0.0,0.0,0.341450789245,2675.5603494952898,104.35357164156412
10.8,6386712.2403168,0.29861105769414004,0.0,0.0,0.08295290854231441,105.3290129872728,8575.24036435416,4.67550511841511e-08,0.0,9.787817085561121,0.0,0.0,-0.0007875951908938672,0.0,0.0,0.0,-105.32901298727282,305.663116845264,0.49200901485098103,32860.45656124582,232.48616412722225,0.0,0.0,-0.0,0.0,0.0,0.0,0.344591937491,2729.225141468499,105.3289544745867
10.9,6386701.65863616,0.30698290036977605,0.0,0.0,0.0844963024646136,106.304398981836,8564.65869377256,4.806595278368079e-08,0.0,9.787849561513442,0.0,0.0,-0.0007948886169418571,0.0,0.0,0.0,-106.304398981836,305.708196244056,0.492630311686463,32911.79291173887,232.55475686722224,0.0,0.0,-0.0,0.0,0.0,0.0,0.347731705821,2783.5170285336126,106.30434054037538
11.0,6386690.97945,0.31550977513819206,0.0,0.0,0.08605392553569599,107.27978822190961,8553.97948444776,4.9401133725455615e-08,0.0,9.78788233708416,0.0,0.0,-0.0008021820672698465,0.0,0.0,0.0,-107.27978822190961,305.75369117059205,0.4932573354556931,32963.60246570423,232.62398187555556,0.0,0.0,-0.0,0.0,0.0,0.0,0.350870082141,2838.4395642054474,107.27972986928235
11.1,6386680.20269736,0.324193104401928,0.0,0.0,0.0876257778750432,108.25518073766881,8543.202736014002,5.076081690564888e-08,0.0,9.787915412273282,0.0,0.0,-0.0008094755420998362,0.0,0.0,0.0,-108.25518073766881,305.79960162792,0.49389008617774044,33015.8852248656,232.69383915333336,0.0,0.0,-0.0,0.0,0.0,0.0,0.354007054375,2893.9963348063743,108.25512249063092
11.2,6386669.328408721,0.33303431056504806,0.0,0.0,0.08921185960213682,109.2305765586792,8532.32844819696,5.214522522479722e-08,0.0,9.7879487870808,0.0,0.0,-0.0008167690416548248,0.0,0.0,0.0,-109.2305765586792,305.845927619088,0.4945285638711586,33068.641190707254,232.7643287038889,0.0,0.0,-0.0,0.0,0.0,0.0,0.357142610466,2950.1909594615277,109.23051843425885
11.3,6386658.3565840805,0.342034816031616,0.0,0.0,0.09081217083889681,110.205975715116,8521.356620600402,5.355458158780058e-08,0.0,9.78798246150672,0.0,0.0,-0.0008240625661578153,0.0,0.0,0.0,-110.20597571511601,305.89266914104803,0.4951727685565629,33121.870364905015,232.83545052833335,0.0,0.0,-0.0,0.0,0.0,0.0,0.360276738374,3007.0270901035974,110.20591773103277
11.4,6386647.28719296,0.35119604320569603,0.0,0.0,0.09242671170663361,111.18137823624001,8510.287252919521,5.49891089037477e-08,0.0,9.788016435581522,0.0,0.0,-0.0008313561158318045,0.0,0.0,0.0,-111.18137823624002,305.939826196848,0.4958227002530221,33175.57274903892,232.90720462944444,0.0,0.0,-0.0,0.0,0.0,0.0,0.363409426082,3064.5084114584615,111.18132040976154
11.5,6386636.120296321,0.360519414500496,0.0,0.0,0.09405548232940081,112.15678415222641,8499.12034484952,5.644903008539251e-08,0.0,9.78805070927472,0.0,0.0,-0.0008386496908997951,0.0,0.0,0.0,-112.1567841522264,305.98739878953603,0.4964783589806361,33229.748344784784,232.97959100888892,0.0,0.0,-0.0,0.0,0.0,0.0,0.366540661587,3122.638641069128,112.1567265013118
11.6,6386624.85586368,0.370006352323128,0.0,0.0,0.0956984828309472,113.13219349264081,8487.85589599416,5.7934568050375885e-08,0.0,9.7880852826168,0.0,0.0,-0.0008459432915837841,0.0,0.0,0.0,-113.13219349264081,306.03538691911206,0.4971397447589893,33284.39715381843,233.05260967,0.0,0.0,-0.0,0.0,0.0,0.0,0.369670432909,3181.4215292861577,113.13213603552131
11.7,6386613.4938645605,0.379658279092896,0.0,0.0,0.0973557133371552,114.1076062873536,8476.49390601816,5.9445945720527446e-08,0.0,9.788120155638241,0.0,0.0,-0.0008532369181087723,0.0,0.0,0.0,-114.1076062873536,306.083790588624,0.49780685760869686,33339.51917771988,233.12626061333333,0.0,0.0,-0.0,0.0,0.0,0.0,0.372798728085,3240.8608592676655,114.10754904171338
11.8,6386602.03432944,0.38947661722605603,0.0,0.0,0.0990271739745168,115.08302256654001,8465.03437461672,6.09833860216911e-08,0.0,9.788155328278082,0.0,0.0,-0.0008605305706957624,0.0,0.0,0.0,-115.08302256654,306.132609798072,0.49847969754985844,33395.11441826072,233.2005438427778,0.0,0.0,-0.0,0.0,0.0,0.0,0.375925535173,3300.96044697932,115.08296555075466
11.9,6386590.47725832,0.39946278914191197,0.0,0.0,0.1007128648704384,116.0584423597656,8453.477301393601,6.254711188459768e-08,0.0,9.788190800597281,0.0,0.0,-0.000867824249567753,0.0,0.0,0.0,-116.0584423597656,306.181844550504,0.49915826460308943,33451.18287711676,233.27545935944445,0.0,0.0,-0.0,0.0,0.0,0.0,0.379050842249,3361.724141208706,116.05838559196843
12.0,6386578.822651201,0.409618217259768,0.0,0.0,0.10241278615385041,117.03386569659601,8441.822686044,6.413734624381774e-08,0.0,9.78822657256536,0.0,0.0,-0.0008751179549487414,0.0,0.0,0.0,-117.033865696596,306.231494842872,0.49984255878900474,33507.72455596379,233.35100716611112,0.0,0.0,-0.0,0.0,0.0,0.0,0.382174637412,3423.155823546176,117.03380919570691
12.1,6386567.0704776,0.419944324008072,0.0,0.0,0.1041269379545976,118.0092926072064,8430.0705281412,6.575431203880873e-08,0.0,9.788262644212802,0.0,0.0,-0.0008824116870617322,0.0,0.0,0.0,-118.0092926072064,306.281560681272,0.5005325801292504,33564.73945657341,233.42718726555557,0.0,0.0,-0.0,0.0,0.0,0.0,0.385296908776,3485.259408408787,118.00923639129338
12.2,6386555.220768,0.430442531812224,0.0,0.0,0.105855320403744,118.98472312116242,8418.2208273804,6.739823221339146e-08,0.0,9.78829901557008,0.0,0.0,-0.0008897054461287203,0.0,0.0,0.0,-118.98472312116242,306.332042068752,0.5012283286439261,33622.2275806214,233.5039996588889,0.0,0.0,-0.0,0.0,0.0,0.0,0.38841764448,3548.038843025935,118.98466720959452
12.3,6386543.273552881,0.44111426310372,0.0,0.0,0.1075979336329632,119.96015726833441,8406.273583395841,6.906932971592459e-08,0.0,9.788335686576241,0.0,0.0,-0.0008969992323727103,0.0,0.0,0.0,-119.9601572683344,306.382938999216,0.5019298043546779,33680.188929975106,233.58144434944444,0.0,0.0,-0.0,0.0,0.0,0.0,0.39153683268,3611.498107439362,119.96010167993359
12.4,6386531.2287408,0.45196094031405604,0.0,0.0,0.10935477777545281,120.9355950788976,8394.22879582176,7.076782749913006e-08,0.0,9.788372657292241,0.0,0.0,-0.0009042930460166992,0.0,0.0,0.0,-120.9355950788976,306.434251481808,0.5026370072826363,33738.62350631034,233.6595213388889,0.0,0.0,-0.0,0.0,0.0,0.0,0.394654461553,3675.6412145222994,120.93553983266283
12.5,6386519.086423201,0.462983985877776,0.0,0.0,0.1111258529656296,121.911036581808,8382.086464261922,7.249394852096585e-08,0.0,9.7884099276876,0.0,0.0,-0.0009115868872846897,0.0,0.0,0.0,-121.91103658180802,306.485979516528,0.5033499374499624,33797.531311398656,233.73823063055556,0.0,0.0,-0.0,0.0,0.0,0.0,0.397770519297,3740.472209960323,121.91098169710553
12.6,6386506.846539121,0.47418482223552005,0.0,0.0,0.1129111593382152,122.8864818078504,8369.84658838104,7.424791574305511e-08,0.0,9.788447497823281,0.0,0.0,-0.0009188807563986787,0.0,0.0,0.0,-122.8864818078504,306.538123103376,0.5040685948783024,33856.912347107405,233.81757222611114,0.0,0.0,-0.0,0.0,0.0,0.0,0.400884994131,3805.995172270501,122.88642730412832
12.7,6386494.509119041,0.48556487182488006,0.0,0.0,0.11471069702976001,123.86193078628561,8357.50916778288,7.602995213260606e-08,0.0,9.788485367638321,0.0,0.0,-0.0009261746535816689,0.0,0.0,0.0,-123.86193078628561,306.59068224235205,0.5047929795893019,33916.76661525602,233.8975461277778,0.0,0.0,-0.0,0.0,0.0,0.0,0.403997874293,3872.2142127822435,123.86187668305453
12.8,6386482.074162961,0.49712555708954403,0.0,0.0,0.1165244661780336,124.83738354698401,8345.074202101681,7.784028066101568e-08,0.0,9.7885235371632,0.0,0.0,-0.0009334685790566575,0.0,0.0,0.0,-124.83738354698401,306.64365693650404,0.5055230916051223,33977.09411761607,233.97815233888892,0.0,0.0,-0.0,0.0,0.0,0.0,0.407109148045,3939.13347566603,124.83732986423634
12.9,6386469.5416404,0.5088683004762481,0.0,0.0,0.11835246692141521,125.812840119816,8332.541690941202,7.967912430456788e-08,0.0,9.7885620064284,0.0,0.0,-0.000940762533047647,0.0,0.0,0.0,-125.812840119816,306.69704719192805,0.5062589309479251,34037.89485600702,234.05939086111113,0.0,0.0,-0.0,0.0,0.0,0.0,0.410218803667,4006.757137914256,125.8127868775115
13.0,6386456.91158184,0.520794524434776,0.0,0.0,0.12019469939950321,126.78830053465201,8319.91163393568,8.154670604443352e-08,0.0,9.78860077543392,0.0,0.0,-0.0009480565157756361,0.0,0.0,0.0,-126.788300534652,306.750853002528,0.5070004976403867,34099.16883239195,234.14126169722223,0.0,0.0,-0.0,0.0,0.0,0.0,0.413326829462,4075.089409341238,126.78824775271777
13.1,6386444.183987279,0.5329056514179601,0.0,0.0,0.1220511637525056,127.76376482136241,8307.18403071936,8.344324886667035e-08,0.0,9.788639844179759,0.0,0.0,-0.000955350527465626,0.0,0.0,0.0,-127.76376482136241,306.8050743744,0.5077477917056992,34160.91604854243,234.22376485,0.0,0.0,-0.0,0.0,0.0,0.0,0.416433213753,4144.134532602359,127.7637125196929
13.2,6386431.3588262405,0.545203103875584,0.0,0.0,0.12392186012306881,128.73923300951282,8294.35888086552,8.536897576169944e-08,0.0,9.78867921263544,0.0,0.0,-0.0009626445683386169,0.0,0.0,0.0,-128.7392330095128,306.859711310592,0.5085008131655087,34223.13650642155,234.30690032111113,0.0,0.0,-0.0,0.0,0.0,0.0,0.419537944886,4213.896783189285,128.7391812087891
13.3,6386418.4361292,0.557688304269624,0.0,0.0,0.1258067886535344,129.7147051289736,8281.436183977921,8.732410972552695e-08,0.0,9.78871888086192,0.0,0.0,-0.0009699386386196064,0.0,0.0,0.0,-129.7147051289736,306.914763811104,0.5092595620440378,34285.83020784876,234.3906681138889,0.0,0.0,-0.0,0.0,0.0,0.0,0.422641011228,4284.380469410811,129.7146538498441
13.4,6386405.41589616,0.5703626750590081,0.0,0.0,0.1277059494880728,130.69018120992,8268.4159396908,8.930887375869689e-08,0.0,9.78875884882872,0.0,0.0,-0.0009772327385305952,0.0,0.0,0.0,-130.69018120992,306.970231872888,0.5100240383634478,34348.99715478716,234.47506823111112,0.0,0.0,-0.0,0.0,0.0,0.0,0.425742401166,4355.589932426378,130.69013047269564
13.5,6386392.29809664,0.58322763870876,0.0,0.0,0.129619342771464,131.6656612816128,8255.29814760792,9.132349086681467e-08,0.0,9.78879911656632,0.0,0.0,-0.0009845268682935851,0.0,0.0,0.0,-131.6656612816128,307.026115505088,0.5107942421474463,34412.63734915195,234.56010067444444,0.0,0.0,-0.0,0.0,0.0,0.0,0.428842103112,4427.52954623171,131.66561110769595
13.6,6386379.08276112,0.596284617680856,0.0,0.0,0.13154696865031681,132.64114537453202,8242.08280730256,9.336818406054721e-08,0.0,9.788839684105202,0.0,0.0,-0.0009918210281335744,0.0,0.0,0.0,-132.641145374532,307.082414707704,0.5115701734197405,34476.75079290622,234.64576544666667,0.0,0.0,-0.0,0.0,0.0,0.0,0.431940105498,4500.20371765402,132.6410957846828
13.7,6386365.76985912,0.609535034446416,0.0,0.0,0.13348882727124,133.61663351793842,8228.76991840896,9.544317635562287e-08,0.0,9.7888805513844,0.0,0.0,-0.0009991152182725633,0.0,0.0,0.0,-133.61663351793842,307.139129477688,0.5123518322040379,34541.337488013065,234.7320625511111,0.0,0.0,-0.0,0.0,0.0,0.0,0.435036396779,4573.616886375961,133.61658453349384
13.8,6386352.359421121,0.62298031147656,0.0,0.0,0.1354449187832808,134.5921257420072,8215.35948046992,9.754869077283148e-08,0.0,9.78892171846488,0.0,0.0,-0.0010064094389385526,0.0,0.0,0.0,-134.5921257420072,307.19625982418404,0.513139218524046,34606.39743638769,234.81899199,0.0,0.0,-0.0,0.0,0.0,0.0,0.438130965432,4647.773524906886,134.59207738396694
13.9,6386338.85144712,0.636621871248504,0.0,0.0,0.1374152433351816,135.567622076304,8201.85149311968,9.968495033784974e-08,0.0,9.78896318531616,0.0,0.0,-0.0010137036903385423,0.0,0.0,0.0,-135.56762207630402,307.253805741096,0.5139323324034722,34671.93064004108,234.90655376555557,0.0,0.0,-0.0,0.0,0.0,0.0,0.441223799956,4722.678138611586,135.56757436645427
14.0,6386325.245906641,0.650461136236416,0.0,0.0,0.1393998010778184,136.5431225506992,8188.24595593152,1.0185217808211401e-07,0.0,9.78900495196872,0.0,0.0,-0.001020997972718533,0.0,0.0,0.0,-136.54312255069922,307.31176723452,0.5147311738670546,34737.93710103207,234.99474788111112,0.0,0.0,-0.0,0.0,0.0,0.0,0.444314888873,4798.33526569592,136.54307551027907
14.1,6386311.542830161,0.6644995289236081,0.0,0.0,0.14139859216298162,137.5186271950632,8174.542868478721,1.0405059704177298e-07,0.0,9.789047018453042,0.0,0.0,-0.0010282922862785216,0.0,0.0,0.0,-137.5186271950632,307.370144307504,0.5155357429390162,34804.41682132376,235.08357433944448,0.0,0.0,-0.0,0.0,0.0,0.0,0.447404220728,4874.749477206814,137.51858084630803
14.2,6386297.7421872,0.67873847179644,0.0,0.0,0.1434116167427664,138.4941360392664,8160.74223033456,1.0628043025821134e-07,0.0,9.789089384708161,0.0,0.0,-0.0010355866312585103,0.0,0.0,0.0,-138.4941360392664,307.428936960048,0.5163460396425488,34871.369802974994,235.17303314222224,0.0,0.0,-0.0,0.0,0.0,0.0,0.450491784088,4951.925377070572,138.49409040386448
14.3,6386283.844008241,0.693179387338224,0.0,0.0,0.1454388749714016,139.4696491131792,8146.84404113328,1.0854190077822435e-07,0.0,9.78913205079504,0.0,0.0,-0.0010428810078785017,0.0,0.0,0.0,-139.4696491131792,307.48814519215205,0.5171620640085752,34938.79604794887,235.26312429333333,0.0,0.0,-0.0,0.0,0.0,0.0,0.453577567543,5029.867602011473,139.46960421330058
14.4,6386269.8482628,0.7078236980383681,0.0,0.0,0.1474803670037256,140.445166446672,8132.848300387201,1.1083523165419223e-07,0.0,9.789175016713681,0.0,0.0,-0.0010501754163584904,0.0,0.0,0.0,-140.445166446672,307.54776900991203,0.517983816052557,35006.69555844787,235.353847795,0.0,0.0,-0.0,0.0,0.0,0.0,0.456661559709,5108.580821695415,140.4451223044541
14.5,6386255.75495088,0.7226728263923761,0.0,0.0,0.14953609299518641,141.42068806931042,8118.755007700081,1.1316064594355673e-07,0.0,9.789218282494561,0.0,0.0,-0.0010574698569184792,0.0,0.0,0.0,-141.42068806931042,307.60780841028,0.5188112958054166,35075.06833638722,235.44520365000002,0.0,0.0,-0.0,0.0,0.0,0.0,0.45974374922,5188.069738538393,141.42064470716275
14.6,6386241.56410296,0.737728194895752,0.0,0.0,0.1516060531033656,142.3962140109648,8104.564162614721,1.1551836670899558e-07,0.0,9.78926184807672,0.0,0.0,-0.0010647643297784684,0.0,0.0,0.0,-142.3962140109648,307.668263399352,0.5196445032929231,35143.9143839694,235.53719186111113,0.0,0.0,-0.0,0.0,0.0,0.0,0.462824124738,5268.33908785014,142.3961714517788
14.7,6386227.275719041,0.752991226047048,0.0,0.0,0.1536902474864544,143.37174430181042,8090.275764765361,1.1790861701877153e-07,0.0,9.789305713521122,0.0,0.0,-0.0010720588351784582,0.0,0.0,0.0,-143.37174430181042,307.72913397408,0.5204834385356917,35213.23370325326,235.6298124316667,0.0,0.0,-0.0,0.0,0.0,0.0,0.465902674945,5349.393637834126,143.37170256762548
14.8,6386212.8897686405,0.7684633423509121,0.0,0.0,0.15578867630294882,144.347278971108,8075.889813633841,1.2033161994690696e-07,0.0,9.78934987879728,0.0,0.0,-0.0010793533733284481,0.0,0.0,0.0,-144.347278971108,307.79042014056,0.5213281015646449,35283.026296393415,235.7230653638889,0.0,0.0,-0.0,0.0,0.0,0.0,0.46897938855,5431.23818953968,144.34723808556947
14.9,6386198.40625176,0.7841459663119921,0.0,0.0,0.1579013397137832,145.3228180493376,8061.40630882392,1.227875985726602e-07,0.0,9.789394343966162,0.0,0.0,-0.0010866479444584382,0.0,0.0,0.0,-145.3228180493376,307.85212190184,0.5221784924055518,35353.29216544872,235.81695066055556,0.0,0.0,-0.0,0.0,0.0,0.0,0.472054254283,5513.877576861988,145.32277803493412
15.0,6386183.82519888,0.800040520441032,0.0,0.0,0.16002823788019682,146.29836156576002,8046.8252498784,1.252767759807001e-07,0.0,9.78943910899728,0.0,0.0,-0.0010939425487784277,0.0,0.0,0.0,-146.29836156576,307.91423925487203,0.5230346110790276,35424.031312621664,235.91146832500002,0.0,0.0,-0.0,0.0,0.0,0.0,0.4751272609,5597.316666589975,146.29832244607155
15.1,6386169.146579521,0.816148427248776,0.0,0.0,0.16216937096495282,147.2739095505504,8032.146636340081,1.2779937526128058e-07,0.0,9.78948417389064,0.0,0.0,-0.0011012371865284172,0.0,0.0,0.0,-147.27390955055043,307.976772205752,0.5238964576159951,35495.24374006686,236.00661835944447,0.0,0.0,-0.0,0.0,0.0,0.0,0.478198397178,5681.560358358422,147.27387134881954
15.2,6386154.370424161,0.8324711092490161,0.0,0.0,0.1643247391311192,148.24946203357922,8017.37046781272,1.3035561951076426e-07,0.0,9.78952953867672,0.0,0.0,-0.001108531857918406,0.0,0.0,0.0,-148.24946203357922,308.039720751432,0.5247640320370693,35566.929449938914,236.1024007677778,0.0,0.0,-0.0,0.0,0.0,0.0,0.481267651921,5766.613584600087,148.24942477301585
15.3,6386139.49670232,0.84900998896164,0.0,0.0,0.16649434254328802,149.22501904441202,8002.4967438086405,1.329457318307496e-07,0.0,9.789575203386,0.0,0.0,-0.001115826563178396,0.0,0.0,0.0,-149.225019044412,308.10308490105604,0.5256373343783267,35639.08844444033,236.19881555166668,0.0,0.0,-0.0,0.0,0.0,0.0,0.484335013957,5852.481310737228,149.22498274901267
15.4,6386124.525414,0.865766488909584,0.0,0.0,0.16867818136757523,150.20058061291923,7987.52546384016,1.3556993532842034e-07,0.0,9.78962116795752,0.0,0.0,-0.0011231213025283853,0.0,0.0,0.0,-150.20058061291923,308.166113283,0.5265852835742824,35719.228781112455,236.29589736666668,0.0,0.0,-0.0,0.0,0.0,0.0,0.48740166051,5939.945948752163,150.20054530613334
15.5,6386109.45658968,0.8827420316188321,0.0,0.0,0.1708762557710112,151.17614676897122,7972.45662751104,1.3822845311689408e-07,0.0,9.78966743245224,0.0,0.0,-0.001130416076188375,0.0,0.0,0.0,-151.1761467689712,308.22940101012,0.527553293643347,35801.40383956845,236.39361877055558,0.0,0.0,-0.0,0.0,0.0,0.0,0.490466655177,6028.419163067915,151.17611247524445
15.6,6386094.29019888,0.899938039615368,0.0,0.0,0.17308856592123603,152.15171754274323,7957.290234333601,1.4092150831522274e-07,0.0,9.78971399687016,0.0,0.0,-0.001137710884388364,0.0,0.0,0.0,-152.15171754274323,308.293098467688,0.5285275706827618,35884.11090587623,236.49197283,0.0,0.0,-0.0,0.0,0.0,0.0,0.493529750592,6117.752910748654,152.15168428566932
15.7,6386079.0262416005,0.91735593543432,0.0,0.0,0.175315111986804,153.12729296349602,7942.02628385064,1.4364932404786872e-07,0.0,9.789760861180799,0.0,0.0,-0.001145005727358354,0.0,0.0,0.0,-153.12729296349602,308.35720565570404,0.5295081147337575,35967.34998257344,236.5909595488889,0.0,0.0,-0.0,0.0,0.0,0.0,0.496590935817,6207.95276735478,153.1272607682746
15.8,6386063.664717841,0.9349971416108159,0.0,0.0,0.177555894138708,154.1028730617096,7926.664775604961,1.4641212344540298e-07,0.0,9.789808025445122,0.0,0.0,-0.0011523006052983438,0.0,0.0,0.0,-154.1028730617096,308.421722577216,0.530494925811795,36051.12107224562,236.69057893000002,0.0,0.0,-0.0,0.0,0.0,0.0,0.499650199936,6299.024344452641,154.10284195186915
15.9,6386048.20565808,0.952863080683032,0.0,0.0,0.179810912547636,155.0784578666448,7911.205709108881,1.4921012964433067e-07,0.0,9.78985548966312,0.0,0.0,-0.0011595955184483336,0.0,0.0,0.0,-155.0784578666448,308.486649235272,0.5314880039581049,36135.424177382556,236.79083097666668,0.0,0.0,-0.0,0.0,0.0,0.0,0.502707532058,6390.973289518787,155.07842786680519
16.0,6386032.64903184,0.9709551751891441,0.0,0.0,0.1820801673858,156.054047408172,7895.6490838747195,1.5204356578674206e-07,0.0,9.78990325380432,0.0,0.0,-0.0011668904670383228,0.0,0.0,0.0,-156.054047408172,308.55198563292004,0.5324873491984563,36220.25930061764,236.89171569111113,0.0,0.0,-0.0,0.0,0.0,0.0,0.505762921318,6483.805286035718,156.0540185434349
16.1,6386016.994839121,0.989274847682568,0.0,0.0,0.184363658826936,157.02964171677124,7879.99489944528,1.5491265502118498e-07,0.0,9.7899513178992,0.0,0.0,-0.0011741854512683123,0.0,0.0,0.0,-157.02964171677124,308.61773176711205,0.5334929615637715,36305.62644453642,236.99323307722224,0.0,0.0,-0.0,0.0,0.0,0.0,0.508816356874,6577.526053444013,157.02961401211041
16.2,6386001.2431104,1.007823520707576,0.0,0.0,0.1866613870450848,158.00524082139842,7864.2431553633605,1.5781762050179242e-07,0.0,9.789999681978239,0.0,0.0,-0.0011814804713883018,0.0,0.0,0.0,-158.00524082139842,308.68388764394405,0.5345048410798197,36391.52561167654,237.09538313722223,0.0,0.0,-0.0,0.0,0.0,0.0,0.511867827909,6672.141347142318,158.00521430164068
16.3,6385985.393815201,1.0266026168206321,0.0,0.0,0.188973352216116,158.9808447525336,7848.39385114128,1.6075868538863151e-07,0.0,9.79004834601096,0.0,0.0,-0.0011887755275982912,0.0,0.0,0.0,-158.9808447525336,308.75045326341603,0.5355229877878311,36477.956804767186,237.19816587555556,0.0,0.0,-0.0,0.0,0.0,0.0,0.514917323631,6767.656958535241,158.9808194428923
16.4,6385969.44695352,1.045613558572104,0.0,0.0,0.19129955451650882,159.9564535400472,7832.446986260881,1.6373607284840157e-07,0.0,9.79009731005832,0.0,0.0,-0.0011960706201282804,0.0,0.0,0.0,-159.95645354004722,308.817428631624,0.5365474017135747,36564.920026346,237.30158129388892,0.0,0.0,-0.0,0.0,0.0,0.0,0.517964833272,6864.07871503334,159.95642946570308
