time,eiPosition_m_X,eiPosition_m_Y,eiPosition_m_Z,gePosition_m_X,gePosition_m_Y,gePosition_m_Z,eiVelocity_m_s_X,eiVelocity_m_s_Y,eiVelocity_m_s_Z,feVelocity_m_s_X,feVelocity_m_s_Y,feVelocity_m_s_Z,altitudeMsl_m,longitude_rad,latitude_rad,localGravity_m_s2,eulerAngle_rad_Yaw,eulerAngle_rad_Pitch,eulerAngle_rad_Roll,bodyAngularRateWrtEi_rad_s_Roll,bodyAngularRateWrtEi_rad_s_Pitch,bodyAngularRateWrtEi_rad_s_Yaw,altitudeRateWrtMsl_m_s,speedOfSound_m_s,airDensity_kg_m3,ambientPressure_Pa,ambientTemperature_K,aero_bodyForce_N_X,aero_bodyForce_N_Y,aero_bodyForce_N_Z,aero_bodyMoment_Nm_L,aero_bodyMoment_Nm_M,aero_bodyMoment_Nm_N,mach,dynamicPressure_Pa,trueAirspeed_m_s
0.0,6387281.000000211,0.0,0.0,6387281.000000211,0.0,0.0,0.0,465.7678758931653,0.0,0.0,0.0,0.0,9144.000000001135,0.0,0.0,9.786072158121431,0.0,2.220446049250313e-16,0.0,0.0,0.0,1.6191747942405682e-20,-0.0,303.22998396963123,0.459050104915564,30149.23809906436,228.79937386033285,0.0,0.0,-0.0,0.0,0.0,0.0,0.0,0.0,0.0
0.1,6387280.951070665,46.57678747038719,0.0,6387280.951240487,2.3704505231376683e-07,0.0,-0.9786072207917328,465.76787232516654,0.0,0.0,7.111349112027982e-06,0.975210787860158,9143.951240278655,3.7112044095653856e-14,0.0,9.786072307774342,0.0,2.2204460493093495e-16,-7.292115037112027e-06,0.0,0.0,1.6191747942405682e-20,-0.9752107878601584,303.2301933872477,0.4590528033607389,30149.45696982614,228.79968988868498,0.0,0.0,0.0,0.0,0.0,0.0,0.0032160741547286,0.21828788966138662,0.9751981381001869
0.2000000000000001,6387280.804279581,93.15357422716276,0.0,6387280.804958866,1.8963596145997298e-06,0.0,-1.957214471462513,465.7678616209914,0.0,0.0,2.844539738748564e-05,1.9504216054958308,9143.804958657467,2.9689623370362255e-13,0.0,9.78607275674062,0.0,2.220446049486457e-16,-1.4584230296896261e-05,0.0,0.0,1.6191747942405682e-20,-1.950421605495831,303.23082164978723,0.45906089890512036,30150.11360086577,228.80063798967396,0.0,0.0,0.0,0.0,0.0,0.0,0.0064321350814261,0.873166983754333,1.9503963061310707
0.3000000000000002,6387280.55962777,139.73035955671483,0.0,6387280.561156164,6.400214735745014e-06,0.0,-2.935821781891391,465.7678437806981,0.0,0.0,6.400214605051383e-05,2.9256324826825355,9143.56115595511,1.0020249892681259e-12,0.0,9.786073505017823,0.0,2.2204460497816365e-16,-2.1876346002024573e-05,0.0,0.0,1.6191747942405682e-20,-2.925632482682535,303.2318687511929,0.45907439172264936,30151.20801173367,228.80221815808824,0.0,0.0,0.0,0.0,0.0,0.0,0.009648169552334,1.964683558652253,2.9255945340233502
0.4000000000000003,6387280.2171152225,186.30714274543158,0.0,6387280.219832369,1.5170879559501225e-05,0.0,-3.914429181957431,465.7678188042844,0.0,0.0,0.00011378159806539514,3.9008434491958033,9143.219832160226,2.375170500958447e-12,0.0,9.78607455260609,0.0,2.2204460501948897e-16,-2.916846237516864e-05,0.0,0.0,1.6191747942405682e-20,-3.9008434491958033,303.2333346872708,0.4590932821792727,30152.740241182415,228.80443039414664,0.0,0.0,0.0,0.0,0.0,0.0,0.0128641643402372,3.4929147451390996,3.90079285170774
0.5000000000000003,6387279.776741928,232.88392307970096,0.0,6387279.78098747,2.9630622416632102e-05,0.0,-4.893036701539708,465.76778669174735,0.0,0.0,0.00017778375737421653,4.876054534811174,9142.780987261463,4.6390049336544365e-12,0.0,9.786075899505596,0.0,2.2204460507262146e-16,-3.646057963900484e-05,0.0,0.0,1.6191747942405682e-20,-4.876054534811175,303.23521945213014,0.4591175707870783,30154.710343447503,228.80727469812607,0.0,0.0,0.0,0.0,0.0,0.0,0.0160801062187368,5.457968533650629,4.875991289114961
0.6000000000000004,6387279.238507876,279.46069984591026,0.0,6387279.244621457,5.120171440092145e-05,0.0,-5.871644370517319,465.767747443083,0.0,0.0,0.0002560086288275678,5.8512657693042165,9142.244621247464,8.016201020808183e-12,0.0,9.786077545716564,0.0,2.220446051375611e-16,-4.3752698016200535e-05,0.0,0.0,1.6191747942405682e-20,-5.8512657693042165,303.2375230381832,0.4591472582043153,30157.11838825009,228.81075107036156,0.0,0.0,0.0,0.0,0.0,0.0,0.0192959819625223,7.85998378161029,5.851189876175763
0.7000000000000005,6387278.602413047,326.03747233044635,0.0,6387278.61073431,8.13064259325759e-05,0.0,-6.850252218769384,465.76770105828655,0.0,0.0,0.0003484562181152175,6.826477182450513,9141.610734100064,1.272943156040418e-11,0.0,9.78607949123927,0.0,2.2204460521430793e-16,-5.1044817729431804e-05,0.0,0.0,1.6191747942405682e-20,-6.826477182450513,303.240245436175,0.45918234523578966,30159.96446083061,228.8148595112904,0.0,0.0,0.0,0.0,0.0,0.0,0.0225117783476427,10.699130222868865,6.826388642820916
0.8000000000000006,6387277.868457424,372.61423981969625,0.0,6387277.879326012,0.00012136702798805737,0.0,-7.8288602761750585,465.76764753735233,0.0,0.0,0.0004551265325285638,7.801688804025689,9140.879325803366,1.9001369641501184e-11,0.0,9.786081736074044,0.0,2.2204460530286196e-16,-5.833693900136951e-05,0.0,0.0,1.6191747942405682e-20,-7.801688804025689,303.2433866351443,0.4592228328323858,30163.248661911784,228.8196000213933,0.0,0.0,0.0,0.0,0.0,0.0,0.0257274821517801,13.97560847922902,7.8015876189812206
0.9000000000000007,6387277.036640984,419.1910016000457,0.0,6387277.050396541,0.00017280579341141824,0.0,-8.807468572613534,465.7675868802738,0.0,0.0,0.0005760195802674,8.776900663805401,9140.050396332388,2.705468888353448e-11,0.0,9.786084280221264,0.0,2.2204460540322326e-16,-6.562906205468797e-05,0.0,0.0,1.6191747942405682e-20,-8.7769006638054,303.2469466224725,0.45926872209172864,30166.971107754372,228.82497260126786,0.0,0.0,0.0,0.0,0.0,0.0,0.0289430801545184,17.689650074090718,8.776786834587519
1.0000000000000009,6387276.106963701,465.7677569578796,0.0,6387276.123945871,0.00023704499136942953,0.0,-9.786077137964032,465.7675190870434,0.0,0.0,0.000711135370232191,9.752112791565335,9139.123945661018,3.711206260220205e-11,0.0,9.786087123681357,0.0,2.2204460551539174e-16,-7.292118711206156e-05,0.0,0.0,1.6191747942405682e-20,-9.752112791565335,303.25092538384985,0.45932001425777486,30171.131930126594,228.83097725157714,0.0,0.0,0.0,0.0,0.0,0.0,0.0321585591376174,21.841517448175047,9.751986319570689
1.0999999999999897,6387275.079425547,512.3445051795826,0.0,6387275.099973972,0.00031550689142328893,0.0,-10.764686002105822,465.767444157653,0.0,0.0,0.0008604739128556617,10.72732521708123,9138.09997376427,4.939616448093527e-11,0.0,9.78609026645479,0.0,2.2204460563936744e-16,-8.021331439616287e-05,0.0,0.0,1.6191747942405682e-20,-10.727325217081232,303.2553229032665,0.45937671072072955,30175.731276300077,228.83761397303502,0.0,0.0,0.0,0.0,0.0,0.0,0.0353739058852852,26.431503977345088,10.727186103861639
1.1999999999999786,6387273.954026491,558.9212455515378,0.0,6387273.978480816,0.00040961376424786635,0.0,-11.743295194918229,465.7673620920933,0.0,0.0,0.0010240352196869277,11.702537970128875,9136.97848060695,6.412966871750049e-11,0.0,9.786093708542117,0.0,2.220446057751503e-16,-8.750544412966624e-05,0.0,0.0,1.6191747942405682e-20,-11.702537970128875,303.26013916306056,0.4594388130177151,30180.76930910731,228.8448827664796,0.0,0.0,0.0,0.0,0.0,0.0,0.0385891071844454,31.459933992569923,11.702386217391345
1.2999999999999676,6387272.730766496,605.4979773601285,0.0,6387272.759466365,0.0005207878815834948,0.0,-12.721904746280634,465.7672728903539,0.0,0.0,0.0012018193026292823,12.677751080484116,9135.75946615726,8.153525005044778e-11,0.0,9.786097449943902,0.0,2.220446059227404e-16,-9.479757653524773e-05,0.0,0.0,1.6191747942405682e-20,-12.677751080484116,303.26537414386087,0.45950632283206977,30186.246206888132,228.85278363278513,0.0,0.0,0.0,0.0,0.0,0.0,0.0418041498250139,36.92716280192194,12.677586690090843
1.3999999999999566,6387271.409645527,652.074699891736,0.0,6387271.442930587,0.0006504515150540024,0.0,-13.70051468607247,465.76717655242504,0.0,0.0,0.0013938261764349549,13.652964577922857,9134.442930377734,1.0183558360807294e-10,0.0,9.786101490660768,0.0,2.220446060821378e-16,-0.00010208971183557996,0.0,0.0,1.6191747942405682e-20,-13.652964577922859,303.2710278246259,0.45957924199390043,30192.16216353839,228.86131657292063,0.0,0.0,0.0,0.0,0.0,0.0,0.0450190206001663,42.8335767147425,13.652787551891217
1.4999999999999456,6387269.990663542,698.6514124327399,0.0,6387270.028873435,0.0008000269352403742,0.0,-14.679125044173244,465.76707307829395,0.0,0.0,0.001600055854824334,14.628178492221066,9133.028873226356,1.2525334479736804e-10,0.0,9.78610583069341,0.0,2.220446062533423e-16,-0.00010938185025334076,0.0,0.0,1.6191747942405682e-20,-14.628178492221066,303.2771001826397,0.45965757248007927,30198.51738851378,228.87048158794272,0.0,0.0,0.0,0.0,0.0,0.0,0.0482337063066091,49.1795930678892,14.627988832723611
1.5999999999999346,6387268.473820501,745.2281142695208,0.0,6387268.51729487,0.0009709364162002054,0.0,-15.65773585046254,465.76696246794836,0.0,0.0,0.001820508353881654,15.60339285315479,9131.517294661116,1.5201121004560752e-10,0.0,9.78611047004255,0.0,2.2204460643635406e-16,-0.00011667399201120622,0.0,0.0,1.6191747942405682e-20,-15.60339285315479,303.2835911934922,0.4597413164140535,30205.312106818874,228.88027867896616,0.0,0.0,0.0,0.0,0.0,0.0,0.0514481937448533,55.96566025406352,15.603190562519273
1.6999999999999236,6387266.859116356,791.804804688456,0.0,6387266.908194849,0.0011646022292961713,0.0,-16.63634713482001,465.7668447213748,0.0,0.0,0.002055183690391856,16.57860769050015,9129.908194640004,1.823318558681186e-10,0.0,9.786115408708955,0.0,2.2204460663117297e-16,-0.00012396613733185242,0.0,0.0,1.6191747942405682e-20,-16.57860769050015,303.29050083108064,0.45983047606591443,30212.54655901742,228.89070784716372,0.0,0.0,0.0,0.0,0.0,0.0,0.0546624697194857,63.1922577522592,16.578392771209504
1.7999999999999126,6387265.146551058,838.381482975922,0.0,6387265.201573315,0.0013824466474670377,0.0,-17.61495892712535,465.7667198385588,0.0,0.0,0.002304081882187019,17.55382303403331,9128.201573107373,2.1643795957094898e-10,0.0,9.786120646693481,0.0,2.2204460683779906e-16,-0.00013125828643795548,0.0,0.0,1.6191747942405682e-20,-17.553823034033314,303.297829067668,0.4599250538532226,30220.22100130449,228.90176909385463,0.0,0.0,0.0,0.0,0.0,0.0,0.057876521039429,70.85989616043443,17.55359548872564
1.899999999999901,6387263.336124554,884.9581484182934,0.0,6387263.397430225,0.0016258919435567162,0.0,-18.593571257258407,465.766587819485,0.0,0.0,0.002567202948285018,18.529038913530574,9126.397430015544,2.545521990232734e-10,0.0,9.786126183996993,0.0,2.220446070562325e-16,-0.00013855043955219318,0.0,0.0,1.6191747942405682e-20,-18.529038913530574,303.3055758737909,0.4600250523398893,30228.335705421105,228.91346242036474,0.0,0.0,0.0,0.0,0.0,0.0,0.0610903345182287,78.96911723004025,18.528798744999182
1.9999999999998903,6387261.427836788,931.5348003019435,0.0,6387261.495765513,0.0018963603910262783,0.0,-19.572184155099077,465.7664486641374,0.0,0.0,0.0028445469089588933,19.5042553587683,9124.495765305466,2.968972528028636e-10,0.0,9.78613202062043,0.0,2.22044607286473e-16,-0.00014584259689724686,0.0,0.0,1.6191747942405682e-20,-19.504255358768297,303.3137412183433,0.46013047423732617,30236.89095875332,228.92578782815144,0.0,0.0,0.0,0.0,0.0,0.0,0.0643038969743072,87.52049390296759,19.504002569961678
2.09999999999988,6387259.421687702,978.1114379132447,0.0,6387259.496579133,0.0021952742647300657,0.0,-20.550797650527375,465.76630237249867,0.0,9.617792156454576e-31,0.003136113785112987,20.47947239952298,9122.496578923774,3.4369580035159153e-10,0.0,9.78613815656477,0.0,2.220446075285208e-16,-0.00015313475869579437,0.0,0.0,1.6191747942405682e-20,-20.479472399522983,303.32232506850414,0.46024132240359056,30245.88706426888,228.93874531869366,0.0,0.0,0.0,0.0,0.0,0.0,0.067517195231249,96.51463035030723,20.479206993544796
2.1999999999998687,6387257.317677236,1024.6880605385668,0.0,6387257.399871013,0.0025240558381686515,0.0,-21.52941177342336,465.76614894455105,0.0,0.0,0.0034419035989068374,21.45469006557112,9120.399870804611,3.951705215793627e-10,0.0,9.786144591831052,0.0,2.2204460778237583e-16,-0.00016042692517051528,0.0,0.0,1.6191747942405682e-20,-21.45469006557113,303.3313273898159,0.4603575998444777,30255.32434061244,228.95233489360916,0.0,0.0,0.0,0.0,0.0,0.0,0.0707302161180531,105.95216201356556,21.45441204568024
2.2999999999998577,6387255.11580533,1071.2646674642776,0.0,6387255.2056411,0.0028841273860381873,0.0,-22.508026553667257,465.76598838027616,0.0,0.0,0.0037619163738243713,22.429908386689426,9118.20564089234,4.5154409729722213e-10,0.0,9.786151326420335,0.0,2.22044608048038e-16,-0.0001677190965440909,0.0,0.0,1.6191747942405682e-20,-22.429908386689423,303.3407481460875,0.4604793097123617,30265.20312201809,228.96655655450778,0.0,0.0,0.0,0.0,0.0,0.0,0.0739429464694247,115.83375564755802,22.429617756299894
2.3999999999998467,6387252.816071905,1117.8412579767426,0.0,6387252.913889316,0.0032769111840484665,0.0,-23.486642021139392,465.7658206796542,0.0,0.0,0.004096152134881988,23.40512739265467,9115.913889107474,5.130392092229086e-10,0.0,9.786158360333788,0.0,2.220446083255074e-16,-0.00017501127303920258,0.0,0.0,1.6191747942405682e-20,-23.40512739265467,303.35058729954176,0.4606064553081797,30275.523758477637,228.9814103032118,0.0,0.0,0.0,0.0,0.0,0.0,0.0771553731260095,126.16010936612308,23.404824155335724
2.499999999999836,6387250.418476901,1164.4178313623286,0.0,6387250.5246156,0.003703829508481972,0.0,-24.46525820572019,465.76564584266447,0.0,0.0,0.004444610906687836,24.38034711324375,9113.524615389839,5.798785399457783e-10,0.0,9.786165693572569,0.0,2.2204460861478403e-16,-0.00018230345487853163,0.0,0.0,1.6191747942405682e-20,-24.38034711324375,303.36084481063074,0.4607390400791476,30286.28661556252,228.99689614147655,0.0,0.0,0.0,0.0,0.0,0.0,0.0803674829347072,136.9319526889472,24.38003127271981
2.5999999999998247,6387247.923020241,1210.9943869073961,0.0,6387248.03781987,0.004166304635739692,0.0,-25.443875137290227,465.7654638692856,0.0,0.0,0.004807292716283527,25.355567578233696,9111.037819661084,6.522847728897303e-10,0.0,9.786173326137925,0.0,2.2204460891586783e-16,-0.0001895956422847646,0.0,0.0,1.6191747942405682e-20,-25.355567578233696,303.37152063819747,0.46087706762094366,30297.492074608876,229.01301407123344,0.0,0.0,0.0,0.0,0.0,0.0,0.0835792627489005,148.15004659162236,25.355239138384384
2.6999999999998137,6387245.329701847,1257.5709238983054,0.0,6387245.453502055,0.004665758842529062,0.0,-26.422492845730144,465.7652747594955,0.0,0.0,0.00518419759141132,26.330788817401622,9108.453501846268,7.304805923766234e-10,0.0,9.786181258031142,0.0,2.2204460922875886e-16,-0.00019688783548058283,0.0,0.0,1.6191747942405682e-20,-26.33078881740162,303.38261473938394,0.4610205416766279,30309.14053263789,229.02976409444955,0.0,0.0,0.0,0.0,0.0,0.0,0.086790699428746,159.8151835569982,26.330447782261725
2.799999999999802,6387242.638521645,1304.1474416214144,0.0,6387242.771662081,0.005203614405983049,0.0,-27.401111360920794,465.76507851327113,0.0,0.0,0.00557532556072226,27.30601086052483,9105.771661871588,8.14688683678916e-10,0.0,9.78618948925353,0.0,2.220446095534571e-16,-0.00020418003468867458,0.0,0.0,1.6191747942405682e-20,-27.30601086052483,303.39412706964225,0.46116946613688403,30321.232402383892,229.04714621314295,0.0,0.0,0.0,0.0,0.0,0.0,0.0900017798414412,171.92818762898705,27.305657234284354
2.899999999999792,6387239.84947955,1350.7239393630791,0.0,6387239.9922998585,0.005781293605451671,0.0,-28.379730712743086,465.7648751305885,0.0,0.0,0.005980676654191903,28.281233737380695,9102.992299648475,9.051317333341675e-10,0.0,9.786198019806505,0.0,2.2204460988996254e-16,-0.000211472240131723,0.0,0.0,1.6191747942405682e-20,-28.281233737380692,303.40605758280316,0.46132384504102747,30333.768112384892,229.06516042948533,0.0,0.0,0.0,0.0,0.0,0.0,0.0932124908614717,184.4899144688247,28.280867524384824
2.9999999999997806,6387236.962575474,1397.3004164096503,0.0,6387237.115415304,0.0064002187169808576,0.0,-29.358350931078107,465.7646646114224,0.0,0.0,0.006400250902565853,29.25645747774676,9100.115415095177,1.0020324283146205e-09,0.0,9.786206849691483,0.0,2.2204461023827515e-16,-0.00021876445203241807,0.0,0.0,1.6191747942405682e-20,-29.25645747774676,303.418406230985,0.4614836825759336,30346.74810690476,229.08380674566257,0.0,0.0,0.0,0.0,0.0,0.0,0.0964228193709046,197.50125141272878,29.256078682495875
3.0999999999997696,6387233.977809331,1443.87687204748,0.0,6387234.1410083305,0.007061812021755218,0.0,-30.33697204580711,465.7644469557478,0.0,0.0,0.006834048338399493,30.23168211140074,9097.141008123126,1.1056134573830433e-09,0.0,9.786215978909961,0.0,2.220446105983951e-16,-0.0002260566706134464,0.0,0.0,1.6191747942405682e-20,-30.23168211140074,303.43117296465266,0.4616489830769264,30360.172846014742,229.10308516396245,0.0,0.0,0.0,0.0,0.0,0.0,0.0996327522596393,210.96311753239553,30.2312907385504
3.1999999999997586,6387230.895181037,1490.4533055629154,0.0,6387231.069078855,0.00776749579831044,0.0,-31.31559408681144,465.7642221635371,0.0,0.0,0.007282068993562924,31.206907668120436,9094.069078646029,1.216097509907474e-09,0.0,9.786225407463448,0.0,2.220446109703221e-16,-0.00023334889609749796,0.0,0.0,1.6191747942405682e-20,-31.20690766812044,303.44435773258,0.4618197510274124,30374.04280557354,229.1229956867165,0.0,0.0,0.0,0.0,0.0,0.0,0.1028422764256851,224.8764636971604,31.20650372248141
3.299999999999748,6387227.714690488,1537.0297162423014,0.0,6387227.899626774,0.008518692327902885,0.0,-32.29421708397266,465.7639902347634,0.0,0.0,0.007744312903329947,32.182134177683885,9090.89962656396,1.3337072767359168e-09,0.0,9.786235135353564,0.0,2.220446113540564e-16,-0.00024064112870726467,0.0,0.0,1.6191747942405682e-20,-32.182134177683885,303.4579604819188,0.46199599105990313,30388.35847732045,229.1435383164024,0.0,0.0,0.0,0.0,0.0,0.0,0.1060513787754058,239.24227263893818,32.18171766422213
3.399999999999737,6387224.43633759,1583.6061033719811,0.0,6387224.632651989,0.00931682388420857,0.0,-33.27284106717247,465.7637511693983,0.0,0.0,0.008220780102705017,33.15736166986923,9087.632651780408,1.4586654486175828e-09,0.0,9.786245162581936,0.0,2.2204461174959795e-16,-0.00024793336866543817,0.0,0.0,1.6191747942405682e-20,-33.15736166986923,303.4719811581273,0.462177707955219,30403.12036882115,229.16471305553407,0.0,0.0,0.0,0.0,0.0,0.0,0.1092600462238079,254.0615590184806,33.15693259370588
3.4999999999997256,6387221.060122243,1630.1824662382942,0.0,6387221.268154407,0.01016331274927615,0.0,-34.25146606629271,465.7635049674126,0.0,0.0,0.008711470628225117,34.13259017445476,9084.268154197724,1.5911947187345323e-09,0.0,9.786255489150244,0.0,2.220446121569466e-16,-0.0002552256161947104,0.0,0.0,1.6191747942405682e-20,-34.13259017445477,303.48641970499,0.4623649066428881,30418.329003510877,229.18651990669073,0.0,0.0,0.0,0.0,0.0,0.0,0.1124682656948012,269.33536949431056,34.13214854086619
3.5999999999997145,6387217.586044344,1676.7588041275758,0.0,6387217.806133922,0.011059581213301193,0.0,-35.23009211121543,465.7632516287761,0.0,0.0,0.009216384517197463,35.107819721219,9080.806133712575,1.7315177827003523e-09,0.0,9.786266115060235,0.0,2.220446125761025e-16,-0.00026251787151777655,0.0,0.0,1.6191747942405682e-20,-35.107819721219,303.50127606463894,0.4625575922015576,30433.984920738974,229.20895887254656,0.0,0.0,0.0,0.0,0.0,0.0,0.1156760241214558,285.0647827938718,35.10736553563674
3.699999999999704,6387214.014103787,1723.3351163261602,0.0,6387214.246590428,0.01200705156050211,0.0,-36.208719231822826,465.76299115345796,0.0,0.0,0.00973552180818462,36.083050339940606,9077.246590219367,1.8798573363828607e-09,0.0,9.786277040313685,0.0,2.220446130070656e-16,-0.00026981013485733195,0.0,0.0,1.6191747942405682e-20,-36.0830503399406,303.51655017754035,0.46275576985896366,30450.08867577791,229.23202995584867,0.0,0.0,0.0,0.0,0.0,0.0,0.118883308446272,301.25090978660677,36.08258360795137
3.799999999999693,6387210.344300463,1769.911402120378,0.0,6387210.589523819,0.01300714607518466,0.0,-37.18734745799731,465.76272354142634,0.0,0.0,0.010268882540796657,37.05828206039842,9073.58952361023,2.036436076887577e-09,0.0,9.786288264912441,0.0,2.220446134498359e-16,-0.00027710240643607543,0.0,0.0,1.6191747942405682e-20,-37.05828206039842,303.5322419824952,0.4629594449920977,30466.64083984856,229.25573315941685,0.0,0.0,0.0,0.0,0.0,0.0,0.1220901056214441,317.8948935593022,37.05780278774418
3.8999999999996815,6387206.576634258,1816.4876607965546,0.0,6387206.834933979,0.014061287042072369,0.0,-38.16597681962144,465.7624487926483,0.0,0.0,0.010816466755829686,38.03351491237147,9069.834933770479,2.201476702643486e-09,0.0,9.786299788858395,0.0,2.220446139044134e-16,-0.00028439468647670387,0.0,0.0,1.6191747942405682e-20,-38.03351491237147,303.54835141666064,0.46316862312762674,30483.642000166565,229.28006848617318,0.0,0.0,0.0,0.0,0.0,0.0,0.125296402609116,334.99790949378934,38.03302310494934
3.9999999999996714,6387202.711105059,1863.063891641015,0.0,6387202.982820797,0.015170896747612248,0.0,-39.14460734657804,465.76216690709043,0.0,0.0,0.011378274494988815,39.00874892563904,9065.982820586569,2.37520191364144e-09,0.0,9.786311612153481,0.0,2.2204461437079814e-16,-0.00029168697520191617,0.0,0.0,1.6191747942405682e-20,-39.00874892563904,303.5648784155168,0.46338330994162724,30501.092759933163,229.30503593909063,0.0,0.0,0.0,0.0,0.0,0.0,0.128502186381658,352.5611653463606,39.008244589501366
4.099999999999704,6387198.747712746,1909.6400939400799,0.0,6387199.03318415,0.016337397479414918,0.0,-40.123239068750024,465.76187788471816,0.0,0.0,0.011954305801303852,39.983984129980485,9062.033183941548,2.5578344113805376e-09,0.0,9.78632373479969,0.0,2.2204461484899005e-16,-0.0002989792728344163,0.0,0.0,1.6191747942405682e-20,-39.98398412998048,303.58182291288796,0.463603511260017,30518.993738383095,229.33063552122223,0.0,0.0,0.0,0.0,0.0,0.0,0.1317074439219212,370.5859013298218,39.983467271334796
4.199999999999737,6387194.686457203,1956.2162669800637,0.0,6387194.986023927,0.017562211521305958,0.0,-41.101872016020515,465.7615817254973,0.0,0.0,0.0125445607194066,40.959220555175385,9057.986023719594,2.749596898127353e-09,0.0,9.78633615679905,0.0,2.220446153389892e-16,-0.0003062715795969048,0.0,0.0,1.6191747942405682e-20,-40.95922055517539,303.5991848409237,0.46382923305848517,30537.345570792102,229.35686723567179,0.0,0.0,0.0,0.0,0.0,0.0,0.1349121622235084,389.07339019737327,40.95869118038443
4.299999999999771,6387190.527338302,2002.7924100472817,0.0,6387190.84134,0.018846761164888592,0.0,-42.080506218272944,465.7612784293895,0.0,0.0,0.01314903929255083,41.93445823100364,9053.841339791268,2.9507120787602207e-09,0.0,9.78634887815366,0.0,2.220446158407956e-16,-0.0003135638957120892,0.0,0.0,1.6191747942405682e-20,-41.93445823100363,303.61696413016483,0.4640604814635056,30556.148908572814,229.38373108568956,0.0,0.0,0.0,0.0,0.0,0.0,0.1381163282910079,408.0249373295741,41.93391634658534
4.399999999999804,6387186.270355917,2049.3685224280453,0.0,6387186.59913224,0.02019246870127715,0.0,-43.05914170539084,465.760967996359,0.0,0.0,0.013767741568156567,42.9096971872452,9049.599132030533,3.1614026595090415e-09,0.0,9.78636189886566,0.0,2.2204461635440915e-16,-0.00032085622140267165,0.0,0.0,1.6191747942405682e-20,-42.9096971872452,303.63516070947026,0.4642972627515786,30575.404419226987,229.41122707456188,0.0,0.0,0.0,0.0,0.0,0.0,0.1413199291402856,427.4418808220681,42.90914279987272
4.4999999999998375,6387181.915509918,2095.944603408657,0.0,6387182.259400518,0.021600756417057266,0.0,-44.03777850725804,465.7606504263675,0.0,0.0,0.014400667592958912,43.88493745368037,9045.259400310213,3.38189134735677e-09,0.0,9.786375218937247,0.0,2.220446168798299e-16,-0.00032814855689136153,0.0,0.0,1.6191747942405682e-20,-43.88493745368037,303.65377450603944,0.46453958334968287,30595.112786396447,229.43935520564045,0.0,0.0,0.0,0.0,0.0,0.0,0.1445229517987379,447.3255915764532,43.88437057018203
4.599999999999871,6387177.462800173,2142.520652275419,0.0,6387177.822144707,0.023073046604751957,0.0,-45.016416653758505,465.7603257193763,0.0,0.0,0.015047817415641557,44.860179060089564,9040.82214449746,3.6124008517120673e-09,0.0,9.78638883837065,0.0,2.220446174170579e-16,-0.000335440902400868,0.0,0.0,1.6191747942405682e-20,-44.860179060089564,303.67280544543206,0.4647874498357332,30615.2747099148,229.468115482372,0.0,0.0,0.0,0.0,0.0,0.0,0.1477253833055423,467.6774733934151,44.85959968744893
4.699999999999904,6387172.912226544,2189.096668314631,0.0,6387173.287364664,0.0246107615587188,0.0,-45.995056174776536,465.75999387534574,0.0,0.0,0.015709191085658675,45.83542203625352,9036.287364454884,3.8531538838009474e-09,0.0,9.786402757168169,0.0,2.2204461796609305e-16,-0.00034273325815390213,0.0,0.0,1.6191747942405682e-20,-45.835422036253526,303.6922534515656,0.4650408689387231,30635.89090583402,229.4975079082907,0.0,0.0,0.0,0.0,0.0,0.0,0.1509272107119187,488.4989630678183,45.83483018160936
4.799999999999938,6387168.263788889,2235.6726508125857,0.0,6387168.65506025,0.026215323570163446,0.0,-46.97369710019656,465.7596548942354,0.0,0.0,0.016384788653512117,46.81066641195312,9031.655060041685,4.1043731559200826e-09,0.0,9.786416975332148,0.0,2.2204461852693544e-16,-0.0003500256243731766,0.0,0.0,1.6191747942405682e-20,-46.81066641195313,303.7121184467116,0.4652998475388748,30656.96210645187,229.5275324870111,0.0,0.0,0.0,0.0,0.0,0.0,0.15412842108139,509.79153048599915,46.810062082599394
4.899999999999971,6387163.517487072,2282.248599055574,0.0,6387163.92523133,0.027888154933800546,0.0,-47.95233945990339,465.7593087760036,0.0,0.0,0.017074610170543607,47.785912216969635,9026.925231121606,4.3662813825136785e-09,0.0,9.786431492864974,0.0,2.22044619099585e-16,-0.00035731800128140594,0.0,0.0,1.6191747942405682e-20,-47.78591221696964,303.7324003514631,0.46556439266741206,30678.48906030893,229.55818922217614,0.0,0.0,0.0,0.0,0.0,0.0,0.1573290014900584,531.5566787248432,47.78529542035551
5.000000000000004,6387158.673320947,2328.8245123298816,0.0,6387159.097877756,0.02963067794552963,0.0,-48.93098328378189,465.758955520608,0.0,0.0,0.017778655689489106,48.76115948108436,9022.097877548173,4.63910127984364e-09,0.0,9.786446309769094,0.0,2.2204461968404174e-16,-0.0003646103891013046,0.0,0.0,1.6191747942405682e-20,-48.76115948108436,303.7530990848001,0.4658345115076055,30700.472532289732,229.58947811755345,0.0,0.0,0.0,0.0,0.0,0.0,0.1605289390268302,553.7959441544713,48.76053022481425
5.100000000000038,6387153.731290366,2375.4003899217887,0.0,6387154.172999385,0.031444314900376066,0.0,-49.909628601717216,465.75859512800577,0.0,0.0,0.018496925264201672,49.7364082340789,9017.172999176048,4.92305556570117e-09,0.0,9.786461426046985,0.0,2.2204462028030586e-16,-0.000371902788055594,0.0,0.0,1.6191747942405682e-20,-49.73640823407891,303.77421456404204,0.4661102113943676,30722.913303605954,229.6213991769613,0.0,0.0,0.0,0.0,0.0,0.0,0.163728220793698,576.510896541604,49.73576652591238
5.200000000000071,6387148.691395178,2421.9762311175746,0.0,6387149.150596062,0.033330488097339746,0.0,-50.88827544359492,465.75822759815225,0.0,0.0,0.019229418949027792,50.711658505735244,9012.150595853072,5.218366960199967e-09,0.0,9.786476841701202,0.0,2.22044620888377e-16,-0.0003791951983669905,0.0,0.0,1.6191747942405682e-20,-50.711658505735244,303.79574670488336,0.4663914998149255,30745.812171867925,229.65395240432,0.0,0.0,0.0,0.0,0.0,0.0,0.1669268339059797,599.7031391563768,50.711004353587114
5.300000000000105,6387143.553635227,2468.552035203509,0.0,6387144.030667634,0.03529061983455778,0.0,-51.86692383930064,465.75785293100284,0.0,0.0,0.019976136800470643,51.686910325835505,9007.030667424828,5.525258185052853e-09,0.0,9.786492556734352,0.0,2.2204462150825547e-16,-0.00038648762025821716,0.0,0.0,1.6191747942405682e-20,-51.686910325835505,303.8176954213764,0.4666783844088054,30769.1699511003,229.68713780362316,0.0,0.0,0.0,0.0,0.0,0.0,0.1701247654925833,623.374308880598,51.68624373777579
5.400000000000138,6387138.318010358,2515.1278014658637,0.0,6387138.8132139435,0.0373261324124212,0.0,-52.84557381872035,465.75747112651186,0.0,0.0,0.020737078875249615,52.66216372416208,9001.813213734618,5.8439519640937776e-09,0.0,9.786508571149064,0.0,2.220446221399411e-16,-0.0003937800539519991,0.0,0.0,1.6191747942405682e-20,-52.66216372416206,303.84006062593295,0.4669708729680722,30792.987471778928,229.7209553789369,0.0,0.0,0.0,0.0,0.0,0.0,0.1733220026962624,647.5260763185524,52.66148470841602
5.500000000000171,6387132.984520409,2561.703529190901,0.0,6387133.4982348345,0.03943844813272784,0.0,-53.82422541174038,465.75708218463234,0.0,0.0,0.02151224523161722,53.637418730497714,8996.498234625748,6.1746710231792006e-09,0.0,9.786524884948031,0.0,2.220446227834339e-16,-0.0004010724996710594,0.0,0.0,1.6191747942405682e-20,-53.637418730497714,303.862842229316,0.4672689734374486,30817.26558085826,229.75540513438548,0.0,0.0,0.0,0.0,0.0,0.0,0.1765185326738772,672.1601459098871,53.63672729544579
5.600000000000205,6387127.553165221,2608.2792176648754,0.0,6387128.085730143,0.04162898929202112,0.0,-54.80287864824702,465.7566861053169,0.0,0.0,0.022301635928457866,54.612675374625184,8991.08572993471,6.5176380891792174e-09,0.0,9.786541498134007,0.0,2.22044623438734e-16,-0.0004083649576381283,0.0,0.0,1.6191747942405682e-20,-54.612675374625184,303.88604014067107,0.46757269391494677,30842.005141840848,229.79048707419565,0.0,0.0,0.0,0.0,0.0,0.0,0.1797143425966299,697.2782560454744,54.611971528803025
5.700000000000238,6387122.023944624,2654.854866174048,0.0,6387122.575699705,0.043899178201568995,0.0,-55.78153355812719,465.75628288851743,0.0,0.0,0.02310525102667446,55.58793368632783,8985.575699495728,6.873075893139544e-09,0.0,9.786558410709784,0.0,2.2204462410584116e-16,-0.00041565742807593423,0.0,0.0,1.6191747942405682e-20,-55.58793368632783,303.90965426750836,0.4678820426518703,30867.207034795858,229.8262012026668,0.0,0.0,0.0,0.0,0.0,0.0,0.1829094196503309,722.8821791847214,55.58721743842636
5.800000000000272,6387116.396858451,2701.430474004663,0.0,6387116.968143348,0.04625043716154724,0.0,-56.76019017126793,465.75587253418473,0.0,0.0,0.023923090587801895,56.5631936953891,8979.968143137343,7.241207166273593e-09,0.0,9.78657562267821,0.0,2.2204462478475566e-16,-0.0004229499112072091,0.0,0.0,1.6191747942405682e-20,-56.56319369538912,303.93368451571973,0.46819702805326435,30892.872156414658,229.86254752419333,0.0,0.0,0.0,0.0,0.0,0.0,0.1861037510356406,748.9737219757658,56.56246505425443
5.900000000000305,6387110.67190653,2748.006040442965,0.0,6387111.263060906,0.048684188475265844,0.0,-57.73884851755657,465.75545504226756,0.0,0.0,0.024755154672759926,57.53845543159286,8974.263060697183,7.62225464222379e-09,0.0,9.786593134042167,0.0,2.2204462547547724e-16,-0.0004302424072546885,0.0,0.0,1.6191747942405682e-20,-57.538455431592844,303.9581307895167,0.4685176586773524,30919.001419983884,229.899526043169,0.0,0.0,0.0,0.0,0.0,0.0,0.1892973239683607,775.554725376361,57.53771440622627
6.000000000000338,6387104.8490887,2794.581564775196,0.0,6387105.460452215,0.05120185445040075,0.0,-58.717508626880786,465.75503041271566,0.0,0.0,0.025601443345318144,58.51371892472312,8968.460452006066,8.01644105728851e-09,0.0,9.786610944804584,0.0,2.220446261780061e-16,-0.0004375349164411059,0.0,0.0,1.6191747942405682e-20,-58.513718924723115,303.98299299150096,0.4688439432366976,30945.595755499628,229.93713676408967,0.0,0.0,0.0,0.0,0.0,0.0,0.1924901256796447,802.6270647797204,58.5129655242812
6.100000000000372,6387098.928404744,2841.157046287588,0.0,6387099.560317061,0.05380485740719905,0.0,-59.69617052912846,465.7545986454771,0.0,0.0,0.026461956672512187,59.48898420456424,8962.560316851657,8.423989151740754e-09,0.0,9.786629054968556,0.0,2.2204462689234223e-16,-0.00044482743898920205,0.0,0.0,1.6191747942405682e-20,-59.48898420456424,304.00827102282193,0.469175890600523,30972.65610987644,229.97537969178913,0.0,0.0,0.0,0.0,0.0,0.0,0.1956821434161464,830.19265014501,59.488218438358764
6.200000000000405,6387092.909854521,2887.732484266373,0.0,6387093.562655302,0.05649461964313236,0.0,-60.67483425418784,465.75415974049895,0.0,-8.659769890870233e-31,0.027336694717435685,60.4642513009009,8956.562655093161,8.845121664328006e-09,0.0,9.786647464537017,0.0,2.2204462761848544e-16,-0.0004521199751217159,0.0,0.0,1.6191747942405682e-20,-60.46425130090089,304.0339647826875,0.46951350978853956,31000.18344646443,230.01425483069556,0.0,0.0,0.0,0.0,0.0,0.0,0.1988733644405829,858.2534261153497,60.46347317839887
6.300000000000439,6387086.793437835,2934.3078779977636,0.0,6387087.467466743,0.05927256346441427,0.0,-61.65349983194755,465.75371369772756,0.0,-8.180758758078064e-31,0.02822565754762641,61.43952024351817,8950.467466534139,9.280061337240942e-09,0.0,9.78666617351311,0.0,2.2204462835643597e-16,-0.0004594125250613916,0.0,0.0,1.6191747942405682e-20,-61.43952024351817,304.0600741689108,0.4698568099783841,31028.1787456761,230.053762185656,0.0,0.0,0.0,0.0,0.0,0.0,0.2020637760316375,886.8113721615423,61.43872977434179
6.400000000000472,6387080.579154494,2980.8832267679854,0.0,6387081.274751193,0.06214011119041447,0.0,-62.63216729229627,465.75326051710863,0.0,0.0,0.029128845231185304,62.41479106220113,8944.274750983832,9.72903091683848e-09,0.0,9.78668518189999,0.0,2.2204462910619363e-16,-0.0004667050890309733,0.0,0.0,1.6191747942405682e-20,-62.414791062201125,304.0865990776494,0.47020580050245986,31056.643004749818,230.09390176153872,0.0,0.0,0.0,0.0,0.0,0.0,0.2052533654843725,915.8685027100117,62.41398825612789
6.500000000000505,6387074.267004314,3027.4585298632546,0.0,6387074.984508467,0.06509868513816765,0.0,-63.61083666512326,465.75280019858644,0.0,0.0,0.03004625783691496,63.390063786735496,8937.984508258296,1.0192253151256448e-08,0.0,9.78670448970084,0.0,2.2204462986775847e-16,-0.00047399766725321035,0.0,0.0,1.6191747942405682e-20,-63.3900637867355,304.11353940340337,0.47056049084816476,31085.577237789686,230.13467356322613,0.0,0.0,0.0,0.0,0.0,0.0,0.208442120110483,945.4268672786644,63.3892486536981
6.600000000000539,6387067.856987099,3074.033786569772,0.0,6387068.596738373,0.06814970761686204,0.0,-64.58950798031807,465.75233274210495,0.0,0.0,0.030977895434943517,64.36533844690726,8931.5967381645,1.066995078957872e-08,0.0,9.786724096918913,0.0,2.220446306411306e-16,-0.0004812902599508504,0.0,0.0,1.6191747942405682e-20,-64.36533844690726,304.14089503908446,0.47092089065908777,31114.982475884713,230.17607759571746,0.0,0.0,0.0,0.0,0.0,0.0,0.2116300272384978,975.4885506170443,64.36451099699359
6.700000000000572,6387061.3491026545,3120.608996173741,0.0,6387062.1114407135,0.07129460094671032,0.0,-65.56818126777043,465.7518581476067,0.0,0.0,0.031923758096239395,65.34061507250256,8925.111440504874,1.1162346584825773e-08,0.0,9.78674400355752,0.0,2.2204463142630983e-16,-0.0004885828673466482,0.0,0.0,1.6191747942405682e-20,-65.34061507250256,304.16866587599964,0.4712870097350532,31144.859767134618,230.2181138640997,0.0,0.0,0.0,0.0,0.0,0.0,0.2148170742140365,1006.0556728467086,65.33977531595576
6.800000000000606,6387054.7433507815,3167.184157961356,0.0,6387055.528615294,0.0745347874759687,0.0,-66.54685655737057,465.75137641503386,0.0,0.0,0.03288384589295814,66.31589369330804,8918.52861508525,1.1669663296653343e-08,0.0,9.78676420961999,0.0,2.220446322232964e-16,-0.0004958754896633564,0.0,0.0,1.6191747942405682e-20,-66.31589369330804,304.1968518038187,0.4716588580319852,31175.210176661014,230.2607823734958,0.0,0.0,0.0,0.0,0.0,0.0,0.2180032484000801,1037.1303896034794,66.31504164052653
6.900000000000639,6387048.039731277,3213.7592712188107,0.0,6387048.848261909,0.0778716894957337,0.0,-67.52553387900885,465.7508875443278,0.0,5.297299586172247e-31,0.033858158898927244,67.29117433911053,8911.848261702384,1.2192123678046506e-08,0.0,9.786784715109734,0.0,2.2204463303209e-16,-0.0005031681271237351,0.0,0.0,1.6191747942405682e-20,-67.29117433911053,304.22545271063035,0.4720364456629226,31206.034786713146,230.30408312914574,0.0,0.0,0.0,0.0,0.0,0.0,0.2211885371771758,1068.7148921844653,67.2903100006479
7.000000000000672,6387041.2382439375,3260.334335232286,0.0,6387042.07038036,0.081306729322844,0.0,-68.50421326257616,465.7503915354285,0.0,0.0,0.03484669718819114,68.26645703969734,8905.070380150752,1.2729950488333335e-08,0.0,9.786805520030216,0.0,2.2204463385269106e-16,-0.0005104607799505422,0.0,0.0,1.6191747942405682e-20,-68.26645703969734,304.25446848291534,0.4724197828979543,31237.334696685677,230.34801613636247,0.0,0.0,0.0,0.0,0.0,0.0,0.224372927943702,1100.8114076952336,68.26558042626246
7.100000000000706,6387034.338888553,3306.909349287956,0.0,6387035.194970433,0.08484132927712382,0.0,-69.48289473796368,465.7498883882755,0.0,0.0,0.03584946083646631,69.24174182485605,8898.194970223698,1.3283366489656017e-08,0.0,9.78682662438492,0.0,2.2204463468509906e-16,-0.0005177534483665395,0.0,0.0,1.6191747942405682e-20,-69.24174182485604,304.2838990055436,0.47280888016448,31269.111023163496,230.39258140052422,0.0,0.0,0.0,0.0,0.0,0.0,0.2275564081161138,1133.4221991999686,69.240852947313
7.200000000000739,6387027.341664914,3353.4843126719966,0.0,6387028.2220319165,0.0884769116878369,0.0,-70.46157833506292,465.7493781028067,0.0,0.0,0.03686644991996347,70.21702872437461,8891.222031708892,1.3852594448015383e-08,0.0,9.786848028177422,0.0,2.220446355293144e-16,-0.0005250461325944955,0.0,0.0,1.6191747942405682e-20,-70.2170287243746,304.31374416179625,0.4732037480477913,31301.364899993114,230.43777892710446,0.0,0.0,0.0,0.0,0.0,0.0,0.2307389651291701,1166.5495658747923,70.21612759374274
7.300000000000771,6387020.246572813,3400.0592246705714,0.0,6387021.151564612,0.09221489887504354,0.0,-71.4402640837658,465.74886067896017,0.0,3.371862679850775e-31,0.03789766451608034,71.19231776804135,8884.151564405358,1.443785713038603e-08,0.0,9.78686973141127,0.0,2.2204463638533694e-16,-0.0005323388328571753,0.0,0.0,1.6191747942405682e-20,-71.19231776804133,304.34400383329495,0.4736043972904432,31334.097478255568,230.48360872156098,0.0,0.0,0.0,0.0,0.0,0.0,0.2339205864362304,1200.1958431605156,71.19140439549525
7.400000000000806,6387013.05361202,3446.6340845698405,0.0,6387013.9835682865,0.09605671317008907,0.0,-72.4189520139645,465.7483361166725,0.0,0.0,0.03894310470416428,72.16760898564488,8876.983568079186,1.5039377307958274e-08,0.0,9.786891734090183,0.0,2.2204463725316666e-16,-0.0005396315493773492,0.0,0.0,1.6191747942405682e-20,-72.16760898564488,304.374677900194,0.4740108387950999,31367.309926523496,230.53007078962335,0.0,0.0,0.0,0.0,0.0,0.0,0.2371012595093492,1234.3634029264244,72.16668338251438
7.500000000000839,6387005.762782332,3493.208891655954,0.0,6387006.718042736,0.10000377689514231,0.0,-73.39764215555161,465.74780441587984,0.0,0.0,0.04000277056364094,73.14290240697422,8869.718042528264,1.565737775296844e-08,0.0,9.786914036217809,0.0,2.220446381328035e-16,-0.0005469242823777911,0.0,0.0,1.6191747942405682e-20,-73.1429024069742,304.40576624090534,0.4744230836212103,31401.003430614597,230.57716513687294,0.0,0.0,0.0,0.0,0.0,0.0,0.2402809718397281,1269.0546536210502,73.14196458474437
7.600000000000873,6386998.374083513,3539.78364521506,0.0,6386999.354987732,0.10405751238473089,0.0,-74.37633453842017,465.7472655765167,0.0,0.0,0.041076662175261944,74.11819806181879,8862.354987523226,1.6292081242104778e-08,0.0,9.786936637797922,0.0,2.2204463902424765e-16,-0.0005542170320812767,0.0,0.0,1.6191747942405682e-20,-74.11819806181879,304.4372687323544,0.47484114298870284,31435.179193918928,230.6248917691263,0.0,0.0,0.0,0.0,0.0,0.0,0.2434597109377591,1304.2720404430684,74.11724803212995
7.700000000000906,6386990.8875153465,3586.358344533303,0.0,6386991.89440305,0.10821934197440711,0.0,-75.35502919246356,465.7467195985177,0.0,0.0,0.04216477962159003,75.09349597996848,8854.89440284152,1.694371055476683e-08,0.0,9.78695953883432,0.0,2.22044639927499e-16,-0.0005615097987105866,0.0,0.0,1.6191747942405682e-20,-75.09349597996847,304.46918524983624,0.4752650282764063,31469.83843729565,230.67325069221363,0.0,0.0,0.0,0.0,0.0,0.0,0.2466374643333746,1340.0180455011935,75.09253375461617
7.8000000000009395,6386983.303077602,3632.932988896811,0.0,6386984.336288461,0.11249068799152755,0.0,-76.33372614757546,465.74616648181603,0.0,0.0,0.04326712298540484,76.06879619121325,8847.336288253784,1.761248847165593e-08,0.0,9.786982739330863,0.0,2.220446408425576e-16,-0.0005688025824884997,0.0,0.0,1.6191747942405682e-20,-76.06879619121325,304.50151566707643,0.47569475102318093,31504.98239919164,230.72224191206763,0.0,0.0,0.0,0.0,0.0,0.0,0.2498142195762374,1376.2951879835127,76.06782178214831
7.900000000000973,6386975.620770043,3679.5075775917066,0.0,6386976.680643735,0.11687297276979765,0.0,-77.31242543365006,465.7456062263438,0.0,0.0,0.04438369235067353,77.04409872534383,8839.680643527247,1.8298637777086443e-08,0.0,9.787006239291458,0.0,2.2204464176942325e-16,-0.0005760953836378024,0.0,0.0,1.6191747942405682e-20,-77.04409872534383,304.53425985621953,0.4761303229280895,31540.612335682035,230.77186543470123,0.0,0.0,0.0,0.0,0.0,0.0,0.252989964235989,1413.1060243267796,77.04311214467235
8.000000000001005,6386967.8405924365,3726.0821099041145,0.0,6386968.927468639,0.12136761865043309,0.0,-78.2911270805818,465.74503883203255,0.0,0.0,0.045514487802966595,78.01940361215101,8831.927468431404,1.900238125920161e-08,0.0,9.787030038720049,0.0,2.2204464270809624e-16,-0.0005833882023812806,0.0,0.0,1.6191747942405682e-20,-78.019403612151,304.5674176878065,0.47657175585043926,31576.7295205006,230.82212126617065,0.0,0.0,0.0,0.0,0.0,0.0,0.2561646859025023,1450.4531483876522,78.01840487213427
8.10000000000095,6386959.962544547,3772.656585120148,0.0,6386961.076762934,0.12597604797193615,0.0,-79.26983111826561,465.7444642988135,0.0,0.0,0.04665950942904195,78.99471088142612,8824.076762726678,1.9723941708406942e-08,0.0,9.787054137620652,0.0,2.2204464365857635e-16,-0.0005906810389417274,0.0,0.0,1.6191747942405682e-20,-78.99471088142613,304.6009890308266,0.4770190618108037,31613.335245150625,230.87300941264945,0.0,0.0,0.0,0.0,0.0,0.0,0.2593383721860767,1488.339191619345,78.99369999448075
8.200000000000895,6386951.9866261305,3819.231002525911,0.0,6386953.128526381,0.13069968307296212,0.0,-80.24853757659685,465.7438826266154,0.0,0.0,0.04781875731545902,79.97002056296097,8816.12852617348,2.046354191785302e-08,0.0,9.787078535997328,0.0,2.220446446208637e-16,-0.0005979738935419338,0.0,0.0,1.6191747942405682e-20,-79.97002056296097,304.63497375268105,0.47747225299088036,31650.430818921035,230.92452988036908,0.0,0.0,0.0,0.0,0.0,0.0,0.2625110107177023,1526.766823247309,79.96899754165881
8.30000000000084,6386943.91283695,3865.8053614075025,0.0,6386945.082758739,0.13553994629566893,0.0,-81.22724648547118,465.7432938153678,0.0,0.0,0.048992231551004274,80.9453326865476,8808.08275853109,2.122140468399403e-08,0.0,9.787103233854165,0.0,2.220446455949583e-16,-0.0006052667664046967,0.0,0.0,1.6191747942405682e-20,-80.94533268654762,304.6693717191904,0.477931341733941,31688.01756895125,230.97668267562668,0.0,0.0,0.0,0.0,0.0,0.0,0.2656825891492874,1565.7387504490973,80.94429754361572
8.400000000000784,6386935.741176755,3912.3796610510153,0.0,6386936.9394597635,0.14049825998280052,0.0,-82.20595787478467,465.7426978649983,0.0,0.0,0.050179932225166805,81.92064728197853,8799.939459555388,2.1997752806165096e-08,0.0,9.787128231195318,0.0,2.2204464658086e-16,-0.0006125596577528157,0.0,0.0,1.6191747942405682e-20,-81.92064728197853,304.70418279460677,0.47839634054534486,31726.096840301805,231.0294678047995,0.0,0.0,0.0,0.0,0.0,0.0,0.2688530951538818,1605.2577185369892,81.91960003029934
8.500000000000728,6386927.471645293,3958.9539007425324,0.0,6386928.6986292,0.14557604648389985,0.0,-83.18467177443397,465.7420947754344,0.0,0.0,0.05138185942910848,82.89596437904673,8791.698628994296,2.2792809087589185e-08,0.0,9.787153528025007,0.0,2.2204464757856893e-16,-0.000619852567809093,0.0,0.0,1.6191747942405682e-20,-82.89596437904673,304.7394068416367,0.4788672620931958,31764.669996036893,231.08288527437463,0.0,0.0,0.0,0.0,0.0,0.0,0.2720225164258891,1645.3265111436588,82.89490503165786
8.600000000000673,6386919.104242323,4005.5280797681276,0.0,6386920.360266811,0.15077472813544035,0.0,-84.16338821431613,465.7414845466018,0.0,0.0,0.052598013253307666,83.87128400754578,8783.360266604823,2.3606796332300245e-08,0.0,9.787179124347466,0.0,2.2204464858808507e-16,-0.0006271454967963353,0.0,0.0,1.6191747942405682e-20,-83.87128400754578,304.77504372137014,0.479344119207763,31803.738417206365,231.1369350908383,0.0,0.0,0.0,0.0,0.0,0.0,0.2751908406813602,1685.9479504061535,83.8702125776401
8.700000000000617,6386910.63896757,4052.102197413873,0.0,6386911.924372319,0.15609572730099977,0.0,-85.14210722432843,465.74086717842675,0.0,0.0,0.05382839379296514,84.8466061972693,8774.924372112187,2.443993735146743e-08,0.0,9.787205020167056,0.0,2.2204464960940845e-16,-0.0006344384449373514,0.0,0.0,1.6191747942405682e-20,-84.84660619726928,304.8110932934586,0.47982692488422324,31843.3035030999,231.19161726094117,0.0,0.0,0.0,0.0,0.0,0.0,0.2783580556580627,1727.1248971638474,84.84552269819496
8.800000000000562,6386902.075820787,4098.676252965831,0.0,6386903.39094548,0.16154046632388994,0.0,-86.12082883436878,465.74024267083314,0.0,0.0,0.05507300114024182,85.82193097801155,8766.390945273399,2.529245495601216e-08,0.0,9.787231215488095,0.0,2.22044650642539e-16,-0.0006417314124549533,0.0,0.0,1.6191747942405682e-20,-85.82193097801154,304.8475554158462,0.48031569227943155,31883.366671012627,231.24693179128587,0.0,0.0,0.0,0.0,0.0,0.0,0.2815241491159543,1768.8602511381496,85.82083542327202
8.900000000000507,6386893.41480171,4145.250245710056,0.0,6386894.759986032,0.16711036756032152,0.0,-87.09955307433525,465.7396110237449,0.0,0.0,0.05633183539084273,86.79725837956708,8757.759985825029,2.616457196183501e-08,0.0,9.787257710315002,0.0,2.2204465168747677e-16,-0.0006490243995719555,0.0,0.0,1.6191747942405682e-20,-86.79725837956708,304.8844299449955,0.4808104347153214,31923.92935655411,231.3028786886658,0.0,0.0,0.0,0.0,0.0,0.0,0.284689108837206,1811.1569511378707,86.79615078282107
9.000000000000451,6386884.655910081,4191.824174932594,0.0,6386886.031493714,0.17280685335997578,0.0,-88.07827997412674,465.73897223708497,0.0,0.0,0.05760489664082945,87.77258843173114,8749.031493507055,2.705651118680774e-08,0.0,9.787284504652218,0.0,2.220446527442218e-16,-0.0006563174065111766,0.0,0.0,1.6191747942405682e-20,-87.77258843173114,304.92171673578815,0.48131116567795945,31964.993013601776,231.3594579599103,0.0,0.0,0.0,0.0,0.0,0.0,0.2878529226265212,1854.0179752519578,87.77146880679261
9.100000000000396,6386875.799145628,4238.398039919487,0.0,6386877.205468255,0.17863134608623876,0.0,-89.05700956364241,465.7383263107746,0.0,0.0,0.05889218498710494,88.74792116429933,8740.2054680481,2.7968495453975512e-08,0.0,9.787311598504274,0.0,2.220446538127739e-16,-0.0006636104334954416,0.0,0.0,1.6191747942405682e-20,-88.74792116429933,304.95941564159193,0.48181789881881293,32006.559114436153,231.41666961198055,0.0,0.0,0.0,0.0,0.0,0.0,0.2910155783112992,1897.4463410527765,88.74678952513756
9.20000000000034,6386866.844508076,4284.971839956757,0.0,6386868.281909389,0.18458526808924594,0.0,-90.0357418727817,465.7376732447353,0.0,0.0,0.06019370052796778,89.72325660706744,8731.281909182462,2.89007475873705e-08,0.0,9.787338991875714,0.0,2.2204465489313326e-16,-0.000670903480747571,0.0,0.0,1.6191747942405682e-20,-89.72325660706744,304.9975265141898,0.48233064795420183,32048.629149727614,231.47451365185924,0.0,0.0,0.0,0.0,0.0,0.0,0.2941770637419256,1941.4451057951223,89.72211296780698
9.300000000000283,6386857.791997163,4331.5455743304365,0.0,6386859.260816847,0.19067004173437804,0.0,-91.01447693144495,465.73701303888714,0.0,-6.25532185175659e-31,0.06150944336290522,90.69859478983221,8722.26081664104,2.9853490416507514e-08,0.0,9.787366684771138,0.0,2.220446559852998e-16,-0.0006781965484903982,0.0,0.0,1.6191747942405682e-20,-90.69859478983221,305.03604920382224,0.482849427066254,32091.20462864676,231.53299008660923,0.0,0.0,0.0,0.0,0.0,0.0,0.2973373667919604,1986.0173666235323,90.69743916475288
9.40000000000023,6386848.6416126,4378.119242326539,0.0,6386850.14219034,0.19688708938853575,0.0,-91.99321476953239,465.73634569314925,0.0,0.0,0.06283941359266142,91.6739357423903,8713.142190134284,3.082694677426927e-08,0.0,9.787394677195257,0.0,2.220446570892735e-16,-0.0006854896369467528,0.0,0.0,1.6191747942405682e-20,-91.6739357423903,305.0749835592628,0.4833742503043233,32134.28707901331,231.592098923484,0.0,0.0,0.0,0.0,0.0,0.0,0.3004964753582837,2031.166260784341,91.67276814592721
9.500000000000174,6386839.393354113,4424.692843231069,0.0,6386840.926029602,0.20323783341242962,0.0,-92.97195541694516,465.73567120743996,0.0,0.0,0.06418361131840665,92.64927949453924,8703.926029395365,3.182133949573299e-08,0.0,9.787422969152736,0.0,2.2204465820505455e-16,-0.0006927827463394698,0.0,0.0,1.6191747942405682e-20,-92.64927949453926,305.11432942763713,0.4839051319829495,32177.87804716167,231.65184016964815,0.0,0.0,0.0,0.0,0.0,0.0,0.3036543773614976,2076.89496582613,92.64809994128277
9.60000000000012,6386830.04722142,4471.266376330028,0.0,6386831.612334345,0.20972369617428746,0.0,-93.95069890358472,465.7349895816769,0.0,0.0,0.06554203664284593,93.62462607607686,8694.612334139272,3.2836891420350866e-08,0.0,9.78745156064835,0.0,2.220446593326427e-16,-0.000700075876891391,0.0,0.0,1.6191747942405682e-20,-93.62462607607686,305.1540866545999,0.48444208658466187,32221.97909820423,231.7122138324421,0.0,0.0,0.0,0.0,0.0,0.0,0.3068110607459733,2123.206699822628,93.62343458077268
9.700000000000063,6386820.603214238,4517.839840909399,0.0,6386822.201104292,0.2163461000343585,0.0,-94.92944525935316,465.73430081577703,0.0,0.0,0.06691468966987243,94.59997551680162,8685.20110408669,3.387382538955786e-08,0.0,9.7874804516869,0.0,2.220446604720381e-16,-0.0007073690288253583,0.0,0.0,1.6191747942405682e-20,-94.59997551680162,305.19425508423683,0.48498512875905747,32266.5918159895,231.77321991922773,0.0,0.0,0.0,0.0,0.0,0.0,0.309966513480169,2170.1047215828876,94.59877209435066
9.800000000000008,6386811.061332275,4564.413236255173,0.0,6386812.692339147,0.2231064673753368,0.0,-95.90819451415257,465.73360490965575,0.0,8.659769890870233e-31,0.06830157050422123,95.57532784651205,8675.69233894239,3.493236425156924e-08,0.0,9.787509642273273,0.0,2.220446616232406e-16,-0.000714662202364217,0.0,0.0,1.6191747942405682e-20,-95.57532784651205,305.2348345591597,0.48553427332450505,32311.717803276264,231.83485843752814,0.0,0.0,0.0,0.0,0.0,0.0,0.3131207235567523,2217.5923308753286,95.57411251197061
9.899999999999952,6386801.421575238,4610.98656165332,0.0,6386803.086038627,0.2300062205653703,0.0,-96.88694669788613,465.7329018632281,0.0,0.0,0.06970267925181593,96.55068309500761,8666.086038422505,3.601273085562281e-08,0.0,9.787539132412352,0.0,2.2204466278625036e-16,-0.000721955397730818,0.0,0.0,1.6191747942405682e-20,-96.55068309500761,305.27582492039267,0.4860895352670377,32357.35868167707,231.89712939485113,0.0,0.0,0.0,0.0,0.0,0.0,0.3162736789929355,2265.672868642083,96.54945586358724
9.999999999999895,6386791.6839428395,4657.559816389806,0.0,6386793.382202433,0.23704678197879958,0.0,-97.86570184045713,465.73219167640815,0.0,0.0,0.07111801601956044,97.5260412920881,8656.382202229544,3.7115148055260224e-08,0.0,9.787568922109122,0.0,2.2204466396106733e-16,-0.0007292486151480133,0.0,0.0,1.6191747942405682e-20,-97.5260412920881,305.31722600748253,0.4866509297422644,32403.516091850335,231.9600327988508,0.0,0.0,0.0,0.0,0.0,0.0,0.3194253678305793,2314.3497172294324,97.52480217915563
10.099999999999842,6386781.848434772,4704.132999750587,0.0,6386783.5808302695,0.24422957399835285,0.0,-98.84445997176954,465.731474349109,0.0,0.0,0.07254758091596333,98.50140246755377,8646.58083006488,3.823983870870467e-08,0.0,9.7875990113686,0.0,2.2204466514769143e-16,-0.0007365418548386643,0.0,0.0,1.6191747942405682e-20,-98.50140246755377,305.3590376584486,0.4872184720751225,32450.191693515473,232.02356865724707,0.0,0.0,0.0,0.0,0.0,0.0,0.3225757781364605,2363.6263006113168,98.50015148863142
10.199999999999786,6386771.915050743,4750.706111021612,0.0,6386773.681921838,0.2515560189978225,0.0,-99.82322112172781,465.7307498812432,0.0,0.0,0.07399137404995912,99.47676665120555,8636.681921633291,3.938702567618255e-08,0.0,9.78762940019584,0.0,2.220446663461228e-16,-0.0007438351170256285,0.0,0.0,1.6191747942405682e-20,-99.47676665120555,305.40125970976624,0.48779217776009487,32497.387165506516,232.08773697779574,0.0,0.0,0.0,0.0,0.0,0.0,0.325724898002505,2413.5060846174147,99.47550382197068
10.29999999999973,6386761.883790447,4797.279149488818,0.0,6386763.685476839,0.259027539360594,0.0,-100.80198532023674,465.73001827272185,0.0,0.0,0.07544939553174025,100.45213387284448,8626.685476635012,4.055693182285869e-08,0.0,9.787660088595949,0.0,2.2204466755636135e-16,-0.0007511284019317723,0.0,0.0,1.6191747942405682e-20,-100.4521338728445,305.4438919964043,0.4883720624621535,32545.104205885975,232.15253776834052,0.0,0.0,0.0,0.0,0.0,0.0,0.3288727155459621,2463.992577167445,100.45085920912993
10.399999999999675,6386751.754653579,4843.852114438132,0.0,6386753.591494963,0.2666455574661188,0.0,-101.78075259720188,465.7292795234555,0.0,0.0,0.07692164547234157,101.42750416227263,8616.591494758924,4.174978001675249e-08,0.0,9.787691076574106,0.0,2.220446687784072e-16,-0.0007584217097799635,0.0,0.0,1.6191747942405682e-20,-101.42750416227258,305.4869343518572,0.48895814201764803,32593.34453205462,232.21797103685668,0.0,0.0,0.0,0.0,0.0,0.0,0.3320192189095846,2515.0893285081993,101.4262176800664
10.49999999999962,6386741.527639828,4890.425005155478,0.0,6386743.399975905,0.27441149570334505,0.0,-102.75952298252905,465.72853363335383,0.0,0.0,0.07840812398447156,102.40287754929211,8606.399975700724,4.296579313087484e-08,0.0,9.78772236413552,0.0,2.220446700122602e-16,-0.0007657150407930739,0.0,0.0,1.6191747942405682e-20,-102.40287754929213,305.53038660807096,0.4895504324337459,32642.10988074254,232.28403679133373,0.0,0.0,0.0,0.0,0.0,0.0,0.3351643962619177,2566.799931445927,102.40157926473758
10.599999999999564,6386731.20274886,4936.997820926771,0.0,6386733.110919329,0.2823267764823285,0.0,-103.73829650612473,465.7277806023258,0.0,0.0,0.0799088311835526,103.37825406370578,8596.110919127717,4.4205194045080305e-08,0.0,9.787753951285515,0.0,2.2204467125792026e-16,-0.0007730083951939838,0.0,0.0,1.6191747942405682e-20,-103.37825406370577,305.5742485955964,0.4901489498909778,32691.402008256304,232.3507350400033,0.0,0.0,0.0,0.0,0.0,0.0,0.3383082357973442,2619.128021597467,103.37694399310168
10.699999999999507,6386720.779980399,4983.570561037912,0.0,6386722.724324963,0.2903928221593857,0.0,-104.71707319789596,465.72702043027874,0.0,0.0,0.08142376718030435,104.35363373531706,8585.724324761715,4.546820563438162e-08,0.0,9.787785838029304,0.0,2.2204467251538767e-16,-0.0007803017732055717,0.0,0.0,1.6191747942405682e-20,-104.35363373531708,305.61852014323927,0.4907537107389241,32741.22269016163,232.41806579080193,0.0,0.0,0.0,0.0,0.0,0.0,0.3414507257366792,2672.077277608017,104.35231189511732
10.799999999999454,6386710.259334113,5030.143224774789,0.0,6386712.240192473,0.2986110551341142,0.0,-105.69585308775025,465.7262531171204,0.0,0.0,0.08295293209259609,105.32901659392984,8575.240192272298,4.675505078417544e-08,0.0,9.787818024372298,0.0,2.220446737846621e-16,-0.0007875951750507177,0.0,0.0,1.6191747942405682e-20,-105.32901659392981,305.66320107851857,0.49136473150293375,32791.57372187513,232.4860290520631,0.0,0.0,0.0,0.0,0.0,0.0,0.3445918543268745,2725.6514214299486,105.32768300074383
10.899999999999398,6386699.640809675,5076.715811423291,0.0,6386701.658521538,0.3069828978128131,0.0,-106.67463620559558,465.72547866275664,0.0,0.0,0.08449632603712974,106.30440266934848,8564.658521336987,4.806595238454846e-08,0.0,9.787850510319908,0.0,2.2204467506574387e-16,-0.0007948886009523146,0.0,0.0,1.6191747942405682e-20,-106.30440266934848,305.7082912274134,0.49198202888114034,32842.45691845747,232.55462483212676,0.0,0.0,0.0,0.0,0.0,0.0,0.347731609841503,2779.854218553373,106.30305733994079
10.999999999999345,6386688.924406763,5123.288320269295,0.0,6386690.979311832,0.31550977259016183,0.0,-107.65342258134062,465.72469706709285,0.0,0.0,0.08605394913144968,107.27979199137796,8553.979311631045,4.940113332744304e-08,0.0,9.787883295877622,0.0,2.220446763586328e-16,-0.0008021820511332549,0.0,0.0,1.6191747942405682e-20,-107.27979199137796,305.7537904144098,0.4926056197455812,32893.87411474489,232.623853139406,0.0,0.0,0.0,0.0,0.0,0.0,0.3508699805809148,2834.6894782610184,107.27843494266855
11.099999999999287,6386678.110125052,5169.860750598663,0.0,6386680.2025630325,0.3241931018620089,0.0,-108.63221224489452,465.7239083300334,0.0,0.0,0.0876258014946358,108.25518458982387,8543.202562831995,5.076081650869367e-08,0.0,9.787916381050938,0.0,2.2204467766332897e-16,-0.0008094755258164326,0.0,0.0,1.6191747942405682e-20,-108.25518458982387,305.79969846248525,0.4932355211424553,32945.82716541009,232.69371398235737,0.0,0.0,0.0,0.0,0.0,0.0,0.3540069548724606,2890.1610538811983,108.25381583888803
11.199999999999232,6386667.1979642045,5216.433101697257,0.0,6386669.328274803,0.333034308044754,0.0,-109.6110052261669,465.72311245148165,0.0,0.0,0.08921188324695742,109.23058049449207,8532.32827460374,5.214522483109587e-08,0.0,9.787949765845445,0.0,2.220446789798322e-16,-0.000816769025224751,0.0,0.0,1.6191747942405682e-20,-109.23058049449209,305.8460151931793,0.4938717502935877,32998.31794512327,232.76420736958383,0.0,0.0,0.0,0.0,0.0,0.0,0.3571425210706132,2946.2728430506645,109.22920005856044
11.299999999999176,6386656.187923895,5263.005372850915,0.0,6386658.356446822,0.3420348135248988,0.0,-110.5898015550681,465.72230943134065,0.0,0.0,0.09081219450938761,110.20597973518944,8521.35644662267,5.3554581196541006e-08,0.0,9.787983450266744,0.0,2.220446803081428e-16,-0.0008240625495811144,0.0,0.0,1.6191747942405682e-20,-110.20597973518944,305.8927404264865,0.49451432459543887,33051.348348511,232.8353333096659,0.0,0.0,0.0,0.0,0.0,0.0,0.3602766675572966,3003.0287879660114,110.20458763164784
11.39999999999912,6386645.080003782,5309.577563345467,0.0,6386647.287078746,0.35119604071227545,0.0,-111.56860126150906,465.72149926951187,0.0,-1.6342732765850548e-30,0.09242673540422766,111.1813823417231,8510.28707854701,5.498910851438491e-08,0.0,9.788017434320523,0.0,2.220446816482605e-16,-0.000831356099108428,0.0,0.0,1.6191747942405682e-20,-111.18138234172311,305.93987398098983,0.49516326162144236,33104.92029039011,232.90709181135975,0.0,0.0,0.0,0.0,0.0,0.0,0.3634093827419314,3060.4328756574923,111.17997858811289
11.499999999999066,6386633.874203531,5356.14967246675,0.0,6386636.120170239,0.36051941202281534,0.0,-112.54740437540104,465.72068196589623,0.0,0.0,0.09405550605455228,112.15678834390077,8499.120170040662,5.6449029698783756e-08,0.0,9.788051718012495,0.0,2.2204468300018544e-16,-0.00083864967402961,0.0,0.0,1.6191747942405682e-20,-112.15678834390079,305.98741567376305,0.4958185791211578,33159.035705739414,232.97948288344327,0.0,0.0,0.0,0.0,0.0,0.0,0.3665406550617489,3118.4891382468613,112.15537295791853
11.59999999999901,6386622.5705227945,5402.721699500579,0.0,6386624.855720962,0.37000634986762004,0.0,-113.52621092665612,465.7198575203941,0.0,0.0,0.09569850658504152,113.13219777153081,8487.855720765254,5.793456766701714e-08,0.0,9.788086301348416,0.0,2.220446843639175e-16,-0.0008459432745675743,0.0,0.0,1.6191747942405682e-20,-113.1321977715308,306.03536532040823,0.496480295021289,33213.69654982567,233.05250653476713,0.0,0.0,0.0,0.0,0.0,0.0,0.3696704729819484,3177.201653219152,113.13077077102847
11.699999999998957,6386611.168961227,5449.293643732765,0.0,6386613.493730567,0.3796582766698709,0.0,-114.50502094518664,465.7190259329047,0.0,0.0,0.09735573712156484,114.10761065442198,8476.493730369928,5.944594534216964e-08,0.0,9.788121184334138,0.0,2.2204468573945686e-16,-0.0008532369009452464,0.0,0.0,1.6191747942405682e-20,-114.10761065442198,306.0837227351026,0.49714842742684545,33268.904798341966,233.1261627743213,0.0,0.0,0.0,0.0,0.0,0.0,0.3727988249958378,3236.5745436985594,114.10617205740681
