time,eiPosition_m_X,eiPosition_m_Y,eiPosition_m_Z,gePosition_m_X,gePosition_m_Y,gePosition_m_Z,eiVelocity_m_s_X,eiVelocity_m_s_Y,eiVelocity_m_s_Z,feVelocity_m_s_X,feVelocity_m_s_Y,feVelocity_m_s_Z,altitudeMsl_m,longitude_rad,latitude_rad,localGravity_m_s2,eulerAngle_rad_Yaw,eulerAngle_rad_Pitch,eulerAngle_rad_Roll,bodyAngularRateWrtEi_rad_s_Roll,bodyAngularRateWrtEi_rad_s_Pitch,bodyAngularRateWrtEi_rad_s_Yaw,altitudeRateWrtMsl_m_s,speedOfSound_m_s,airDensity_kg_m3,ambientPressure_Pa,ambientTemperature_K,aero_bodyForce_N_X,aero_bodyForce_N_Y,aero_bodyForce_N_Z,aero_bodyMoment_Nm_L,aero_bodyMoment_Nm_M,aero_bodyMoment_Nm_N,mach,dynamicPressure_Pa,trueAirspeed_m_s,feVelocity_m_s_Z_1
0.0,6387281.000000001,0.0,0.0,6387281.000000001,0.0,0.0,0.0,465.76787589315,0.0,0.0,0.0,0.0,9144.0,0.0,0.0,9.786072158144812,0.0,-0.0,0.0,0.0,0.0,1.1726615295546747e-20,-0.0,303.22990953514415,0.4590410846190738,30148.630867738,228.7993739345824,4.76345496676923e-18,0.015558624642095053,-0.0,-0.0,0.0,-0.0,0.0201035570353269,8.529262313261823,6.095994788154602,0.0
0.0099999997764825,6387280.999510699,4.657678812134825,2.997749936415907e-20,6387280.999512397,5.355930287436195e-08,2.997749936415908e-20,-0.09786063972094695,465.7678865203379,5.995497326953609e-18,2.4058521315562272e-20,1.0733981788234013e-05,0.09752099641783404,9143.999512398042,8.385305559353135e-15,4.693311499282331e-27,9.786072159641359,-1.371494413858411e-43,3.76158192263107e-37,-7.292115083853057e-07,0.0,0.0,1.1726615295546747e-20,-0.09752099641783404,303.22991162934085,0.4590411116037508,30148.63305645277,228.79937709489656,4.784773890315872e-18,0.015560561710344187,-0.00024891977791736443,-0.0,0.0,-0.0,0.0201060939580202,8.53141557011924,6.096764067817687,0.09752099641783404
0.0199999995529651,6387280.9980427865,9.315357730184257,1.1990984445149756e-19,6387280.99804958,2.1516909554577524e-07,1.1990984445149756e-19,-0.1957211054446803,465.7678970774229,1.199096286039581e-17,4.809590481103682e-20,2.161144856984195e-05,0.19504181881502264,9143.998049579672,3.368711907484254e-14,1.8773222046769706e-26,9.786072164131024,-1.0971955438132219e-42,1.504632769052128e-36,-1.4584230336871194e-06,0.0,0.0,1.1726615295546747e-20,-0.19504181881502264,303.2299179119845,0.45904119255848025,30148.63962265392,228.7993865759201,4.80235997833568e-18,0.015566480226574699,-0.0004980293378244715,-0.0,0.0,0.0,0.0201137736439704,8.537935272293893,6.0990925125122075,0.19504181881502264
0.0299999993294477,6387280.995596274,13.973036753472378,2.697967519892506e-19,6387280.995611558,4.86289329256806e-07,2.697967519892506e-19,-0.2935814004165554,465.7679075685651,1.7986421483153274e-17,7.213683459961875e-20,3.263655966847225e-05,0.2925624704368031,9143.995611557382,7.613401220189245e-14,4.2239687305853165e-26,9.786072171613782,-6.583173339925834e-42,6.018531076206512e-36,-2.187634576134013e-06,0.0,0.0,1.1726615295546747e-20,-0.2925624704368031,303.2299283830211,0.4590413274825929,30148.650566287695,228.79940237757197,4.866577424735638e-18,0.015576375576806887,-0.0007475195397976201,-0.0,0.0,0.0,0.0201265886425972,8.54882070631432,6.102978650402069,0.2925624704368031
0.0399999991059303,6387280.992171158,18.630715881353364,4.796382102385395e-19,6387280.992198331,8.684100546247465e-07,4.796382102385397e-19,-0.39144152434036694,465.76791799648703,2.3981866813059936e-17,9.617494666045047e-20,4.381203719195858e-05,0.39008295098684187,9143.992198331174,1.3595926900436282e-13,7.509270546017752e-26,9.786072182089624,2.117582368133499e-22,3.0883312147762705e-28,-2.916846135959269e-06,0.0,0.0,1.1726615295546747e-20,-0.39008295098684187,303.2299430424503,0.4590415163761254,30148.665887357987,228.79942449985225,4.8618265716902616e-18,0.015590240125963713,-0.0009975807474379122,-0.0,0.0,-0.0,0.0201445277780294,8.564072585651981,6.108419047203064,0.39008295098684187
0.050000000745058,6387280.987767442,23.28839511320862,7.49434061817834e-19,6387280.987809897,1.3630485255134774e-06,7.49434061817834e-19,-0.4893014767897017,465.7679283639052,2.9977299663848596e-17,1.2021108084506605e-19,5.514059701091302e-05,0.4876032600385875,9143.98780989764,2.134004325337887e-13,1.1733225190000662e-25,9.786072195558566,-1.3166346992246355e-40,7.222237291440137e-35,-3.6460577134004326e-06,0.0,0.0,1.1726615295546747e-20,-0.48760326003858745,303.22996189028623,0.4590417592393174,30148.685585885512,228.799452942783,4.8522220426324464e-18,0.015608063239514062,-0.0012484025966660738,-0.0,0.0,0.0,0.0201675817370414,8.583690910306872,6.11540977801895,0.4876032600385875
0.0599999986588954,6387280.982385129,27.946074448446634,1.0791840348877346e-18,6387280.982446267,1.9717491161941327e-06,1.0791840348877351e-18,-0.5871612572085193,465.7679386735274,3.597269650515522e-17,1.4422174084615998e-19,6.662494647171268e-05,0.5851233970358515,9143.982446267,3.086992918603327e-13,1.6895828410454835e-25,9.786072212020574,-4.235164736261367e-22,-9.264993143939727e-28,-4.375269308699291e-06,0.0,0.0,1.1726615295546747e-20,-0.5851233970358514,303.2299849264841,0.4590420560716687,30148.709661831315,228.79948770629804,4.929902959994604e-18,0.015629831323654423,-0.0015001737596673456,-0.0,0.0,-0.0,0.0201957300305366,8.607674966807542,6.123945446117401,0.5851233970358515
0.0700000002980232,6387280.976024219,32.60375388650296,1.4688880676911592e-18,6387280.976107433,2.6960832011468483e-06,1.4688880676911597e-18,-0.685020864911891,465.76794892805157,4.196809840121606e-17,1.6824803284941178e-19,7.826778314903897e-05,0.6826433612935475,9143.976107433577,4.2210186325479423e-13,2.2997079245233645e-25,9.786072231475668,-2.457718164604669e-40,9.629649721904816e-35,-5.104480922101865e-06,0.0,0.0,1.1726615295546747e-20,-0.6826433612935474,303.2300121510674,0.4590424068735742,30148.738115229433,228.79952879043418,5.048589402067767e-18,0.01565552787645454,-0.0017530817139201846,-0.0,0.0,-0.0,0.0202289503067731,8.636025468625446,6.134019673542023,0.6826433612935475
0.0799999982118606,6387280.968684712,37.26143342684006,1.918545942004453e-18,6387280.9687934,3.537649100917406e-06,1.9185459420044536e-18,-0.7828802990868964,465.7679591301629,4.796348046740937e-17,1.9226512202039016e-19,9.007179165791865e-05,0.7801631519985872,9143.96879339964,5.538583817122566e-13,3.003697428339182e-25,9.786072253923836,-5.617641587904385e-40,1.925929944379043e-34,-5.833692553858382e-06,0.0,0.0,1.1726615295546747e-20,-0.780163151998587,303.23004356402527,0.45904281164500305,30148.770946079712,228.7995761951767,5.106023491173323e-18,0.01568513354935185,-0.002007312517456799,-0.0,0.0,-0.0,0.0202672202140092,8.668741702289118,6.1456251011123655,0.7801631519985872
0.0900000035762786,6387280.960366613,41.91911306894716,2.428157671067637e-18,6387280.96050417,4.498071895864087e-06,2.428157671067637e-18,-0.880739558793671,465.7679692825327,5.3958874958383605e-17,2.1630532056850493e-19,0.00010203964282208405,0.8776827682109286,9143.96050416973,7.042232717924841e-13,3.801551373866563e-25,9.786072279365069,-6.319846864517901e-40,1.9259299443768666e-34,-6.5629042042232735e-06,0.0,0.0,1.1726615295546747e-20,-0.8776827682109287,303.230079165337,0.459043270385814,30148.808154373422,228.79962992049636,4.817689449915586e-18,0.01571862621859304,-0.002263050591458167,-0.0,0.0,0.0,0.0203105118125677,8.705824381270032,6.15875240719986,0.8776827682109286
0.1000000014901161,6387280.951069922,46.57679281234015,2.9977228511824554e-18,6387280.951239745,5.579003326533894e-06,2.9977228511824562e-18,-0.9785986429666,465.7679793878161,5.995420022515594e-17,2.402870447724603e-19,0.00011417399117904908,0.9752022088647707,9143.951239744985,8.734551320231236e-13,4.693269129801799e-25,9.786072307799358,-1.4044104318597613e-39,3.8518598887488696e-34,-7.292115873455136e-06,0.0,0.0,1.1726615295546747e-20,-0.9752022088647707,303.23011895499616,0.4590437830960677,30148.849740118563,228.79968996638567,5.043620718523637e-18,0.01575598106598661,-0.0025204785111942033,-0.0,0.0,-0.0,0.0203587897121906,8.747272792096718,6.173392760787964,0.9752022088647707
0.1099999994039535,6387280.940794639,51.23447265656136,3.6272415107651364e-18,6387280.941000126,6.7821215164485695e-06,3.627241510765138e-18,-1.0764575504156524,465.7679894486504,6.594952132835181e-17,2.6427542813805166e-19,0.00012647747359404148,1.0727214727698862,9143.941000126542,1.0618166914991872e-12,5.678850741450525e-25,9.786072339226704,-1.544851494500001e-39,3.851859888743493e-34,-8.021327561816694e-06,0.0,0.0,1.1726615295546747e-20,-1.0727214727698862,303.2301629329962,0.4590443497758403,30148.895703324768,228.7997563328374,5.039062912115101e-18,0.015797170668260987,-0.002779776806228267,-0.0,0.0,0.0,0.0204120203852653,8.793087648240633,6.189534877799988,1.0727214727698862
0.1199999973177909,6387280.929540772,55.892152601179404,4.316713491864866e-18,6387280.929785316,8.109130941784315e-06,4.316713491864866e-18,-1.1743162798278481,465.767999467653,7.1944878340302e-17,2.883106234056048e-19,0.00013895270690368592,1.1702405586130873,9143.929785315531,1.2695748051365066e-12,6.758295962425995e-25,9.786072373647105,-1.685292560875676e-39,3.8518598887376042e-34,-8.750539269574807e-06,0.0,0.0,1.1726615295546747e-20,-1.1702405586130873,303.23021109933075,0.459044970425223,30148.94604400323,228.7998290198443,5.0644213706907795e-18,0.015842165094327097,-0.0030411237707149625,-0.0,0.0,0.0,0.0204701628535985,8.843268236230326,6.207166492935181,1.1702405586130873
0.1299999952316284,6387280.917308317,60.54983264578897,5.066138753177831e-18,6387280.917595317,9.561762093517245e-06,5.066138753177832e-18,-1.2721748297688515,465.7680094474202,7.794016217483461e-17,3.122836322440592e-19,0.00015160228687645326,1.2677594649598256,9143.917595316501,1.4970004007772776e-12,7.931604729051328e-25,9.786072411060543,0.0,0.0,-9.479750997000405e-06,0.0,0.0,1.1726615295546747e-20,-1.2677594649598256,303.2302634539781,0.45904564504413153,30149.000762151292,228.7999080273769,5.3124358980903635e-18,0.01589093200964522,-0.003304695284510644,-0.0,0.0,-0.0,0.0205331798642873,8.89781526953725,6.226276322116852,1.2677594649598256
0.1400000005960464,6387280.904097277,65.20751279001058,5.87551692725111e-18,6387280.904430127,1.1141771364805211e-05,5.8755169272511104e-18,-1.3700331986846856,465.76801939052524,8.393542787577994e-17,3.3624959365114187e-19,0.00016442878634146833,1.3652781902558975,9143.904430127173,1.7443684615588826e-12,9.198776467112846e-25,9.786072451467028,-8.470329472432652e-22,-4.323663130495133e-27,-1.0208962744368466e-05,0.0,0.0,1.1726615295546747e-20,-1.3652781902558977,303.230319996946,0.45904637363287504,30149.059857798562,228.79999335545008,5.242168871457834e-18,0.015943436786927875,-0.0035706646457186715,-0.0,0.0,0.0,0.0206010229885578,8.956728034689952,6.2468496469841,1.3652781902558975
0.1500000059604644,6387280.889907654,69.86519303349041,6.744847894893107e-18,6387280.890289752,1.2850940635166809e-05,6.744847894893108e-18,-1.4678913849035533,465.7680292995168,8.993079420323568e-17,3.60327370106825e-19,0.0001774347533173175,1.4627967328292746,9143.890289753232,2.0119579608129363e-12,1.0559810991163619e-24,9.786072494866541,1.694065894483265e-21,9.264996505515374e-27,-1.0938174511957969e-05,0.0,0.0,1.1726615295546747e-20,-1.4627967328292746,303.23038072820765,0.4590471561913361,30149.123330940416,228.80008500402707,5.4136785828067905e-18,0.015999642622254878,-0.003839202415158623,-0.0,0.0,-0.0,0.0206736456602811,9.020007245159883,6.268872239788055,1.4627967328292746
0.1599999964237213,6387280.874739449,74.52287337589995,7.67413197404965e-18,6387280.875174193,1.4691077296470213e-05,7.67413197404965e-18,-1.565749386637763,465.7680391769179,9.592600519084305e-17,3.842611047318241e-19,0.0001906227103190154,1.5603150908920207,9143.875174192402,2.3000518661345952e-12,1.2014708800230055e-24,9.786072541259088,-8.988227459150339e-39,1.5407439554835715e-33,-1.1667386300051872e-05,0.0,0.0,1.1726615295546747e-20,-1.5603150908920205,303.2304456477705,0.4590479927198524,30149.191181609498,228.8001829731227,4.968648729169403e-18,0.016059510655850102,-0.004110476273173712,-0.0,0.0,0.0,0.0207509994506835,9.087652900947052,6.292329382167816,1.5603150908920207
0.1700000017881393,6387280.858592667,79.18055381693576,8.663368012347778e-18,6387280.859083454,1.666401368984225e-05,8.66336801234778e-18,-1.6636072019857497,465.768049025224,1.0192123846290247e-16,4.0822853827915507e-19,0.00020399515200168807,1.6578332625423207,9143.859083453768,2.608937051224872e-12,1.3563468091476618e-24,9.786072590644643,-9.549991802553272e-39,1.5407439554801922e-33,-1.2396598108937057e-05,0.0,0.0,1.1726615295546747e-20,-1.6578332625423207,303.2305147555928,0.45904888321814774,30149.263409789037,228.80028726267813,5.484089643885806e-18,0.01612300009655162,-0.0043846508890328685,-0.0,0.0,0.0,0.0208330284804105,9.159664288579997,6.317204393314362,1.6578332625423207
0.1800000071525573,6387280.841467305,83.8382343563193,9.712556685969671e-18,6387280.8420175295,1.8771607062353725e-05,9.712556685969673e-18,-1.7614648289341774,465.7680588469021,1.0791653390061064e-16,4.3226967524274943e-19,0.00021755454529918172,1.755351245766578,9143.842017529383,2.9389042891097302e-12,1.520608992496062e-24,9.78607264302323,8.4703294723605855e-22,5.5589998202729495e-27,-1.3125809938904297e-05,0.0,0.0,1.1726615295546747e-20,-1.755351245766578,303.23058805170587,0.45904982768690306,30149.340015540245,228.80039787274504,5.34183476014715e-18,0.016190068349255484,-0.0046618878031376215,-0.0,0.0,-0.0,0.0209196787327528,9.236041408058714,6.343481083030702,1.755351245766578
0.1899999976158142,6387280.8233633675,88.4959149937965,1.0821698449011173e-17,6387280.823976427,2.1015739168524306e-05,1.0821698449011174e-17,-1.8593222653601216,465.7680686443894,1.13911849929335e-16,4.563430709980626e-19,0.00023130332665192475,1.8528690384415993,9143.82397642606,3.29024818975172e-12,1.694257501312442e-24,9.786072698394829,-1.0673520538305291e-38,1.540743955472818e-33,-1.3855021790248198e-05,0.0,0.0,1.1726615295546747e-20,-1.8528690384415993,303.23066553607765,0.4590508261259975,30149.42099885967,228.80051480327938,5.235871452719106e-18,0.016260671144320716,-0.004942345322055521,-0.0,0.0,-0.0,0.0210108943283557,9.316784972854663,6.371141789283753,1.8528690384415993
0.2000000029802322,6387280.804280861,93.1535957291375,1.1990793185442762e-17,6387280.804960148,2.3398315785198065e-05,1.1990793185442767e-17,-1.9571795090333166,465.76807842009225,1.19907114331862e-16,4.803766449130389e-19,0.00024524390138319787,1.9503866383368422,9143.804960148338,3.663267124098837e-12,1.8772923175901578e-24,9.786072756759424,-1.123528493111104e-38,1.5407439554688241e-33,-1.4584233663267137e-05,0.0,0.0,1.1726615295546747e-20,-1.950386638336842,303.2307472086853,0.459051878535449,30149.506359755473,228.80063805425175,5.756160688232872e-18,0.016334762668303426,-0.005226178426398701,-0.0,0.0,-0.0,0.0211066137999296,9.401894982967846,6.400168850040437,1.9503866383368422
0.209999993443489,6387280.78421978,97.81127656213631,1.321984088924538e-17,6387280.784968694,2.5921266928116893e-05,1.3219840889245383e-17,-2.055036557618463,465.768088176385,1.2590236419375758e-16,5.044076255667415e-19,0.0002593786440456536,2.0479040431167226,9143.784968693948,4.058263257992022e-12,2.069713440554528e-24,9.786072818117026,-2.3594098681691827e-38,3.0814879109292514e-33,-1.5313445558263272e-05,0.0,0.0,1.1726615295546747e-20,-2.0479040431167226,303.23083306953527,0.4590529849156692,30149.596098268128,228.80076762567705,5.783991059826531e-18,0.016412295695127758,-0.0055135386913982435,-0.0,0.0,-0.0,0.0212067794054746,9.491371438398259,6.4305436220436105,2.0479040431167226
0.2199999988079071,6387280.76318013,102.46895749261063,1.4508840937359046e-17,6387280.764002066,2.8586545864345682e-05,1.4508840937359046e-17,-2.152893408677585,465.7680979156094,1.3189760503950004e-16,5.284416867385745e-19,0.00027370989502544657,2.145421250342969,9143.764002066297,4.475542397549825e-12,2.2715207728348345e-24,9.78607288246762,-2.471762753549083e-38,3.0814879109204437e-33,-1.604265747554241e-05,0.0,0.0,1.1726615295546747e-20,-2.1454212503429684,303.2309231186096,0.45905414526676863,30149.690214414015,228.80090351753324,5.878252409422398e-18,0.016493221716963248,-0.005804574219965186,-0.0,0.0,-0.0,0.0213113259524106,9.58521362567445,6.462247462036134,2.145421250342969
0.2300000041723251,6387280.741161911,107.12663852040137,1.5857793593801412e-17,6387280.742060266,3.1396129389486303e-05,1.585779359380141e-17,-2.250750059672428,465.7681076400734,1.3789281547387848e-16,5.524575886593011e-19,0.000288239962205519,2.242938257477027,9143.742060266519,4.915414032569868e-12,2.482714355950848e-24,9.786072949811205,0.0,0.0,-1.6771869415414034e-05,0.0,0.0,1.1726615295546747e-20,-2.2429382574770274,303.23101735589967,0.4590553595889985,30149.78870822133,228.80104572981318,5.710757286894011e-18,0.016577491074137786,-0.00609942958795693,-0.0,0.0,-0.0,0.0214201882481575,9.683422258267871,6.495259764312745,2.242938257477027
0.2399999946355819,6387280.7181651285,111.78431964537222,1.7266698088065133e-17,6387280.719143302,3.43520169094063e-05,1.7266698088065133e-17,-2.3486065079668936,465.76811735205064,1.4388811957910837e-16,5.765795749777463e-19,0.0003029711180548556,2.3404550618824893,9143.719143302564,5.378191192763763e-12,2.7032940694645154e-24,9.786073020147759,-2.6964685347988907e-38,3.0814879109016e-33,-1.7501081378190262e-05,0.0,0.0,1.1726615295546747e-20,-2.3404550618824898,303.23111578136746,0.4590566278822477,30149.891579689225,228.8011942624654,5.5976217277280646e-18,0.016665053083409227,-0.006398245801283038,-0.0,0.0,0.0,0.02153330296278,9.785997336178529,6.529561885616303,2.3404550618824893
0.25,6387280.694189781,116.44200086740963,1.8735554956989485e-17,6387280.69525117,3.745623068280111e-05,1.873555495698949e-17,-2.446462750829494,465.7681270537796,1.4988325434441869e-16,6.005448021978009e-19,0.0003179056011531547,2.437971660827552,9143.69525116875,5.864190485733492e-12,2.9332599976260705e-24,9.786073093477292,-2.8088214307657765e-38,3.0814879108915638e-33,-1.8230293364189335e-05,0.0,0.0,1.1726615295546747e-20,-2.437971660827552,303.2312183950335,0.4590579501471745,30149.99882887961,228.80134911552696,5.921154880594849e-18,0.016755856164048444,-0.00670116026444964,-0.0,0.0,0.0,0.0216506030410528,9.89293885940642,6.565133220241546,2.437971660827552
0.2599999904632568,6387280.669235872,121.09968218642214,2.026436389259252e-17,6387280.670383867,4.07108149202486e-05,2.026436389259252e-17,-2.5443187854358316,465.7681367474634,1.558784662233269e-16,6.245998968011624e-19,0.0003330456133494223,2.53548805148749,9143.670383867357,6.373731955918877e-12,3.1726120924281634e-24,9.786073169799804,0.0,0.0,-1.895950537373116e-05,0.0,0.0,1.1726615295546747e-20,-2.53548805148749,303.2313251968839,0.4590593263840102,30150.11045582013,228.80151028898314,5.575919808919053e-18,0.01684984796107997,-0.0070083067600206555,-0.0,0.0,0.0,0.0217720195651054,10.004246827951539,6.601952671871185,2.53548805148749
0.270000010728836,6387280.643303406,125.75736360234018,2.1853124853117198e-17,6387280.644541407,4.4117835784209085e-05,2.1853124853117204e-17,-2.6421746088710787,465.7681464352687,1.618736880413648e-16,6.486778628217405e-19,0.00034839332094004175,2.633004230947147,9143.64454140746,6.9071390845981295e-12,3.421350347552515e-24,9.786073249115265,-1.2134108934519987e-37,1.2325951643481048e-32,-1.9688717407138614e-05,0.0,0.0,1.1726615295546747e-20,-2.633004230947147,303.23143618687516,0.4590607565926256,30150.22646050956,228.80167778277527,5.2824627727787195e-18,0.016946975465295472,-0.0073198154385149955,-0.0,0.0,0.0,0.0218974854797124,10.119921241813895,6.640000125411987,2.633004230947147
0.2800000011920929,6387280.61639238,130.41504511511565,2.3501836875809654e-17,6387280.617723783,4.7679380990530264e-05,2.3501836875809654e-17,-2.7400302181324747,465.7681561193258,1.6786875551880271e-16,6.726146044165165e-19,0.0003639508534907717,2.7305201962034222,9143.617723783385,7.464738727499595e-12,3.6794746124971314e-24,9.786073331423692,-6.291760281254999e-38,6.162975821717993e-33,-2.041792946473808e-05,0.0,0.0,1.1726615295546747e-20,-2.7305201962034222,303.23155136502726,0.45906224077372154,30150.346843014355,228.8018515969403,5.89901691741842e-18,0.017047185129622788,-0.007635812818190819,-0.0,0.0,-0.0,0.0220269300043582,10.23996138752202,6.679254484546663,2.7305201962034222
0.2899999916553497,6387280.588502802,135.0727267247215,2.5210500569514436e-17,6387280.589931004,5.13975591500639e-05,2.521050056951444e-17,-2.837885610131807,465.76816580172846,1.738639236572887e-16,6.966653123534108e-19,0.0003797203038365933,2.8280359441677567,9143.589931004217,8.04686101172504e-12,3.946984982819859e-24,9.786073416725062,-6.516466102805785e-38,6.1629758216946426e-33,-2.114714154685942e-05,0.0,0.0,1.1726615295546747e-20,-2.828035944167757,303.2316707312965,0.4590637789271973,30150.47160333634,228.8020317314196,6.218047053733566e-18,0.017150422981322955,-0.007956421794063421,-0.0,0.0,0.0,0.0221602860838174,10.364368692018845,6.719694652957916,2.8280359441677567
0.3000000119209289,6387280.559634669,139.73040843115155,2.6979116867077145e-17,6387280.561163067,5.527449985529529e-05,2.6979116867077148e-17,-2.935740781697889,465.76817548453283,1.7985936286763205e-16,7.210005916422985e-19,0.0003957037280124598,2.9255514716686135,9143.561163065413,8.653839349313051e-12,4.223881604813129e-24,9.786073505019381,-1.348234386403015e-37,1.232595164334095e-32,-2.187635365383774e-05,0.0,0.0,1.1726615295546747e-20,-2.9255514716686135,303.2317942856975,0.45906537105372053,30150.600741539987,228.80221818624258,6.1980071498465064e-18,0.01725663472992412,-0.008281761655648288,-0.0,0.0,-0.0,0.022297479212284,10.493142441832893,6.761299043716431,2.9255514716686135
0.3100000023841858,6387280.529787987,144.38809023442,2.8807686363115804e-17,6387280.531419976,5.9312352918004774e-05,2.8807686363115804e-17,-3.0335957295790252,465.7681851697581,1.8585465219133222e-16,7.451996829136414e-19,0.00041190314365934476,3.023066775453935,9143.531419974921,9.286010317887017e-12,4.510164571824668e-24,9.78607359630663,1.6940658944003896e-21,1.9147671337619264e-26,-2.260556578600989e-05,0.0,0.0,1.1726615295546747e-20,-3.0230667754539344,303.23192202819126,0.4590670171532828,30150.734257635322,228.80241096135805,6.2742287965608836e-18,0.01736576587040735,-0.008611948112704298,-0.0,0.0,0.0,0.0224384423345327,10.626282636964175,6.804046560504913,3.023066775453935
0.3199999928474426,6387280.498962753,149.04577213456088,3.069620773167932e-17,6387280.500701729,6.351328821333482e-05,3.069620773167932e-17,-3.131450450445449,465.76819485938574,1.9184968045566108e-16,7.691516173510873e-19,0.00042832053265777514,3.12058185219359,9143.500701729336,9.943713636242689e-12,4.805833676524293e-24,9.786073690586822,1.6940658943932956e-21,1.976533806069164e-26,-2.333477794371271e-05,0.0,0.0,1.1726615295546747e-20,-3.120581852193591,303.2320539587871,0.4590687172265179,30150.872151684824,228.8026100567882,5.465032245562814e-18,0.017477761781620867,-0.008947093328445482,-0.0,0.0,0.0,0.0225831046700477,10.763789990884153,6.847915125782013,3.12058185219359
0.3300000131130218,6387280.467158975,153.7034541316281,3.264467887683054e-17,6387280.469008336,6.787949528129503e-05,3.2644678876830555e-17,-3.229304940891743,465.76820455536034,1.978447120536247e-16,7.931209965050519e-19,0.0004449578379398062,3.2180966984817934,9143.469008335465,1.0627292101959902e-11,5.110888591040507e-24,9.786073787859927,1.6940658943859765e-21,2.0383017131630125e-26,-2.4063990127291784e-05,0.0,0.0,1.1726615295546747e-20,-3.2180966984817934,303.2321900774505,0.4590704712735091,30151.01442370667,228.80281547248913,6.24709591835145e-18,0.017592567819616663,-0.009287305959512287,-0.0,0.0,-0.0,0.0227313935756683,10.905663790121357,6.892884624454499,3.2180966984817934
0.3400000035762787,6387280.434376654,158.3611362256946,3.4653102093815516e-17,6387280.436339796,7.241318268570467e-05,3.4653102093815516e-17,-3.3271591974392267,465.7682142595886,2.038399653677254e-16,8.173264159090208e-19,0.0004618169657068985,3.315611310839479,9143.436339795588,1.1337091491038515e-11,5.425329674999106e-24,9.786073888125944,3.388131788756864e-21,4.200134314574521e-26,-2.4793202337090945e-05,0.0,0.0,1.1726615295546747e-20,-3.315611310839479,303.2323303841662,0.4590722792946059,30151.161073740994,228.80302720844625,6.664777926782896e-18,0.017710129405913867,-0.009632691202147237,-0.0,0.0,0.0,0.0228832401335239,11.051904748147257,6.938932488368988,3.315611310839479
0.3499999940395355,6387280.400615792,163.01881841685235,3.672147768269372e-17,6387280.402696109,7.711657822210328e-05,3.672147768269372e-17,-3.4250132165383067,465.76822397394,2.0983524110452993e-16,8.4156879950288375e-19,0.00047889978459799706,3.4131256857166745,9143.402696109697,1.2073460590449714e-11,5.74915697566579e-24,9.786073991384875,3.3881317887413247e-21,4.32366767251387e-26,-2.552241457345925e-05,0.0,0.0,1.1726615295546747e-20,-3.4131256857166745,303.2324748789283,0.4590741412902976,30151.312101839638,228.80324526465972,6.1191281351701816e-18,0.017830392110547502,-0.009983350843918852,-0.0,0.0,0.0,0.0230385735630989,11.202512151490385,6.986037621208191,3.4131256857166745
0.3600000143051147,6387280.3658763915,167.67650070521177,3.884980544547072e-17,6387280.368077282,8.199192779156875e-05,3.8849805445470736e-17,-3.522866994570797,465.7682337002468,2.158304703739843e-16,8.657794788068125e-19,0.0004962081263135482,3.510639819494802,9143.368077282339,1.283675102182029e-11,6.082370462338953e-24,9.786074097636707,3.3881317887253346e-21,4.447202267608459e-26,-2.6251626836750996e-05,0.0,0.0,1.1726615295546747e-20,-3.5106398194948016,303.23262356171176,0.4590760572608369,30151.46750803563,228.8034696411004,6.800737189316191e-18,0.017953301729884772,-0.010339383320407566,-0.0,0.0,0.0,0.0231973230838775,11.357486000150747,7.034178926654815,3.510639819494802
0.3700000047683716,6387280.330158454,172.33418309090143,4.1038086791861274e-17,6387280.332483315,8.704149581653838e-05,4.103808679186128e-17,-3.6207205278521903,465.7682434403042,2.2182581160114411e-16,8.901171045113335e-19,0.0005137437850609464,3.608153708488959,9143.332483314649,1.3627317306534665e-11,6.424970356030398e-24,9.786074206881429,-4.988467775848232e-37,3.6977854928870115e-32,-2.698083912731701e-05,0.0,0.0,1.1726615295546747e-20,-3.608153708488959,303.2327764325055,0.45907802720667973,30151.627292378802,228.80370033776103,7.059637327374523e-18,0.0180788043592681,-0.010700883776295366,-0.0,0.0,-0.0,0.0233594197779893,11.516827721071255,7.08333530839157,3.608153708488959
0.3799999952316284,6387280.293461982,176.99186557406762,4.328632097899238e-17,6387280.295914208,9.226756414927877e-05,4.328632097899239e-17,-3.7185738126338967,465.7682531958708,2.278210314190964e-16,9.14348539263143e-19,0.0005315085188019591,3.7056673489501564,9143.29591420776,1.4445516694844307e-11,6.776956540748904e-24,9.786074319119045,-1.70776377080717e-37,1.2325951642895255e-32,-2.7710051445515078e-05,0.0,0.0,1.1726615295546747e-20,-3.705667348950156,303.2329334912985,0.45908005112829675,30151.7914549206,228.80393735463457,6.234443332544873e-18,0.018206846460463038,-0.01106794413027381,-0.0,0.0,0.0,0.0235247928649187,11.680535887308995,7.133485670101166,3.7056673489501564
0.3899999856948852,6387280.255786979,181.6495481548741,4.559450596363724e-17,6387280.258369968,9.76724322451446e-05,4.559450596363724e-17,-3.816426845105431,465.7682629686682,2.3381587132467414e-16,9.38215513245021e-19,0.0005495040480746131,3.803180737067498,9143.25836996735,1.5291709192993914e-11,7.138328696926938e-24,9.786074434349532,-1.7527049513899098e-37,1.2325951642832166e-32,-2.8439263791708224e-05,0.0,0.0,1.1726615295546747e-20,-3.8031807370674975,303.23309473805995,0.45908212902592155,30151.95999569356,228.80418069168437,6.754930807502512e-18,0.01833737492402369,-0.011440653143251276,-0.0,0.0,-0.0,0.0236933752894401,11.848611212335427,7.184609406078338,3.803180737067498
0.4000000059604645,6387280.217133445,186.30723083350162,4.7962642070008665e-17,6387280.219850593,0.00010325841646954362,4.796264207000866e-17,-3.9142796213965436,465.7682727603821,2.398111940088389e-16,9.625809544281324e-19,0.0005677320579337657,3.9006938689703254,9143.219850593421,1.616625745471974e-11,7.509086875654654e-24,9.786074552572893,-3.5952922674399535e-37,2.46519032855349e-32,-2.916847616625599e-05,0.0,0.0,1.1726615295546747e-20,-3.900693868970326,303.2332601727834,0.45908426090011667,30152.132914757283,228.80443034891067,7.446937226312665e-18,0.01847033712668812,-0.011819096489370141,-0.0,0.0,-0.0,0.0238650981336832,12.021053696150547,7.236685420005799,3.9006938689703254
0.4099999964237213,6387280.177501385,190.96491361014765,5.039073136047723e-17,6387280.180356089,0.00010902784989002612,5.039073136047723e-17,-4.012132137579323,465.7682825726622,2.458066318016325e-16,9.870774333950726e-19,0.0005861941973272082,3.9982067407303115,9143.180356089379,1.7069526748699448e-11,7.889231400158803e-24,9.786074673789123,0.0,0.0,-2.9897688569526638e-05,0.0,0.0,1.1726615295546747e-20,-3.9982067407303115,303.2334297954475,0.4590864467512706,30152.310212157616,228.80468632629163,7.647364543667701e-18,0.018605680983871793,-0.012203356829315715,-0.0,0.0,-0.0,0.0240398962050676,12.197864765697268,7.289693596790314,3.9982067407303115
0.4199999868869781,6387280.136890803,195.62259648502595,5.2878774449326556e-17,6387280.139886462,0.00011498308199907115,5.287877444932657e-17,-4.109984389670227,465.76829240712294,2.518019612416746e-16,1.011481732713147e-18,0.0006048920794423776,4.095719348363489,9143.139886462035,1.8001884915151857e-11,8.278762366960552e-24,9.786074797998195,-3.775057007424533e-37,2.4651903285266167e-32,-3.0626901001884946e-05,0.0,0.0,1.1726615295546747e-20,-4.095719348363489,303.23360360601606,0.45908868657959845,30152.49188792668,228.80494862378336,6.606910301505691e-18,0.018743354997458397,-0.012593513885503187,-0.0,0.0,0.0,0.0242176987230777,12.37904085361831,7.3436138213386535,4.095719348363489
0.4300000071525574,6387280.095301698,200.2802794583662,5.542676919831856e-17,6387280.098441703,0.00012112647791709605,5.542676919831856e-17,-4.207836373632066,465.7683022653433,2.5779693863405655e-16,1.035550404705787e-18,0.0006238272828150651,4.193231687832247,9143.09844170344,1.8963702241059872e-11,8.67767944165169e-24,9.786074925200133,-3.864939382839939e-37,2.4651903285126883e-32,-3.135611346370092e-05,0.0,0.0,1.1726615295546747e-20,-4.193231687832247,303.2337816045162,0.45909098038614604,30152.677942164388,228.80521724143748,7.092275463733843e-18,0.01888330829905746,-0.012989644518740058,-0.0,0.0,-0.0,0.0243984442204237,12.564586240742416,7.3984259785575865,4.193231687832247
0.4399999976158142,6387280.052734076,204.9379625304138,5.803471507838039e-17,6387280.056021826,0.00012746041887758112,5.803471507838041e-17,-4.305688085375954,465.7683121488681,2.637921480303054e-16,1.0598677512990326e-18,0.0006430013510522316,4.290743755047264,9143.056021826085,1.9955351536122712e-11,9.085982541765365e-24,9.786075055394901,-3.954821761931905e-37,2.4651903284984328e-32,-3.208532595535155e-05,0.0,0.0,1.1726615295546747e-20,-4.290743755047265,303.23396379088695,0.4590933281708436,30152.868374880476,228.8054921791734,7.019778756595718e-18,0.019025490688757692,-0.013391822805860506,-0.0,0.0,-0.0,0.0245820637792348,12.75449807318375,7.454110443965912,4.290743755047264
0.449999988079071,6387280.009187937,209.59564570142945,6.070261270616521e-17,6387280.01262683,0.00013398730097960652,6.070261270616524e-17,-4.4035395207631725,465.7683220592075,2.6978735611904473e-16,1.0842007145664634e-18,0.0006624157933865002,4.388255545869386,9143.012626829974,2.0977207937452385e-11,9.503671764219509e-24,9.786075188582497,-4.044704144746661e-37,2.4651903284838497e-32,-3.281453847720685e-05,0.0,0.0,1.1726615295546747e-20,-4.388255545869386,303.23415016512126,0.45909572993432635,30153.06318614227,228.8057734369914,7.102615622808083e-18,0.019169852669820457,-0.01380012011816622,-0.0,0.0,-0.0,0.0247684977948665,12.948777777885233,7.510647593082428,4.388255545869386
0.4600000083446502,6387279.964663286,214.25332897168857,6.343046112278102e-17,6387279.9682567185,0.0001407095352918077,6.343046112278106e-17,-4.501390675607001,465.76833199783835,2.7578241003427746e-16,1.1083966849004083e-18,0.0006820720857849569,4.485767056111458,9142.968256717373,2.202964892584967e-11,9.930746959271485e-24,9.786075324762917,-4.134586531330715e-37,2.4651903284689385e-32,-3.35437510296473e-05,0.0,0.0,1.1726615295546747e-20,-4.485767056111458,303.2343407272016,0.459098185677119,30153.26237600846,228.80606101487695,8.144407576662959e-18,0.019316345479241267,-0.014214605200153246,-0.0,0.0,-0.0,0.0249576792120933,13.147425354846865,7.568018782649994,4.485767056111458
0.4699999988079071,6387279.919160124,218.91101234148138,6.621826090364552e-17,6387279.922911489,0.00014762954757516127,6.621826090364552e-17,-4.599241545674497,465.76834196620416,2.817773578945436e-16,1.1325040400613469e-18,0.0007019716709491816,4.583278281540084,9142.922911488284,2.3113054282403814e-11,1.0367208217400546e-23,9.786075463936164,-8.448937843461756e-37,4.930380656907401e-32,-3.4272963613053385e-05,0.0,0.0,1.1726615295546747e-20,-4.583278281540083,303.2345354771201,0.4591006953998867,30153.465944549513,228.80635491283036,6.980335133259239e-18,0.019464921114541886,-0.014635344248335808,-0.0,0.0,0.0,0.0251495465636253,13.350440804068638,7.62620487879944,4.583278281540084
0.4799999892711639,6387279.872678456,223.56869581111238,6.90660095367049e-17,6387279.8765911525,0.00015474977814437807,6.906600953670491e-17,-4.697092126688208,465.76835196571574,2.8777209141280793e-16,1.1564147549596787e-18,0.0007221159586617144,4.680789217877373,9142.876591152924,2.42278060667927e-11,1.081305514571642e-23,9.786075606102202,-4.314351315994216e-37,2.4651903284381318e-32,-3.500217622780558e-05,0.0,0.0,1.1726615295546747e-20,-4.680789217877373,303.2347344148253,0.45910325910274274,30153.673891791488,228.80665513078563,7.594337154690709e-18,0.01961553235689216,-0.015062400989829484,-0.0,0.0,-0.0,0.0253440402448177,13.557824125550564,7.685186747661592,4.680789217877373
0.4900000095367431,6387279.825218283,228.2263793808999,7.197370683203287e-17,6387279.829295704,0.00016207268065509197,7.19737068320329e-17,-4.7949424143278385,465.76836199775215,2.937674816088605e-16,1.1810001139550466e-18,0.0007425063270336317,4.778299860802569,9142.82929570562,2.5374288427404457e-11,1.1268287714892409e-23,9.786075751261045,0.0,0.0,-3.573138887428786e-05,0.0,0.0,1.1726615295546747e-20,-4.778299860802569,303.2349375403333,0.4591058767866957,30153.886217833428,228.80696166877982,7.563830192853932e-18,0.019768132790902403,-0.015495836760539826,-0.0,0.0,-0.0,0.0255411006510257,13.769575319292633,7.744947217815399,4.778299860802569
0.5,6387279.776779607,232.88406305117593,7.494135628547159e-17,6387279.7810251545,0.00016960072258898436,7.494135628547159e-17,-4.892792404231864,465.7683720636608,2.99762497873535e-16,1.2052297749753527e-18,0.0007631441221578676,4.875810205953697,9142.781025155453,2.655288767728968e-11,1.1732906472658625e-23,9.786075899412673,-8.988232232600154e-37,4.930380656812033e-32,-3.646060155288769e-05,0.0,0.0,1.1726615295546747e-20,-4.875810205953698,303.23514485359703,0.45910854845195176,30154.102922709648,228.80727452675444,7.71653466975796e-18,0.019922676821068457,-0.01593571058257341,-0.0,0.0,0.0,0.0257406663149595,13.985694385294849,7.805468136615753,4.875810205953697
0.5099999904632568,6387279.727362434,237.54174682228583,7.796895687986015e-17,6387279.7317795,0.00017733638497657012,7.796895687986015e-17,-4.9906420919990895,465.768382164758,3.0575749052743923e-16,1.2294543281522716e-18,0.0007840306597033169,4.9733202489291,9142.73177950015,2.7763992250761202e-11,1.2206911260192754e-23,9.786076050557089,-9.167997044876128e-37,4.930380656778934e-32,-3.718981426399079e-05,0.0,0.0,1.1726615295546747e-20,-4.9733202489291,303.2353563546177,0.4591112740993596,30154.32400650695,228.80759370472438,6.24930309597735e-18,0.020079119685319197,-0.01638207924086959,-0.0,0.0,0.0,0.0259426813572645,14.206181323557212,7.866731351417542,4.9733202489291
0.5199999809265137,6387279.676966768,242.1994306945879,8.105650649501987e-17,6387279.681558751,0.00018528216177346622,8.105650649501987e-17,-5.088491473190151,465.7683923023298,3.1175253594027854e-16,1.2537504150517914e-18,0.0008051672243604053,5.0708299852889525,9142.681558751072,2.90079926057426e-11,1.2690301745991316e-23,9.786076204694261,-1.8695523730520625e-36,9.860761313490359e-32,-3.7919027007991594e-05,0.0,0.0,1.1726615295546747e-20,-5.0708299852889525,303.235572043338,0.4591140537290286,30154.549469252535,228.8079192026164,7.700316592445734e-18,0.020237417465633994,-0.016834997358685034,-0.0,0.0,-0.0,0.0261470880359411,14.431037561022634,7.928720672023774,5.0708299852889525
0.5299999713897705,6387279.625592609,246.85711466845322,8.420400704978284e-17,6387279.630362906,0.0001934405591673567,8.420400704978287e-17,-5.18634054332898,465.76840247763226,3.1774770854986703e-16,1.2781927475970747e-18,0.0008265550712271051,5.168339410556716,9142.63036290594,3.0285281115266593e-11,1.3183078230911687e-23,9.786076361824197,-9.527526693849422e-37,4.930380656710769e-32,-3.864823978528106e-05,0.0,0.0,1.1726615295546747e-20,-5.168339410556716,303.235791919759,0.45911688734183714,30154.77931103632,228.80825102044545,8.473280784078661e-18,0.020397527096140265,-0.01729451747197288,-0.0,0.0,0.0,0.0263538304716348,14.660261670748204,7.991417945789338,5.168339410556716
0.5400000214576721,6387279.573239961,251.51479874426525,8.74114606811896e-17,6387279.57819197,0.00020181409640963467,8.74114606811896e-17,-5.284189297904204,465.7684126918924,3.237429554396237e-16,1.3027286854775807e-18,0.000848195426294025,5.26584852022055,9142.578191969304,3.159625219767845e-11,1.3685241049982808e-23,9.786076521946878,-3.3881317883605036e-21,-6.670799945163027e-26,-3.93774525962519e-05,0.0,0.0,1.1726615295546747e-20,-5.265848520220549,303.23601598385227,0.4591197749383011,30155.013531919212,228.8085891581825,7.522754118520548e-18,0.020559406368666176,-0.017760690102330907,-0.0,0.0,0.0,0.0265628546476364,14.893853652733922,8.054807473129273,5.26584852022055
0.550000011920929,6387279.519908825,256.1724829224196,9.067886568422738e-17,6387279.525045938,0.00021040530463724283,9.067886568422738e-17,-5.382037732370504,465.7684229463087,3.2973808792800517e-16,1.3271698254997103e-18,0.0008700894871376165,5.363357309734658,9142.52504593775,3.294130213218273e-11,1.4196789936725872e-23,9.786076685062318,-3.388131788335956e-21,-6.794333406202307e-26,-4.0106665441302035e-05,0.0,0.0,1.1726615295546747e-20,-5.363357309734658,303.23624423562325,0.4591227165193904,30155.252131999296,228.80893361584984,8.757822393609425e-18,0.02072301393610973,-0.0182335638285703,-0.0,0.0,0.0,0.0267741084098815,15.131814933922703,8.11887306384659,5.363357309734658
0.5600000023841858,6387279.465599206,260.8301672033237,9.400622340576574e-17,6387279.470924822,0.00021921672680336998,9.400622340576575e-17,-5.4798858421499155,465.7684332420514,3.3573331706365375e-16,1.3517274966544183e-18,0.0008922384227813686,5.460865774520602,9142.470924821502,3.4320829047993624e-11,1.4717725102476923e-23,9.786076851170483,0.0,0.0,-4.083587832082766e-05,0.0,0.0,1.1726615295546747e-20,-5.460865774520603,303.23647667501905,0.45912571208533587,30155.495111315067,228.8092843933816,8.198731726212535e-18,0.020888309313643792,-0.018713185356661274,-0.0,0.0,-0.0,0.0269875358790159,15.374144087371626,8.183598037132263,5.460865774520602
0.5699999928474426,6387279.41031111,265.4878515873966,9.739353093028726e-17,6387279.415828624,0.00022825091715767486,9.739353093028727e-17,-5.5777336226330965,465.76844358026335,3.41728374421786e-16,1.3761335564281968e-18,0.0009146433748741028,5.558373909968561,9142.415828623965,3.573523284295898e-11,1.5248046091256268e-23,9.78607702027137,0.0,0.0,-4.156509123523195e-05,0.0,0.0,1.1726615295546747e-20,-5.558373909968562,303.2367133020154,0.4591287616367605,30155.742469937184,228.80964149075606,7.83358509616759e-18,0.021055252878102674,-0.019199599588141377,-0.0,0.0,0.0,0.0272030867636203,15.620842540023611,8.248968165237427,5.558373909968561
0.5799999833106995,6387279.354044534,270.14553607506855,1.0084078910687853e-16,6387279.359757344,0.0002375104416274553,1.0084078910687853e-16,-5.675581069180537,465.76845396206056,3.4772340556996535e-16,1.4005338565023858e-18,0.0009373054582442828,5.655881711438538,9142.359757344006,3.718491524323721e-11,1.578775303648368e-23,9.786077192364976,-3.3881317882596127e-21,-7.16492889424906e-26,-4.229430418491457e-05,0.0,0.0,1.1726615295546747e-20,-5.655881711438538,303.23695411660765,0.45913186517455207,30155.994207958174,228.81000490798087,8.772401338138102e-18,0.021223805865561867,-0.019692849686788555,-0.0,0.0,0.0,0.0274207144975662,15.871910291878658,8.314966276741028,5.655881711438538
0.5899999737739563,6387279.296799488,274.8032206667808,1.0434799982377138e-16,6387279.30271099,0.00024699787695135457,1.0434799982377142e-16,-5.773428177123726,465.7684643885329,3.537188734858769e-16,1.4253916604555044e-18,0.0009602257615932211,5.7533891742615415,9142.302710990703,3.8670279667670044e-11,1.6336846234277306e-23,9.786077367451275,-1.0606115843162812e-36,4.930380656490543e-32,-4.30235171702787e-05,0.0,0.0,1.1726615295546747e-20,-5.7533891742615415,303.23719911874707,0.4591350226990481,30156.250325426263,228.8103746449974,8.873995045413434e-18,0.02139393036728659,-0.020192977143522927,-0.0,0.0,0.0,0.0276403650641441,16.127345915993853,8.381579615730287,5.7533891742615415
0.6000000238418579,6387279.238575971,279.4609053629856,1.0791516329585096e-16,6387279.244689561,0.00025671581054075433,1.0791516329585098e-16,-5.871274941766281,465.7684748607444,3.597140358877262e-16,1.4499649740937728e-18,0.000983405347910735,5.850896293740691,9142.24468956179,4.019173120608278e-11,1.6895325718782782e-23,9.786077545530276,3.3881317882064605e-21,7.412010661114983e-26,-4.375273019173101e-05,0.0,0.0,1.1726615295546747e-20,-5.85089629374069,303.2374483084334,0.4591382342112294,30156.51082244225,228.8107507018209,9.221838769397261e-18,0.02156558932432543,-0.02070002183961512,-0.0,0.0,0.0,0.0278619918972253,16.38715226625502,8.44879248262024,5.850896293740691
0.6100000143051147,6387279.179373993,284.11859016414536,1.1154228007098335e-16,6387279.185693067,0.00026666684051442644,1.1154228007098337e-16,-5.969121358385022,465.76848537973376,3.657091217675635e-16,1.4744830787084841e-18,0.0010068452546138302,5.948403065152324,9142.18569306635,4.174967662470999e-11,1.7463191576286205e-23,9.786077726601945,3.3881317881792093e-21,7.53555401897581e-26,-4.448194324967641e-05,0.0,0.0,1.1726615295546747e-20,-5.948403065152325,303.2377016856177,0.45914149971146256,30156.77569905745,228.81113307839271,8.656454730618008e-18,0.021738746520674753,-0.021214022107984554,-0.0,0.0,-0.0,0.0280855502933263,16.651326488776334,8.516590159049988,5.948403065152324
0.6200000047683716,6387279.119193548,288.7762750707332,1.1522934674750812e-16,6387279.125721504,0.0002768535753173637,1.152293467475082e-16,-6.066967422231021,465.76849594651594,3.71704141975285e-16,1.498957115014483e-18,0.0010305464951406828,6.0459094837470175,9142.125721504382,4.3344524306520025e-11,1.804044327473976e-23,9.786077910666293,3.3881317881515113e-21,7.659077661564492e-26,-4.52111563445233e-05,0.0,0.0,1.1726615295546747e-20,-6.045909483747018,303.2379592502895,0.45914481920063127,30157.044955365498,228.81152177471319,8.316501982466728e-18,0.0219133665753711,-0.021735014792781577,-0.0,0.0,0.0,0.0283109936863183,16.919871437443625,8.58496087033081,6.0459094837470175
0.6299999952316284,6387279.058034645,293.43396008323185,1.1897636286860943e-16,6387279.064774878,0.00028727863316635195,1.1897636286860946e-16,-6.164813128530601,465.768506562081,3.776992752232702e-16,1.5235660877250206e-18,0.0010545100589506094,6.14341554475059,9142.064774878158,4.497668416441378e-11,1.8627080743152535e-23,9.786078097723305,-2.2650350905236204e-36,9.860761312661235e-32,-4.5940369476683587e-05,0.0,0.0,1.1726615295546747e-20,-6.1434155447505905,303.2382210024288,0.45914819267950885,30157.31859145143,228.811916790768,9.455901752388941e-18,0.022089414933447522,-0.022263035307060457,-0.0,0.0,0.0,0.0285382755100727,17.192784258371066,8.653888916877747,6.14341554475059
0.6399999856948853,6387278.9958972875,298.0916452021341,1.2278333162130602e-16,6387279.002853194,0.0002979446420153181,1.2278333162130602e-16,-6.262658472486283,465.76851722739605,3.83694621254954e-16,1.5484100340663112e-18,0.0010787369114547856,6.2409212433650705,9142.002853193351,4.664656763580023e-11,1.9223104481025296e-23,9.78607828777297,3.388131788094757e-21,7.906154548055208e-26,-4.6669582646567423e-05,0.0,0.0,1.1726615295546747e-20,-6.2409212433650705,303.2384869420006,0.45915162014869404,30157.59660738651,228.81231812652072,8.385760830998387e-18,0.02226685785598067,-0.022798117688652576,-0.0,0.0,0.0,0.0287673529237508,17.470067805444476,8.723361542778015,6.2409212433650705
0.6499999761581421,6387278.932781478,302.749330427942,1.2665025159677823e-16,6387278.9399564555,0.0003088542396939327,1.2665025159677825e-16,-6.360503449277732,465.76852794340533,3.896897659670293e-16,1.5730751459225379e-18,0.0011032279958181933,6.33842657476962,9141.939956455646,4.83545877042976e-11,1.9828514268337512e-23,9.786078480815263,3.3881317880657073e-21,8.029678209812938e-26,-4.7398795854586696e-05,0.0,0.0,1.1726615295546747e-20,-6.3384265747696205,303.23875706896956,0.45915510160880074,30157.87900324355,228.8127257819349,1.0128364833479762e-17,0.022445662409304293,-0.02334029465422569,-0.0,0.0,-0.0,0.0289981849491596,17.751720651720948,8.793365992118837,6.33842657476962
0.6600000262260437,6387278.86868722,307.4070157611673,1.3057712304061313e-16,6387278.876084663,0.00032001007293737524,1.3057712304061313e-16,-6.458348054062624,465.768538711031,3.9568452625866877e-16,1.5973786190040313e-18,0.0011279842327515336,6.435931534121407,9141.876084662767,5.010115874783087e-11,2.0443310144093092e-23,9.786078676850197,-4.745788102795126e-36,1.9721522624815164e-31,-4.812800910115856e-05,0.0,0.0,1.1726615295546747e-20,-6.435931534121407,303.23903138333463,0.45915863706089705,30158.1657791326,228.8131397570256,8.25409278707933e-18,0.022625796453516842,-0.023889597651555423,-0.0,0.0,0.0,0.0292307268828153,18.0377442241434,8.863889508987427,6.435931534121407
0.6700000166893005,6387278.803614518,312.0647012023307,1.3456394291322082e-16,6387278.811237825,0.00033141479776749387,1.3456394291322086e-16,-6.556192281977516,465.76854953117305,4.016793572269642e-16,1.6217758482333196e-18,0.0011530065208579675,6.53343611655649,9141.811237826068,5.1886696598308565e-11,2.1067491632973357e-23,9.786078875877735,-2.408847042170031e-36,9.860761312320409e-32,-4.885722238669663e-05,0.0,0.0,1.1726615295546747e-20,-6.533436116556489,303.23930988503594,0.4591622265053116,30158.456935104103,228.8135600517197,9.291830163995527e-18,0.022807228630271972,-0.024446056909927606,-0.0,0.0,-0.0,0.0294649414718151,18.328137095768902,8.934920318695069,6.53343611655649
0.6800000071525574,6387278.7375633735,316.72238675196166,1.3861071256552877e-16,6387278.745415944,0.00034307107907696234,1.3861071256552877e-16,-6.654036128138649,465.7685604047104,4.076741796780518e-16,1.64618793882197e-18,0.0011782957380190406,6.630940317190593,9141.745415942145,5.371161847652226e-11,2.170105894705279e-23,9.786079077897888,6.7762635759516976e-21,1.6800577355183294e-25,-4.958643571161806e-05,0.0,0.0,1.1726615295546747e-20,-6.630940317190593,303.23959257407677,0.4591658699432045,30158.75247127627,228.81398666603957,9.282485775586012e-18,0.022989928350150478,-0.02500970148891439,-0.0,0.0,-0.0,0.0297007858753204,18.622900693540387,9.006446646553039,6.630940317190593
0.6899999976158142,6387278.670533797,321.38007241059853,1.4271742900867343e-16,6387278.678619019,0.0003549815906986347,1.427174290086734e-16,-6.751879587642743,465.76857133250144,4.136691098994826e-16,1.670731478591811e-18,0.0012038527410482191,6.728444131119928,9141.678619018945,5.557634300299736e-11,2.2344011618971673e-23,9.786079282910634,6.776263575889991e-21,1.7047644453306165e-25,-5.031564907634173e-05,0.0,0.0,1.1726615295546747e-20,-6.728444131119927,303.2398794504116,0.45916956737512243,30159.052387717944,228.81441959993418,9.571885738248772e-18,0.023173865779428187,-0.0255805593252687,-0.0,0.0,-0.0,0.0299382247030735,18.922033590514935,9.078455736648559,6.728444131119928
0.699999988079071,6387278.602525786,326.03775817878795,1.468840952770607e-16,6387278.610847063,0.00036714901440061947,1.468840952770607e-16,-6.849722655567744,465.7685823153842,4.196641635693569e-16,1.6954224470631753e-18,0.0012296783665917848,6.825947553421931,9141.610847063283,5.74812900406654e-11,2.29963501243891e-23,9.78607949091595,-7.550118078656425e-36,2.958228393615308e-31,-5.104486248129e-05,0.0,0.0,1.1726615295546747e-20,-6.825947553421932,303.24017051399954,0.45917331880168905,30159.35668450457,228.81485885335965,1.0180476962854806e-17,0.023359011826550695,-0.02615865727822495,-0.0,0.0,0.0,0.030177216976881,19.22553721363545,9.150936795516968,6.825947553421931
0.7099999785423279,6387278.533539345,330.6954440570851,1.511107119009171e-16,6387278.542100073,0.0003795760408218331,1.5111071190091716e-16,-6.947565326973554,465.768593354177,4.2565915821431454e-16,1.7200786734011144e-18,0.0012557734319605743,6.923450579155989,9141.542100072886,5.942688084134306e-11,2.3658074546915485e-23,9.786079701913845,3.3881317878819398e-21,8.770879484524472e-26,-5.177407592688001e-05,0.0,0.0,1.1726615295546747e-20,-6.923450579155988,303.24046576483846,0.45917712422404544,30159.66536175394,228.81530442633124,9.644963304218919e-18,0.023545338128277585,-0.026744021173123616,-0.0,0.0,-0.0,0.0304177291691303,19.53341156290195,9.223878048469544,6.923450579155989
0.7200000286102295,6387278.46357448,335.35313004605297,1.5539727997579256e-16,6387278.472378052,0.0003922653680859828,1.5539727997579256e-16,-7.0454075969027175,465.76860444967934,4.3165451574633864e-16,1.7451223731771544e-18,0.0012821387347140799,7.020953203364123,9141.472378052295,6.141353782872799e-11,2.43291850586775e-23,9.7860799159043,6.776263575699469e-21,1.7788835969238566e-25,-5.2503289413537605e-05,0.0,0.0,1.1726615295546747e-20,-7.020953203364122,303.2407652028971,0.4591809836429707,30159.978419554816,228.81575631881978,1.0923011859718384e-17,0.023732817035509078,-0.02733667584333843,-0.0,0.0,-0.0,0.0306597221642732,19.845658065257332,9.297269683265686,7.020953203364123
0.7300000190734863,6387278.3926311955,340.0108161462625,1.5974379887140073e-16,6387278.401681008,0.00040521970256393206,1.5974379887140075e-16,-7.143249460381098,465.76861560267133,4.376491098007613e-16,1.7694274863333173e-18,0.001308775054115838,7.118455421071684,9141.401681008325,6.344168471775215e-11,2.500968156161148e-23,9.786080132887305,-5.2491300565999364e-36,1.9721522623539689e-31,-5.323250294168343e-05,0.0,0.0,1.1726615295546747e-20,-7.118455421071684,303.24106882813385,0.4591848970591326,30160.29585798732,228.81621453078168,1.1033362069686597e-17,0.023921421598962735,-0.027936645170672427,-0.0,0.0,0.0,0.0309031624346971,20.162273866815774,9.371099925216676,7.118455421071684
0.7400000095367432,6387278.320709493,344.66850235829276,1.6415026689933933e-16,6387278.330008946,0.00041844175818058583,1.6415026689933936e-16,-7.241090912418502,465.76862681391555,4.436443171641471e-16,1.7943711050268534e-18,0.0013356831504403757,7.215957227287958,9141.330008946652,6.551174640608018e-11,2.5699563792002384e-23,9.786080352862834,-5.3210360661964026e-36,1.9721522623346988e-31,-5.3961716511745085e-05,0.0,0.0,1.1726615295546747e-20,-7.215957227287956,303.2413766405121,0.4591888644732757,30160.617677138147,228.81667906218044,9.897802104081664e-18,0.02411112555471055,-0.028543952124207392,-0.0,0.0,0.0,0.0311480183154344,20.483260394520194,9.44535994330597,7.215957227287958
0.75,6387278.247809378,349.32618868272965,1.6861668450938354e-16,6387278.257361869,0.00043193425648423226,1.6861668450938356e-16,-7.338931948009306,465.7686380841562,4.4963919491763e-16,1.8190106169300875e-18,0.00136286376732962,7.3134586170067974,9141.257361868411,6.762414898496043e-11,2.639883182089944e-23,9.786080575830887,-5.392942079967298e-36,1.9721522623151667e-31,-5.469093012414842e-05,0.0,0.0,1.1726615295546747e-20,-7.313458617006797,303.24168864001456,0.45919288588641183,30160.94387711605,228.81714991300916,9.054344059378652e-18,0.024301903309609196,-0.02915861879765112,-0.0,0.0,0.0,0.031394250690937,20.8086190753135,9.52003796284485,7.3134586170067974
0.7599999904632568,6387278.1739308555,353.98387512016694,1.7314304927924055e-16,6387278.183739774,0.0004456999265772312,1.731430492792406e-16,-7.436772562133035,465.76864941412066,4.556338563344531e-16,1.8434596027338533e-18,0.0013903176304759775,7.410959585207195,9141.183739773605,6.977931972837528e-11,2.710748526970603e-23,9.786080801791464,-5.464848097954742e-36,1.972152262295373e-31,-5.542014377931931e-05,0.0,0.0,1.1726615295546747e-20,-7.410959585207196,303.2420048266286,0.4591969612996293,30161.274458036358,228.81762708326832,1.0177351900658456e-17,0.024493729926676085,-0.02978066644520078,-0.0,0.0,-0.0,0.0316418372094631,21.138348482252784,9.59512515281677,7.410959585207195
0.7699999809265137,6387278.099073926,358.6415616712056,1.7772936107408392e-16,6387278.109142676,0.0004597415043537401,1.77729361074084e-16,-7.534612749754927,465.76866080451924,4.61628418211405e-16,1.8678351675484846e-18,0.0014180454484541652,7.508460126853879,9141.10914267472,7.197768697368929e-11,2.782552411796259e-23,9.786081030744525,-5.5367541202009635e-36,1.9721522622753168e-31,-5.614935747768535e-05,0.0,0.0,1.1726615295546747e-20,-7.50846012685388,303.24232520028767,0.45920109071334003,30161.609419959852,228.81811057287734,1.0016952187815824e-17,0.024686581110415117,-0.030410115515952994,-0.0,0.0,-0.0,0.0318907350301742,21.47245004228096,9.670612682205201,7.508460126853879
0.7799999713897705,6387278.023238601,363.29924833645305,1.8237561854168705e-16,6387278.033570572,0.0004740617322917182,1.8237561854168705e-16,-7.632452505826473,465.76867225604576,4.676232467969267e-16,1.892503868979942e-18,0.0014460479134833927,7.6059602368978,9141.033570571759,7.421968008909924e-11,2.855294815462053e-23,9.786081262690072,-5.6086601467482926e-36,1.9721522622549984e-31,-5.6878571219679386e-05,0.0,0.0,1.1726615295546747e-20,-7.6059602368978005,303.24264976097885,0.4592052741286618,30161.948763005,228.8186003818367,1.021402510993039e-17,0.02488043319227812,-0.031046985687075136,-0.0,0.0,-0.0,0.0321409218013286,21.810923755398022,9.746489757545472,7.6059602368978
0.7900000214576721,6387277.946424878,367.9569351165243,1.8708182422046872e-16,6387277.957023471,0.0004886633608390046,1.8708182422046877e-16,-7.730291825285945,465.7686837693781,4.736180114184174e-16,1.917135344401339e-18,0.001474325702051167,7.703459910276708,9140.957023471534,7.65057296906396e-11,2.9289757777764e-23,9.786081497628087,-5.6805661776391824e-36,1.9721522622344173e-31,-5.7607785005729026e-05,0.0,0.0,1.1726615295546747e-20,-7.703459910276706,303.2429785086598,0.4592095115463502,30162.29248726119,228.81909651010272,1.079127914517286e-17,0.025075263116059992,-0.031691295895494,-0.0,0.0,0.0,0.0323923602700233,22.15376819466106,9.822747547821047,7.703459910276708
0.800000011920929,6387277.8686327655,372.6146220120405,1.9184797968897406e-16,6387277.879501375,0.0005035491461956548,1.9184797968897406e-16,-7.828130703058875,465.76869534517857,4.796127196218574e-16,1.9417374505465125e-18,0.0015028794751211344,7.800959141915596,9140.87950137518,7.883626729497561e-11,3.003595323520678e-23,9.786081735558563,-5.752472212916169e-36,1.9721522622135745e-31,-5.8336998836267106e-05,0.0,0.0,1.1726615295546747e-20,-7.800959141915597,303.2433114433123,0.4592138029674889,30162.64059284484,228.81959895766843,9.976468763580476e-18,0.025271048423474912,-0.03234306436841641,-0.0,0.0,0.0,0.0326450280845165,22.500984787012985,9.899378203239444,7.800959141915596
0.8100000023841858,6387277.789862266,377.2723090236298,1.9667407865105907e-16,6387277.80100429,0.0005187218516306455,1.9667407865105907e-16,-7.925969134058541,465.76870698409436,4.856072716841831e-16,1.9662107758566246e-18,0.0015317098779946403,7.898457926727222,9140.801004289511,8.121172552555846e-11,3.079153354190035e-23,9.786081976481482,-5.8243782526219094e-36,1.9721522621924703e-31,-5.9066212711724726e-05,0.0,0.0,1.1726615295546747e-20,-7.898457926727222,303.2436485648935,0.45921814839286346,30162.993079848497,228.82010772449024,9.515652009444335e-18,0.025467767239780118,-0.033002308652519324,-0.0,0.0,-0.0,0.0328988954424858,22.8525735324538,9.976372892784118,7.898457926727222
0.8199999928474426,6387277.710113383,381.92999615192645,2.0156012630018856e-16,6387277.721532218,0.0005341842466503199,2.015601263001886e-16,-8.02380711318643,465.7687186867578,4.916025623946391e-16,1.9914504218028956e-18,0.0015608175415579727,7.995956259612528,9140.721532219068,8.36325379824233e-11,3.155649951163187e-23,9.786082220396828,-5.896284296799149e-36,1.9721522621711023e-31,-5.979542663253647e-05,0.0,0.0,1.1726615295546747e-20,-7.995956259612528,303.2439898733703,0.4592225478233979,30163.349948376333,228.82062281053902,1.3170065909505193e-17,0.02566539825958343,-0.0336690456420172,-0.0,0.0,-0.0,0.0331539325416088,23.208534430983505,10.05372180421448,7.995956259612528
0.8299999833106995,6387277.629386123,386.5876833975709,2.065061289180452e-16,6387277.641085165,0.0005499391069982959,2.0650612891804528e-16,-8.121644635332661,465.76873045378653,4.975975988135405e-16,2.0164637616229934e-18,0.0015902030820052959,8.093454135461107,9140.641085164985,8.609913924218986e-11,3.23308521285699e-23,9.786082467304595,-5.968190345490724e-36,1.9721522621494734e-31,-6.0524640599138675e-05,0.0,0.0,1.1726615295546747e-20,-8.093454135461105,303.244335368724,0.45922700126022065,30163.711198549485,228.82114421580806,1.1655268931683633e-17,0.025863920732801523,-0.034343291605551086,-0.0,0.0,-0.0,0.0334101133048534,23.568868909545014,10.131419050186157,8.093454135461107
0.8399999737739563,6387277.547680491,391.24537076121015,2.1151208022709166e-16,6387277.5596631365,0.0005659892141011265,2.115120802270917e-16,-8.219481695376421,465.7687422857847,5.03592925171223e-16,2.0417953392448494e-18,0.001619867101531647,8.190951549151603,9140.559663136348,8.861196477126119e-11,3.311459041060474e-23,9.786082717204765,-6.040096398739576e-36,1.9721522621275823e-31,-6.125385461196417e-05,0.0,0.0,1.1726615295546747e-20,-8.190951549151603,303.24468505090164,0.45923150870403445,30164.07683045487,228.8216719402388,1.243473936398139e-17,0.026063314450749914,-0.0350250622119158,-0.0,0.0,0.0,0.0336674116551876,23.93357554119541,10.209454818458557,8.190951549151603
0.8500000238418579,6387277.464996489,395.90305824349656,2.165779826087939e-16,6387277.477266133,0.0005823373558998245,2.165779826087939e-16,-8.317318288186351,465.7687541833423,5.095873547254985e-16,2.0662587267186887e-18,0.0016498101886794903,8.288448495552117,9140.477266133157,9.117145105602742e-11,3.390771473129943e-23,9.78608297009733,-6.11200245658873e-36,1.9721522621054278e-31,-6.198306867145106e-05,0.0,0.0,1.1726615295546747e-20,-8.288448495552117,303.24503891988905,0.4592360701560591,30164.446844221766,228.82220598383182,1.1681412377892587e-17,0.02626355973251183,-0.03571437255482982,-0.0,0.0,0.0,0.0339258052408695,24.30265289899178,10.287823221687317,8.288448495552117
