time,eiPosition_m_X,eiPosition_m_Y,eiPosition_m_Z,gePosition_m_X,gePosition_m_Y,gePosition_m_Z,eiVelocity_m_s_X,eiVelocity_m_s_Y,eiVelocity_m_s_Z,feVelocity_m_s_X,feVelocity_m_s_Y,feVelocity_m_s_Z,altitudeMsl_m,longitude_rad,latitude_rad,localGravity_m_s2,eulerAngle_rad_Yaw,eulerAngle_rad_Pitch,eulerAngle_rad_Roll,bodyAngularRateWrtEi_rad_s_Roll,bodyAngularRateWrtEi_rad_s_Pitch,bodyAngularRateWrtEi_rad_s_Yaw,altitudeRateWrtMsl_m_s,speedOfSound_m_s,airDensity_kg_m3,ambientPressure_Pa,ambientTemperature_K,aero_bodyForce_N_X,aero_bodyForce_N_Y,aero_bodyForce_N_Z,aero_bodyMoment_Nm_L,aero_bodyMoment_Nm_M,aero_bodyMoment_Nm_N,mach,dynamicPressure_Pa,trueAirspeed_m_s
0.0,6387281.000000211,0.0,0.0,6387281.000000211,0.0,0.0,0.0,465.7678758931653,0.0,0.0,0.0,0.0,9144.000000001135,0.0,0.0,9.786072158121431,0.0,2.220446049250313e-16,0.0,0.0,0.0,1.6191747942405682e-20,-0.0,303.22998396963123,0.459050104915564,30149.23809906436,228.79937386033285,0.0,0.0,-0.0,0.0,0.0,0.0,0.0,0.0,0.0
0.1,6387280.951070948,46.57679275907919,-1.7473331230081165e-23,6387280.95124077,5.525735001922184e-06,-1.7473331230081165e-23,-0.9785986394254749,465.767978855968,-5.255439929182955e-22,-5.25543995599567e-22,0.00011364206825499965,0.975202205331408,9143.95124056025,8.651153822893566e-13,2.046169038516502e-28,9.786072307773475,0.0,2.220446049309322e-16,-7.292115865115365e-06,0.0,0.0,1.6191747942405682e-20,-0.975202205331408,303.2301933860383,0.45905280334515514,30149.45696856214,228.79968988685985,4.0533185581496977e-19,0.015756293386376234,-0.0025205282438903174,0.0,0.0,0.0,0.0203587858289203,8.747446232799488,6.173318486787119
0.2000000000000001,6387280.804281886,93.15359562279946,-1.4137072878390637e-22,6387280.80496117,2.3291962713660765e-05,-1.4137072878390637e-22,-1.9571795046649099,465.7680778908379,-2.1414527304459058e-21,-2.1414527736447183e-21,0.00024471457238775285,1.9503866339839093,9143.804960961334,3.64661636538185e-12,1.655485175558016e-27,9.786072756733551,0.0,2.220446049486236e-16,-1.4584233646616392e-05,0.0,0.0,1.6191747942405682e-20,-1.9503866339839093,303.2308216398924,0.45906089877761846,30150.113590524048,228.80063797474182,8.404501683116744e-19,0.01633508634367771,-0.005226281518269871,0.0,0.0,0.0,0.021106611141185,9.402081482057977,6.400092019560291
0.3000000000000002,6387280.559635698,139.73040827201388,-4.858155401121559e-22,6387280.561164092,5.511534033011877e-05,-4.858155401121559e-22,-2.93574077594355,465.76817495792045,-4.961003486543944e-21,-4.961003709059877e-21,0.00039517704036472467,2.9255514659374002,9143.56116388295,8.628921150768101e-12,5.689016613479761e-27,9.78607350499349,0.0,2.2204460497808763e-16,-2.1876353628919677e-05,0.0,0.0,1.6191747942405682e-20,-2.9255514659373993,303.23186871714387,0.4590743912838926,30151.20797614571,228.80221810670517,1.331835109066923e-18,0.017256976504249646,-0.008281924947296269,0.0,0.0,0.0,0.0222974759933629,10.493350184850128,6.761217609986339
0.4000000000000003,6387280.217134466,186.30723062184538,-1.1794973788439033e-21,6387280.219851617,0.00010304673201586927,-1.1794973788439033e-21,-3.9142796136815656,465.76827223649485,-9.15992885272934e-21,-9.159929573088262e-21,0.0005672080959406452,3.9006938612860647,9143.219851407552,1.6133115891111346e-11,1.3812197490120793e-26,9.786074552547017,0.0,2.220446050193043e-16,-2.9168476133115678e-05,0.0,0.0,1.6191747942405682e-20,-3.900693861286064,303.23333460460645,0.45909328111401876,30152.74015477787,228.80443026939813,1.9006931320071867e-18,0.018470702740528328,-0.011819329404939148,0.0,0.0,0.0,0.0238650944377477,12.021291814557635,7.236598297453146
0.5000000000000003,6387279.776780636,232.88406278729053,-2.3712013873742543e-21,6387279.781026181,0.00016933680062032283,-2.3712013873742543e-21,-4.89279239394711,465.76837154262074,-1.4961997004807377e-20,-1.4961998814881856e-20,0.0007626230066087062,4.875810195707185,9142.781025971855,2.6511567744902693e-11,2.7767337544542365e-26,9.78607589938679,0.0,2.220446050722502e-16,-3.646060151156702e-05,0.0,0.0,1.6191747942405682e-20,-4.875810195707185,303.235219285876,0.4591175686445431,30154.71016966069,228.80727444723072,2.5627081877828494e-18,0.01992307097129833,-0.01593602445869474,0.0,0.0,0.0,0.0257406618529754,13.98597081130433,7.805373994115815
0.6000000000000004,6387279.238577004,279.46090504717193,-4.23392017826285e-21,6387279.2446905915,0.0002563999514485926,-4.23392017826285e-21,-5.871274928249205,465.76847434270917,-2.2625551034300918e-20,-2.262555491256233e-20,0.0009828872367184506,5.850896280269314,9142.244690382735,4.014227993268407e-11,4.9580221803369735e-26,9.786077545504373,0.0,2.2204460513689815e-16,-4.375273014227885e-05,0.0,0.0,1.6191747942405682e-20,-5.850896280269314,303.237522741262,0.4591472543776403,30157.11807785344,228.81075062227208,3.3288829303099283e-18,0.021566015762324198,-0.020700429354559752,0.0,0.0,0.0,0.0278619871674091,16.3874753782892,8.4486903750786
0.7000000000000005,6387278.602526808,326.0377578113635,-6.967751080184058e-21,6387278.610848084,0.0003667815359344399,-6.967751080184058e-21,-6.849722638086473,465.7685818005449,-3.2432819144461836e-20,-3.243282659061414e-20,0.0012291634515207179,6.825947535993737,9141.610847875143,5.742375717124874e-11,8.159403802646457e-26,9.786079490890078,0.0,2.22044605213217e-16,-5.104486242375697e-05,0.0,0.0,1.6191747942405682e-20,-6.825947535993737,303.2402449475397,0.45918233893790716,30159.96394997544,228.8148587738749,4.2067157026835e-18,0.023359473513525728,-0.0261591720229135,0.0,0.0,0.0,0.0301772109218472,19.225916633441997,9.150826131802845
0.8000000000000006,6387277.868633795,372.61462159334104,-1.0801876103875382e-20,6387277.879502405,0.0005031303831811023,-1.0801876103875382e-20,-7.8281306808003235,465.76869483375316,-4.4682207076136914e-20,-4.468222026869187e-20,0.0015023679728145296,7.800959119717418,9140.879502196125,7.877070524764806e-11,1.264925625835481e-25,9.786081735532662,0.0,2.2204460530117084e-16,-5.833699877070556e-05,0.0,0.0,1.6191747942405682e-20,-7.800959119717415,303.2433858775894,0.4592228230677162,30163.247869830422,228.81959887813073,5.201263742257815e-18,0.025271547689744094,-0.03234370054612237,0.0,0.0,0.0,0.032645022255273,22.501428029215084,9.899258672471376
0.9000000000000007,6387277.036902166,419.19149698826374,-1.599589909737727e-20,6387277.050657755,0.0006681768692795755,-1.599589909737727e-20,-8.806494035502359,465.7688141664962,-5.968303569022861e-20,-5.968305766805091e-20,0.0018032234746293634,8.775926010027511,9140.050657545778,1.0461059759585547e-10,1.8731581886309492e-25,9.786084279419548,0.0,2.220446054007189e-16,-6.562913961059765e-05,0.0,0.0,1.6191747942405682e-20,-8.775926010027513,303.24694550065084,0.459268707630488,30166.9699346734,228.8249709082529,6.3159472911242304e-18,0.02727744471260092,-0.03927528346419494,0.0,0.0,0.0,0.0352332859701343,26.214164960544217,10.684247759638755
1.0000000000000009,6387276.107336646,465.7683846559061,-2.2840750305319774e-20,6387276.124318861,0.0008647158206198454,-2.2840750305319774e-20,-9.784807560179503,465.76894037342134,-7.775204369385989e-20,-7.775207856275751e-20,0.0021323029245407348,9.750843064371603,9139.12431865106,1.3538099869012335e-10,2.6747066987875424e-25,9.786087122536577,0.0,2.220446055118158e-16,-7.292128538099774e-05,0.0,0.0,1.6191747942405682e-20,-9.750843064371603,303.25092378200657,0.4593199936066088,30171.130254881275,228.83097483409807,7.553106586326803e-18,0.029358087644881594,-0.04696847338009658,0.0,0.0,0.0,0.0379172523631901,30.364304498909277,11.498292656271358
1.0999999999999897,6387275.0799424825,512.3452853075099,-3.1659305026162045e-20,6387275.100490971,0.0010955933511981762,-3.1659305026162045e-20,-10.76306602928641,465.76907391429086,-9.921108537317861e-20,-9.921113853639573e-20,0.0024900642120055123,10.725705056653743,9138.100490761239,1.7152750335021097e-10,3.707380628941568e-25,9.78609026486803,0.0,2.2204460563441083e-16,-8.021343652750238e-05,0.0,0.0,1.6191747942405682e-20,-10.725705056653744,303.2553206830023,0.45937668209368654,30175.728953975507,228.83761062219557,8.91437138415985e-18,0.0314988235454407,-0.05543340482115788,0.0,0.0,0.0,0.0406778875721065,34.95204521000231,12.335625828774722
1.1999999999999786,6387273.95472545,558.9221996956842,-4.280681408418817e-20,6387273.979179859,0.0013636967439857968,-4.280681408418817e-20,-11.74126415852095,465.7692151605112,-1.2438561326988756e-19,-1.2438569168549643e-19,0.002876876676328074,11.700506702012541,9136.97917965131,2.1350215262895558e-10,5.012780703533376e-25,9.78609370639661,0.0,2.2204460576844845e-16,-8.750559350215008e-05,0.0,0.0,1.6191747942405682e-20,-11.70050670201254,303.2601361610332,0.45943877430636754,30180.76616860939,228.84487823572528,1.0400901727268358e-17,0.03368836004613045,-0.06467729143271357,0.0,0.0,0.0,0.0435004998198382,39.97760702625457,13.19179638100641
1.2999999999999676,6387272.731691841,605.4991286066198,-5.667120990750543e-20,6387272.760391819,0.0016719466473059817,-5.667120990750543e-20,-12.719396621269592,465.76936441520655,-1.5360367100710346e-19,-1.5360378346851564e-19,0.0032930411809589336,12.675242673268444,9135.760391611764,2.6176221214066816e-10,6.6363347412758105e-25,9.786097447103494,0.0,2.2204460591386796e-16,-9.479775676221013e-05,0.0,0.0,1.6191747942405682e-20,-12.675242673268444,303.2653701695883,0.45950627157690854,30186.242048616867,228.8527776345841,1.2013544276901279e-17,0.0359179402616639,-0.07470539811945909,0.0,0.0,0.0,0.0463736734604414,45.441231155640494,14.06334682535415
1.3999999999999566,6387271.4108484965,652.0760728540533,-7.367332965816547e-20,6387271.444133695,0.0020232910145158876,-7.367332965816547e-20,-13.697458059634272,465.76952192835563,-1.8719521796167284e-19,-1.8719537540527604e-19,0.0037388052464089033,13.649907611951997,9134.444133486073,3.1676922332370204e-10,8.62732378422712e-25,9.786101486968183,0.0,2.220446060706034e-16,-0.00010208992676922087,0.0,0.0,1.6191747942405682e-20,-13.649907611951996,303.27102265809066,0.4595791753531065,30192.15675684718,228.86130877514276,1.3752934334919457e-17,0.03818072051249483,-0.0855216754622844,0.0,0.0,0.0,0.0492884650023429,51.34318001434829,14.947569294063127
1.4999999999999456,6387269.992202775,698.653033274552,-9.426708245820473e-20,6387270.030412843,0.0024207003738779312,-9.426708245820473e-20,-14.675443091907908,465.7696879082362,-2.2549167143479224e-19,-2.254918872715369e-19,0.004214374498041329,14.624496135780383,9133.030412634347,3.7898826295926703e-10,1.103890168036176e-24,9.786105825968647,0.0,2.220446062385837e-16,-0.00010938210398826023,0.0,0.0,1.6191747942405682e-20,-14.624496135780383,303.2770935720546,0.4596574872003184,30198.510469331584,228.87047161048145,1.5619563086519208e-17,0.04047130682979007,-0.09712917786252169,0.0,0.0,0.0,0.0522378042538297,57.68373717595569,15.84232394992947
1.5999999999999346,6387268.475762608,745.230010723797,-1.1893957852601729e-19,6387268.519237199,0.0028671640863238384,-1.1893957852601729e-19,-15.653346317695659,465.7698625301216,-2.688255929940523e-19,-2.68825883468536e-19,0.0047199213571603015,15.599002843779452,9131.519236990098,4.4888735735604406e-10,1.3928110205749716e-24,9.786110464081133,0.0,2.220446064177327e-16,-0.0001166742888873539,0.0,0.0,1.6191747942405682e-20,-15.599002843779452,303.28358285284287,0.4597412087983252,30205.30337503193,228.88026609002188,1.7613822479474194e-17,0.042785410940093895,-0.10953034262042136,0.0,0.0,0.0,0.0552160498288842,64.46320733103693,16.745904203532923
1.6999999999999236,6387266.861536429,791.8070060736308,-1.4821123210343452e-19,6387266.910615195,0.003365687380507342,-1.4821123210343452e-19,-16.631162321454962,465.7700459429368,-3.1753047165572095e-19,-3.1753085622819786e-19,0.005255591703404299,16.573422319824402,9129.910614985318,5.269370182282207e-10,1.735589111756465e-24,9.786115401280403,0.0,2.220446066079688e-16,-0.00012396648193701475,0.0,0.0,1.6191747942405682e-20,-16.573422319824402,303.2904904379897,0.45983034194548683,30212.535676181138,228.8906921600129,1.9736035594731897e-17,0.04511959449291882,-0.12272717879261508,0.0,0.0,0.0,0.0582186586614065,71.68191625507913,17.656936501049202
1.7999999999999126,6387265.14953323,838.3840202096911,-1.8263584620606703e-19,6387265.204555822,0.003919288960491004,-1.8263584620606703e-19,-17.608885674958476,465.7702382743967,-3.71940573038521e-19,-3.7194107479446134e-19,0.005821510006930772,17.54774913510312,9128.204555612918,6.136098682258464e-10,2.138709607855239e-24,9.786120637539534,0.0,2.2204460680920537e-16,-0.00013125868360986398,0.0,0.0,1.6191747942405682e-20,-17.54774913510312,303.29781626093364,0.459924888555295,30220.207588006953,228.90174976312562,2.1986477493641643e-17,0.04747107798058432,-0.13672139682917037,0.0,0.0,0.0,0.0612419391050656,79.34021078063147,18.574305457486336
1.899999999999901,6387263.339762558,884.9610540294972,-2.228006847057454e-19,6387263.401068631,0.004530999073139544,-2.228006847057454e-19,-18.58651093901247,465.77043963500586,-4.3239083410571923e-19,-4.3239148019001133e-19,0.00641778332957149,18.521977849834997,9126.401068422183,7.093803384375077e-10,2.6090495098057827e-24,9.786126172829931,0.0,2.2204460702135047e-16,-0.0001385508943803327,0.0,0.0,1.6191747942405682e-20,-18.52197784983499,303.3055602510391,0.4600248506566311,30228.31933875662,228.91343883848307,2.4365389732874133e-17,0.049837597044676586,-0.1515144988336154,0.0,0.0,0.0,0.0642828652597031,87.43845877331567,19.497097555470372
1.9999999999998903,6387261.43223449,931.5381084408913,-2.693265355772141e-19,6387261.5001636995,0.005203857932592839,-2.693265355772141e-19,-19.56403266465361,465.7706501211973,-4.992167898568566e-19,-4.992176119333523e-19,0.0070445044646824054,19.49610301446795,9124.500163490404,8.147244217978989e-10,3.153878393836461e-24,9.786132007121438,0.0,2.220446072443068e-16,-0.00014584311472441586,0.0,0.0,1.6191747942405682e-20,-19.49610301446795,303.31372233371883,0.4601302303953476,30236.871169829195,228.9257593218439,2.687299061121443e-17,0.0522172935956662,-0.16710784228191847,0.0,0.0,0.0,0.0673389362796014,95.9770491105142,20.42455848373055
2.09999999999988,6387259.426959658,978.1151843607616,-3.228677680121258e-19,6387259.501851662,0.005940914419798208,-3.228677680121258e-19,-20.54144539397507,465.770869817819,-5.727545227168088e-19,-5.727555574553636e-19,0.007701754421585399,20.47011917050479,9122.501851453508,9.301194695590418e-10,3.780859080288103e-24,9.786138140382205,0.0,2.22044607477972e-16,-0.0001531353451194644,0.0,0.0,1.6191747942405682e-20,-20.47011917050479,303.32230243030443,0.46024103003257877,30245.863335642636,228.93871114540383,2.950948249984821e-17,0.05460863264310418,-0.18350268560536692,0.0,0.0,0.0,0.0704080689035115,104.95639166107725,21.356060549274023
2.1999999999998687,6387257.323949232,1024.6922827139865,-3.841123853325375e-19,6387257.406143687,0.006745225009578311,-3.841123853325375e-19,-21.518743660686027,465.7710988001213,-6.5334062826059345e-19,-6.533419178454552e-19,0.008389604414205528,21.444020851062916,9120.406143477694,1.0560440233847998e-09,4.498048253243738e-24,9.786144572578808,0.0,2.2204460772223855e-16,-0.00016042758604401628,0.0,0.0,1.6191747942405682e-20,-21.444020851062916,303.33130045816944,0.46035725194632543,30255.2961037668,228.95229423797952,3.22750571532961e-17,0.0570103382407913,-0.20070022121624842,0.0,0.0,0.0,0.0734885146835819,114.37691726664842,22.291077578923073
2.2999999999998577,6387255.123214926,1071.2694044325574,-4.537820751027993e-19,6387255.213051492,0.007619852871818027,-4.537820751027993e-19,-22.49592199047663,465.7713371353502,-7.413121928415028e-19,-7.413137855130626e-19,0.009108117453353106,22.41780258123939,9118.213051282131,1.1929776747057012e-09,5.313897047350856e-24,9.786151303676156,0.0,2.220446079769931e-16,-0.00016771983797766703,0.0,0.0,1.6191747942405682e-20,-22.417802581239386,303.340716330634,0.4604788986302046,30265.16975482665,228.9665085248613,3.5169899603434785e-17,0.059421343747527285,-0.21870159972255088,0.0,0.0,0.0,0.0765787957127481,124.23907772303937,23.229165430045477
2.3999999999998467,6387252.824769009,1117.846550454845,-5.326322574648541e-19,6387252.922587345,0.008567867118507306,-5.326322574648541e-19,-23.472974901239805,465.7715848840462,-8.370067799944713e-19,-8.370087306048751e-19,0.009857349644803145,23.391458878332887,9115.922587137831,1.3414009469092144e-09,6.237251613839361e-24,9.78615833363752,0.0,2.220446082421175e-16,-0.00017501210140093889,0.0,0.0,1.6191747942405682e-20,-23.391458878332887,303.3505499569709,0.46060597269352493,30275.4845825132,228.98135392782055,3.8194191047210795e-17,0.06184075289291506,-0.23750794788501303,0.0,0.0,0.0,0.0796776543141249,134.54334576210755,24.169946734926558
2.499999999999836,6387250.428624306,1164.4237217249836,-6.214521324566104e-19,6387250.534764077,0.00959234216473627,-6.214521324566104e-19,-24.449896903186147,465.7718421011021,-9.407624233801232e-19,-9.407647939885085e-19,0.010637351246604159,24.36498425195873,9113.534763867636,1.5017951953704885e-09,7.277353674631083e-24,9.786165662424505,0.0,2.2204460851748834e-16,-0.00018230437679518673,0.0,0.0,1.6191747942405682e-20,-24.36498425195873,303.36080124240783,0.4607384768612956,30286.240893589336,228.99683036510976,4.134811101092574e-17,0.06426780906267383,-0.25712038207558363,0.0,0.0,0.0,0.0827840133516228,145.29021503368833,25.113098865764833
2.5999999999998247,6387247.934794179,1211.000919192352,-7.21064726882426e-19,6387248.049595047,0.01069635719418839,-7.21064726882426e-19,-25.426682498878563,465.77210883663076,-1.0529176246546458e-18,-1.0529204851364286e-18,0.011448167538148358,25.338373204083556,9111.04959483828,1.6746425238435148e-09,8.443841071204398e-24,9.786173289997096,0.0,2.2204460880297656e-16,-0.00018959666464251587,0.0,0.0,1.6191747942405682e-20,-25.338373204083556,303.3714700881634,0.46087641397467954,30297.439007931953,229.01293775151385,4.4631838988602985e-17,0.0667018708857553,-0.27754001846549203,0.0,0.0,0.0,0.0858969446837451,156.48020008756777,26.058344368888566
2.6999999999998137,6387245.34329254,1257.5781438111303,-8.323269411662614e-19,6387245.467094169,0.011882995695270359,-8.323269411662614e-19,-26.403326183205532,465.77238513668755,-1.1738113550854396e-18,-1.1738147837729268e-18,0.012289839541060023,26.311620228998642,9108.46709396039,1.8604257119112197e-09,9.746748313255886e-24,9.786181216313647,0.0,2.220446090984481e-16,-0.0001968889654257036,0.0,0.0,1.6191747942405682e-20,-26.311620228998642,303.3825563914491,0.46101978699100776,30309.07925853856,229.02967599835023,4.804555569378787e-17,0.06914239269002691,-0.29876798080947914,0.0,0.0,0.0,0.0890156439087979,168.1138363551073,27.005443306684146
2.799999999999802,6387242.654133856,1304.1553965399285,-9.561295965162995e-19,6387242.787275916,0.013155345065092352,-9.561295965162995e-19,-27.379822443307603,465.77267104387033,-1.303783060040121e-18,-1.3037871443893352e-18,0.013162404618722812,27.28471981324652,9105.787275706647,2.0596281530583523e-09,1.1196507131009389e-23,9.786189441330826,0.0,2.2204460940376346e-16,-0.0002041812796281432,0.0,0.0,1.6191747942405682e-20,-27.28471981324652,303.39406004539313,0.4611685989827791,30321.161991451943,229.04704501335084,5.158944402424645e-17,0.0715889087474662,-0.32080540644471395,0.0,0.0,0.0,0.0921394100072868,180.19168013013478,27.954187084466916
2.899999999999792,6387239.8673331505,1350.7326783414644,-1.0933974826543324e-18,6387240.010155308,0.014516496270145545,-1.0933974826543324e-18,-28.35616575846749,465.77296659782064,-1.4431726656995438e-18,-1.4431775029783071e-18,0.014065896976969005,28.257666435511062,9103.010155099297,2.2727338016209285e-09,1.2803947034138528e-23,9.786197965003655,0.0,2.22044609718778e-16,-0.00021147360773379187,0.0,0.0,1.6191747942405682e-20,-28.25766643551107,303.4059809390968,0.46132285313836985,30333.687565823693,229.0650447007434,5.526368981166705e-17,0.07404102049079486,-0.34365345095275873,0.0,0.0,0.0,0.0952676288238098,192.71430854996171,28.904393441593914
2.9999999999997806,6387236.982905986,1397.3099901822902,-1.2450894063066861e-18,6387237.135747909,0.015969543554835562,-1.2450894063066861e-18,-29.332350599971935,465.7732718356475,-1.5923205875047927e-18,-1.5923262855135531e-18,0.015000348089493938,29.23045456647942,9100.135747701075,2.500227127228092e-09,1.4580295879607158e-23,9.78620678728554,0.0,2.220446100433412e-16,-0.00021876595022711636,0.0,0.0,1.6191747942405682e-20,-29.23045456647942,303.4183189576754,0.46148255276254935,30346.656353962284,229.08367496130995,5.906848240857776e-17,0.07649838607579329,-0.3673132918092738,0.0,0.0,0.0,0.0983997595802821,205.68231957591794,29.855902361751607
3.0999999999997696,6387234.000868494,1443.8873330325566,-1.4121982406106647e-18,6387234.164069858,0.01751758417922317,-1.4121982406106647e-18,-30.30837143095124,465.77358679228627,-1.7515677399664203e-18,-1.7515744177755377e-18,0.015965787052431214,30.20307866868157,9097.164069649252,2.7425930738166692e-09,1.6537180450230596e-23,9.786215908128169,0.0,2.220446103772981e-16,-0.00022605830759306333,0.0,0.0,1.6191747942405682e-20,-30.203078668681567,303.4310739821141,0.4616477012746019,30360.06874118702,229.10293569216606,6.300401515071531e-17,0.07896071180766055,-0.3917861312592307,0.0,0.0,0.0,0.101535323798524,219.09633197230212,30.808572713804192
3.1999999999997586,6387230.9212373495,1490.46470786581,-1.5957509755578055e-18,6387231.095137827,0.019163718202217517,-1.5957509755578055e-18,-31.284222706201266,465.7739115008024,-1.9212555475503607e-18,-1.921263336276352e-18,0.01696224089179018,31.17553319631233,9094.095137618191,3.0003170257618525e-09,1.8686627045378336e-23,9.786225327481601,0.0,2.220446107204876e-16,-0.00023335068031701413,0.0,0.0,1.6191747942405682e-20,-31.175533196312333,303.4442458894317,0.4618183022104222,30373.92512600479,229.12282678700367,6.707048572425045e-17,0.08142774505924258,-0.4170731986004739,0.0,0.0,0.0,0.1046738961499583,232.95698528639883,31.762279477018662
3.299999999999748,6387227.744029788,1537.042115658827,-1.796808769570226e-18,6387227.9289690545,0.020911048292063115,-1.796808769570226e-18,-32.259898871991474,465.7742459926535,-2.101725956421007e-18,-2.101735000011536e-18,0.01798973482285496,32.14781259503947,9090.928968845432,3.2738847782810112e-09,2.1041062084945382e-23,9.78623504529424,0.0,2.220446110727437e-16,-0.00024064306888476716,0.0,0.0,1.6191747942405682e-20,-32.147812595039476,303.45783455257094,0.4619943592210776,30388.22592000026,229.14334813592197,7.126809645840196e-17,0.08389926838894467,-0.44317575200332276,0.0,0.0,0.0,0.1078150968564607,247.26493982634923,32.71691143661152
3.399999999999737,6387224.469263598,1583.6195573914556,-2.01646700228676e-18,6387224.665581332,0.02276267953751193,-2.01646700228676e-18,-33.23539436586166,465.7745902979126,-2.2933214468693435e-18,-2.2933319029295757e-18,0.019048292472979674,33.1199113018004,9087.665581122637,3.5637825079447404e-09,2.3613312727490642e-23,9.78624506151281,0.0,2.2204461143389473e-16,-0.0002479354737824979,0.0,0.0,1.6191747942405682e-20,-33.11991130180039,303.47183984043966,0.4621758760733275,30402.971547885067,229.16449962548583,7.559705456032162e-17,0.08637509463060104,-0.47009507997118727,0.0,0.0,0.0,0.1109585853468334,262.02087663920287,33.67236926004589
3.4999999999997256,6387221.096957122,1630.1970340464882,-2.2558553286204762e-18,6387221.304993005,0.024721719322673707,-2.2558553286204762e-18,-34.21070361640985,465.7749444454599,-2.4963850462921044e-18,-2.4963970869307727e-18,0.02013793607436425,34.091823744590094,9084.304992795567,3.87049675315748e-09,2.6416607503263396e-23,9.786255376082366,0.0,2.22044611803764e-16,-0.0002552278954967447,0.0,0.0,1.6191747942405682e-20,-34.091823744590094,303.48626161791395,0.4623628566496385,30418.162447506413,229.18628113872606,8.00575723042831e-17,0.08885506277424479,-0.4978325025170256,0.0,0.0,0.0,0.1141040549355381,277.22549748806733,34.62856388329969
3.5999999999997145,6387217.627129277,1676.7745466095535,-2.5161377341371112e-18,6387217.847222987,0.026791277190399965,-2.5161377341371112e-18,-35.18582104307272,465.7753084631516,-2.7112603426154986e-18,-2.711274155313004e-18,0.021258686630344796,35.063544342241606,9080.84722277772,4.194514392842917e-09,2.946457696269807e-23,9.786265988946289,0.0,2.2204461218216924e-16,-0.00026252033451438643,0.0,0.0,1.6191747942405682e-20,-35.063544342241606,303.50109974578214,0.46255530494743935,30433.79906979406,229.208692555051,8.464986718455866e-17,0.09133903449415105,-0.5263893721139997,0.0,0.0,0.0,0.1172512283381389,292.87952482806,35.58541515083773
3.699999999999704,6387214.059799506,1723.3520960690237,-2.7985125917945118e-18,6387214.292290725,0.028974464723925966,-2.7985125917945118e-18,-36.16074105590045,465.7756823779633,-2.9382914980791494e-18,-2.9383072865874974e-18,0.022410564061159103,36.03506750420081,9077.2922905174,4.536322627987873e-09,3.2771254340846723e-23,9.78627690004633,0.0,2.220446125689227e-16,-0.00026981279132262475,0.0,0.0,1.6191747942405682e-20,-36.03506750420081,303.5163540808892,0.4627532250809703,30449.881878918335,229.23173375045974,8.937416203988898e-17,0.09382689120995634,-0.5557670744694778,0.0,0.0,0.0,0.1203998538749953,308.98370178309756,36.54285066430117
3.799999999999693,6387210.394987832,1769.9296834159254,-3.1042127200756277e-18,6387210.640216251,0.0312743954323476,-3.1042127200756277e-18,-37.13545805532645,465.7760662161176,-3.177823263312843e-18,-3.1778412485809903e-18,0.02359358732842435,37.006387630296224,9073.640216042,4.896408963786541e-09,3.6351076238130335e-23,9.786288109322525,0.0,2.2204461296383144e-16,-0.00027710526640896155,0.0,0.0,1.6191747942405682e-20,-37.00638763029622,303.53202447594936,0.46295662127883414,30466.411352099127,229.2554045972552,9.423068515401231e-17,0.0963185315872858,-0.5859670291501728,0.0,0.0,0.0,0.1235497022441285,325.53879211928876,37.50080480374655
3.8999999999996815,6387206.632714841,1816.507309643878,-3.4345054425414552e-18,6387206.891020149,0.03369418467499318,-3.4345054425414552e-18,-38.109966431933444,465.77646000319567,-3.4302009916509315e-18,-3.4302214127714534e-18,0.024807774546852047,37.97749911050504,9069.891019938701,5.2752611978741845e-09,4.0218883317718114e-23,9.786299616713219,0.0,2.220446133666971e-16,-0.000284397760261199,0.0,0.0,1.6191747942405682e-20,-37.977499110505036,303.54811077963205,0.46316549788508365,30483.387979702442,229.27970496416907,9.921967033807127e-17,0.09881386940471723,-0.6169906900945802,0.0,0.0,0.0,0.1267005637666349,342.5455802196387,38.45921789220324
3.9999999999996714,6387202.773001689,1863.0849757490294,-3.790692648825469e-18,6387203.044723573,0.03623694957124735,-3.790692648825469e-18,-39.08426056621626,465.7768637642312,-3.695770653640805e-18,-3.6957937688292335e-18,0.026053143077516862,38.948396324715986,9066.044723364688,5.673367406283173e-09,4.438992101978686e-23,9.786311422155052,0.0,2.2204461377731575e-16,-0.00029169027336740943,0.0,0.0,1.6191747942405682e-20,-38.948396324715986,303.5646128365212,0.46337985935866965,30500.812265203927,229.30463471629562,1.0434135699749509e-16,0.10131283172561088,-0.6488395460288815,0.0,0.0,0.0,0.1298522460264903,360.0048710569213,39.41803547980559
4.099999999999704,6387198.815870065,1909.6626827300088,-4.1741108570870734e-18,6387199.10134822,0.03890580894732061,-4.1741108570870734e-18,-40.058334828342176,465.77727752379934,-3.974878851709854e-18,-3.9749049393008375e-18,0.027329709618757955,39.919073642489586,9062.101348013082,6.091215935183282e-09,4.887984029286599e-23,9.786323525583057,0.0,2.2204461419547815e-16,-0.0002989828062159397,0.0,0.0,1.6191747942405682e-20,-39.919073642489586,303.5815304872646,0.46359971027535263,30518.684725352934,229.33019371531233,1.0959599018697602e-16,0.10381535732596642,-0.6815151208088123,0.0,0.0,0.0,0.1330045718406889,377.9174901675912,40.37720772811502
4.199999999999737,6387194.761342244,1956.240431587881,-4.586131277938438e-18,6387195.060916369,0.04170388325146168,-4.586131277938438e-18,-41.03218357790893,465.77770130609133,-4.267872834960965e-18,-4.267902194441378e-18,0.02863749027704023,40.88952542281624,9058.060916158372,6.529295387681251e-09,5.370469834243599e-23,9.786335926930537,0.0,2.2204461462096965e-16,-0.00030627535929539466,0.0,0.0,1.6191747942405682e-20,-40.88952542281624,303.5988635683818,0.46382505532519225,30537.005889977256,229.35638181918551,1.1498382065424574e-16,0.10632139533657894,-0.715018973691881,0.0,0.0,0.0,0.1361573775075307,396.28428362155245,41.33668887873988
4.299999999999771,6387190.609441064,2002.8182233261139,-5.028159879856189e-18,6387190.923450853,0.04463429450869005,-5.028159879856189e-18,-42.0058011637014,465.77813513497887,-4.5751005140713435e-18,-4.5751334671332485e-18,0.029976500631636708,41.859746013872886,9053.923450643912,6.988094616807727e-09,5.888095939691518e-23,9.78634862612907,0.0,2.2204461505357003e-16,-0.000313567933094627,0.0,0.0,1.6191747942405682e-20,-41.859746013872886,303.6166119123217,0.46405589931325386,30555.776302049657,229.38319888225112,1.2050510487604999e-16,0.1088309040675024,-0.749352699561077,0.0,0.0,0.0,0.1393105112896212,415.1061179933707,42.296436793157184
4.399999999999804,6387186.3601899175,2049.39605895055,-5.501637456087411e-18,6387186.688975072,0.047700166275104906,-5.501637456087411e-18,-42.97918192344637,465.77857903407727,-4.89691047627625e-18,-4.896947367891689e-18,0.031346755799022165,42.82972975277775,9049.688974862624,7.468102718437871e-09,6.442549549114489e-23,9.786361623108593,0.0,2.220446154930538e-16,-0.00032086052810273045,0.0,0.0,1.6191747942405682e-20,-42.82972975277775,303.63477534754844,0.4642922471607057,30574.99651778634,229.4106447553399,1.2616010508722925e-16,0.11134384998652277,-0.7845179291057038,0.0,0.0,0.0,0.1424638320959396,434.38388033311634,43.25641255290184
4.4999999999998375,6387182.013612765,2095.973939469384,-6.00803969305751e-18,6387182.357512987,0.05090462358976724,-6.00803969305751e-18,-43.95232018356669,465.77903302679465,-5.2336520004201475e-18,-5.233693199958611e-18,0.03274827047979144,43.799470965344554,9045.357512778568,7.969809023831952e-09,7.035558726746212e-23,9.78637491779734,0.0,2.220446159391898e-16,-0.0003281531448090377,0.0,0.0,1.6191747942405682e-20,-43.799470965344554,303.65335369845207,0.4645341039036294,30594.66710655977,229.43871928563735,1.3194908930334618e-16,0.1138602068283611,-0.8205163289620889,0.0,0.0,0.0,0.1456172083334023,454.11847813440335,44.21658011112747
4.599999999999871,6387177.5697341515,2142.5518658931396,-6.548877240285907e-18,6387177.929089149,0.05425079292584174,-6.548877240285907e-18,-44.92521025893448,465.7794971363819,-5.5856750720598014e-18,-5.5857209744066644e-18,0.03418105900681385,44.7689639658356,9040.929088941712,8.493703092059975e-09,7.668892479442898e-23,9.786388510121775,0.0,2.2204461639174165e-16,-0.00033544578370310835,0.0,0.0,1.6191747942405682e-20,-44.7689639658356,303.6723467852893,0.4647814746922118,30614.788650842635,229.46742231658806,1.3787233133838312e-16,0.11637995481571921,-0.8573496018236335,0.0,0.0,0.0,0.1487705169030712,474.3108393016079,45.17690598802956
4.699999999999904,6387173.028579172,2189.129839234661,-7.125695781814208e-18,6387173.403728654,0.057741802173740066,-7.125695781814208e-18,-45.897846452623355,465.7799713859728,-5.953330398609272e-18,-5.953381425330395e-18,0.03564513538866413,45.73820305671414,9036.403728445906,9.04027470743663e-09,8.344360840327378e-23,9.786402400006738,0.0,2.220446168504672e-16,-0.00034273844527472544,0.0,0.0,1.6191747942405682e-20,-45.73820305671414,303.69175442436716,0.46503436479310933,30635.361746410046,229.4967536881681,1.439301108191655e-16,0.11890307997696432,-0.8950194865305028,0.0,0.0,0.0,0.1519236423201759,494.9619121193301,46.137359003848125
4.799999999999938,6387168.390173511,2235.7078605091024,-7.740076109150524e-18,6387168.781457189,0.061380780593443825,-7.740076109150524e-18,-46.87022305566066,465.78045579862317,-6.336969424515977e-18,-6.33702602504754e-18,0.03714051334368601,46.70718252839653,9031.78145697999,9.610013872130718e-09,9.063814954208656e-23,9.786416587375284,0.0,2.22044617315119e-16,-0.00035003113001389364,0.0,0.0,1.6191747942405682e-20,-46.70718252839653,303.7115764278275,0.4652927795866067,30656.387002118674,229.5267132365534,1.5012271319472617e-16,0.12142957354503017,-0.9335277581278583,0.0,0.0,0.0,0.1550764759408482,516.0726652158006,47.09791004416992
4.899999999999971,6387163.654543404,2282.285930733921,-8.393634195732569e-18,6387164.062300992,0.06517085880314429,-8.393634195732569e-18,-47.84233434677863,465.7809503973434,-6.736944346459125e-18,-6.7370069993093185e-18,0.03866720633556974,47.675896659003364,9027.062300783506,1.0203410804460584e-08,9.829147164779959e-23,9.786431072148812,0.0,2.22044617785444e-16,-0.000357323838410827,0.0,0.0,1.6191747942405682e-20,-47.67589665900338,303.73181260384047,0.4655567245691113,30677.865040119916,229.557300794407,1.5645042974418208e-16,0.12395943142856529,-0.9728762279148381,0.0,0.0,0.0,0.1582289152804858,537.644087530719,48.058531853075316
5.000000000000004,6387158.821715678,2328.8640509288734,-9.0880212729114e-18,6387159.246286896,0.06911516873810856,-9.0880212729114e-18,-48.81417459216598,465.7814552051294,-7.153608128562926e-18,-7.15367734255694e-18,0.040225227600879106,48.644339714111126,9022.24628668644,1.0820955932527892e-08,1.064229110359757e-22,9.786445854246956,0.0,2.220446182611837e-16,-0.0003646165709559579,0.0,0.0,1.6191747942405682e-20,-48.64433971411114,303.75246275643883,0.46582620535094527,30699.796495690898,229.58851619062133,1.629135575805436e-16,0.1264926537433969,-1.013066743468245,0.0,0.0,0.0,0.1613808634117041,559.6771882771911,49.01919885036429
5.100000000000038,6387153.891717719,2375.442222116016,-9.824923907457021e-18,6387154.333442285,0.07321684364640099,-9.824923907457021e-18,-49.78573804521909,465.7819702449899,-7.587314517619196e-18,-7.587390833153687e-18,0.04181459017871607,49.6125059465033,9017.333442075153,1.1463139893621706e-08,1.1505221780841696e-22,9.786460933587684,0.0,2.2204461874207403e-16,-0.00037190932813992107,0.0,0.0,1.6191747942405682e-20,-49.612505946503305,303.7735266856669,0.46610122765826706,30722.18201740163,229.62035925053866,1.69512399653566e-16,0.12902924439821742,-1.0541011886602787,0.0,0.0,0.0,0.164532228430983,582.1729969072186,49.979886969661024
5.200000000000071,6387148.864577496,2422.0204453197093,-1.0606064080586326e-17,6387149.323795135,0.07747901805492148,-1.0606064080586326e-17,-50.75701894629311,465.7824955399714,-8.038418058311918e-18,-8.038502048652734e-18,0.043435306931642145,50.58038959592154,9012.323794926453,1.2130453528975079e-08,1.2419955677860134e-22,9.78647631008718,0.0,2.220446192278453e-16,-0.0003792021104535589,0.0,0.0,1.6191747942405682e-20,-50.58038959592153,303.79500418743953,0.4663817973311843,30745.02226697239,229.65282979573078,1.7624726474933888e-16,0.13156921072568126,-1.0959814836559818,0.0,0.0,0.0,0.1676829229853412,605.1325630718233,50.94057351467467
5.300000000000105,6387143.740323547,2468.5987215666178,-1.1433199268513597e-17,6387144.217373985,0.08190482776456684,-1.1433199268513597e-17,-51.72801152245304,465.7830311131805,-8.507274108441216e-18,-8.50736638103829e-18,0.045087390570261864,51.54798488881665,9007.217373776937,1.2823387883081377e-08,1.338855084149479e-22,9.786491983659948,0.0,2.220446197182224e-16,-0.0003864949183879146,0.0,0.0,1.6191747942405682e-20,-51.54798488881666,303.8168950536768,0.4666679203254821,30768.317919425695,229.685927644197,1.8311846748938978e-16,0.1341125631547223,-1.1387095849076654,0.0,0.0,0.0,0.1708328638510629,628.556956584468,51.90123703128823
5.400000000000138,6387138.518984998,2515.177051885724,-1.2308122524522974e-17,6387139.014207963,0.08649740982590276,-1.2308122524522974e-17,-52.69870998722496,465.78357698780343,-8.994238854140497e-18,-8.99434005196334e-18,0.04677085366989464,52.51528603809995,9002.014207754777,1.3542434199959065e-08,1.4413106980190573e-22,9.786507954218738,0.0,2.220446202129245e-16,-0.00039378775243423367,0.0,0.0,1.6191747942405682e-20,-52.51528603809996,303.83919907217273,0.46695960271086157,30792.06966295425,229.71965261015848,1.9012632832698176e-16,0.13665931491730615,-1.182287485131887,0.0,0.0,0.0,0.173981971558199,652.4472673791174,52.86185719348389
5.500000000000171,6387133.200591553,2561.755437308334,-1.3232662562562324e-17,6387133.714326779,0.09125990253304819,-1.3232662562562324e-17,-53.66910854034762,465.78413318712467,-9.499669325083268e-18,-9.499780128002932e-18,0.048485708689245934,53.48228724289472,8996.71432657064,1.4288083922267976e-08,1.549576556188576e-22,9.786524221674537,0.0,2.220446207116654e-16,-0.0004010806130839591,0.0,0.0,1.6191747942405682e-20,-53.482287242894714,303.8619160266379,0.4672568506714625,30816.27819897519,229.75400450411655,1.972711735428518e-16,0.13920948178663717,-1.2267172132829498,0.0,0.0,0.0,0.1771301700549549,676.8046054700322,53.822414701391075
5.600000000000205,6387127.785173483,2608.333878868087,-1.420868384235701e-17,6387128.317760709,0.09619544541618215,-1.420868384235701e-17,-54.639201367523924,465.7846997345445,-1.0023923409677914e-17,-1.0024044535846134e-17,0.05023196798865127,54.448982688287714,8991.317760499522,1.5060828690209836e-08,1.663870991368229e-22,9.786540785936634,0.0,2.220446212141531e-16,-0.0004083735008287291,0.0,0.0,1.6191747942405682e-20,-54.448982688287714,303.88504569678224,0.467559670506897,30840.944242226084,229.78898313297108,2.0455333523998917e-16,0.1417630818426424,-1.2720008345204326,0.0,0.0,0.0,0.1802773864071652,701.6301009114213,54.782891189982166
5.700000000000238,6387122.272761657,2654.912377600967,-1.5238086656042484e-17,6387122.824540621,0.10130717921688973,-1.5238086656042484e-17,-55.60898264017286,465.785276653593,-1.0567359870245723e-17,-1.0567492077528426e-17,0.05200964384096361,55.41536654508112,8985.82454041368,1.5861160337741904e-08,1.7844165323294658e-22,9.786557646912529,0.0,2.2204462172008987e-16,-0.00041566641616037913,0.0,0.0,1.6191747942405682e-20,-55.41536654508114,303.9085878581777,0.46786806863042013,30866.06852062801,229.82458829980604,2.1197315133611333e-16,0.14432013526063892,-1.3181404501624128,0.0,0.0,0.0,0.1834235505288131,726.9249037519297,55.74326914714311
5.800000000000272,6387116.663387531,2701.4909345453166,-1.6322807216313643e-17,6387117.234697975,0.10659824588867964,-1.6322807216313643e-17,-56.578446515181724,465.78586396794304,-1.1130338358178723e-17,-1.1130482445600823e-17,0.05381874844485535,56.381432969544825,8980.234697767854,1.6689570892731597e-08,1.9114399142274811e-22,9.786574804507987,0.0,2.220446222291727e-16,-0.0004229593595709368,0.0,0.0,1.6191747942405682e-20,-56.38143296954484,303.93254228232684,0.4681820515697705,30891.651775366296,229.86081980398612,2.1953096555622677e-16,0.14688066412177186,-1.3651381976391561,0.0,0.0,0.0,0.1865685949397041,752.6901839917375,56.703531840013625
5.900000000000305,6387110.95708313,2748.0695507418613,-1.7464817746088943e-17,6387111.548264805,0.11207178860344823,-1.7464817746088943e-17,-57.547587134658684,465.7864617014261,-1.1713219429077198e-17,-1.1713376238297935e-17,0.055659293940466086,57.34717610316884,8974.548264597022,1.7546552578042088e-08,2.0451720891011093e-22,9.786592258627008,0.0,2.220446227410928e-16,-0.00043025233155262336,0.0,0.0,1.6191747942405682e-20,-57.347176103168835,303.95690873667627,0.46850162596731315,30917.694760914612,229.89767744117034,2.2722712742398884e-16,0.14944469224179704,-1.4129962504394797,0.0,0.0,0.0,0.1897124545472849,778.9271315376578,57.66366324863984
6.000000000000338,6387105.153881074,2794.6482272337075,-1.8666126569687125e-17,6387105.7652737275,0.11773095172277061,-1.8666126569687125e-17,-58.51639862568568,465.787069878038,-1.2316364557863297e-17,-1.2316534974671347e-17,0.05753129241395088,58.31259007241625,8968.765273519788,1.843259780711101e-08,2.1858482365498327e-22,9.786610009171856,0.0,2.2204462325553583e-16,-0.0004375453325978555,0.0,0.0,1.6191747942405682e-20,-58.31259007241625,303.9816869846075,0.46882679857986465,30944.198245033447,229.93516100329055,2.350619922521028e-16,0.15201224501652044,-1.46171681805097,0.0,0.0,0.0,0.192855066449846,805.6369561566447,58.623648006107246
6.100000000000372,6387099.253814579,2841.226965066376,-1.9928778205513926e-17,6387099.885757964,0.12357888080111525,-1.9928778205513926e-17,-59.48487510007193,465.7876885219542,-1.2940136153867368e-17,-1.2940321109721595e-17,0.05943475591116607,59.27766898847676,8962.885757756549,1.9348199184527083e-08,2.3337077745876184e-22,9.786628056042986,0.0,2.2204462377218145e-16,-0.000444838363199235,0.0,0.0,1.6191747942405682e-20,-59.277668988476755,304.0068767853637,0.46915757627768295,30971.16300870064,229.97327027843338,2.4303592113146546e-16,0.15458334928135628,-1.5113021458925129,0.0,0.0,0.0,0.1959963697587333,832.820887426599,59.58347134442464
6.200000000000405,6387093.256917422,2887.8057652878183,-2.1254853460256158e-17,6387093.909751299,0.1296187226042757,-2.1254853460256158e-17,-60.45301065410762,465.78831765753773,-1.3584897575887667e-17,-1.3585098049461289e-17,0.06136969644753287,60.2424069470203,8956.909751090903,2.0293849508989418e-08,2.488994370673271e-22,9.786646399139157,0.0,2.220446242907038e-16,-0.0004521314238495607,0.0,0.0,1.6191747942405682e-20,-60.2424069470203,304.03247789421977,0.4694939660466541,30998.589846302773,230.01200505109028,2.5114928092119423e-16,0.1571580331850219,-1.5617545152522765,0.0,0.0,0.0,0.1991363054372782,860.4801746915437,60.543119045525344
6.300000000000439,6387087.163224005,2934.3846289484245,-2.26464695245802e-17,6387087.837288133,0.13585362506548607,-2.26464695245802e-17,-61.420799368318235,465.7889573093467,-1.4251013147219796e-17,-1.4251230165979266e-17,0.06333612601089013,61.20679802795145,8950.837287925271,2.1270041766509913e-08,2.651955952916958e-22,9.78666503835727,0.0,2.2204462481077156e-16,-0.0004594245150418219,0.0,0.0,1.6191747942405682e-20,-61.20679802795146,304.0584900622488,0.46983597498517593,31026.47956539436,230.051365101797,2.5940244423525944e-16,0.15973632607326751,-1.6130762432045866,0.0,0.0,0.0,0.2022748161550276,888.6160870063662,61.50257739682893
6.400000000000472,6387080.972769307,2980.9635571010567,-2.4105780070331868e-17,6387081.668403456,0.14228673731311778,-2.4105780070331868e-17,-62.388235307219546,465.7896075021443,-1.4938848170653248e-17,-1.4939082812479293e-17,0.06533405657265366,62.1708362951643,8944.668403246844,2.2277269134822953e-08,2.8228447214625424e-22,9.786683973592476,0.0,2.220446253320474e-16,-0.000466717637269191,0.0,0.0,1.6191747942405682e-20,-62.1708362951643,304.0849130364735,0.470183610306085,31054.832986868514,230.09135020735403,2.677957894310179e-16,0.1623182583843787,-1.6652696825386213,0.0,0.0,0.0,0.2054118461551526,917.2299130891093,62.46183315087412
6.500000000000505,6387074.685588904,3027.542550801055,-2.5634975349234243e-17,6387075.4031328345,0.1489212096551888,-2.5634975349234243e-17,-63.3553125190728,465.7902682609028,-1.5648768943434887e-17,-1.5649022338244552e-17,0.06736350009231142,63.1345157962977,8938.40313262758,2.3316024981033347e-08,3.0019171600453437e-22,9.786703204738165,0.0,2.220446258541883e-16,-0.0004740107910250394,0.0,0.0,1.6191747942405682e-20,-63.134515796297705,304.11174655987094,0.47053687933667265,31083.650944971912,230.13196014082666,2.7632970059619874e-16,0.16490386155348924,-1.7183372216774853,0.0,0.0,0.0,0.2085473411339579,946.3229612688847,63.42087348859328
6.600000000000539,6387068.301718956,3074.121611106275,-2.7236282293080214e-17,6387069.0415124465,0.15576019359104012,-2.7236282293080214e-17,-64.3220250356408,465.7909396108132,-1.6381142772200096e-17,-1.6381416103613653e-17,0.06942446852419555,64.09783056249141,8932.041512240097,2.438680286351756e-08,3.189434047724917e-22,9.786722731685918,0.0,2.220446263768456e-16,-0.00048130397680292537,0.0,0.0,1.6191747942405682e-20,-64.09783056249142,304.1389903713097,0.47089578951779887,31112.93428724655,230.17319467144193,2.8500456753475683e-16,0.16749316792479324,-1.7722812845902396,0.0,0.0,0.0,0.2116812481311986,975.8965594307167,64.37968598585007
6.700000000000572,6387061.8211962525,3120.7007390771028,-2.891196461541623e-17,6387062.58357908,0.16280684179416446,-2.891196461541623e-17,-65.28836687194448,465.79162157728945,-1.7136337987862515e-17,-1.713663249488787e-17,0.07151697382050116,65.06077460814244,8925.58357887244,2.5490096529308367e-08,3.3856604707924684e-22,9.786742554325476,0.0,2.220446268996649e-16,-0.000488597195096592,0.0,0.0,1.6191747942405682e-20,-65.06077460814245,304.1666442054921,0.4712603484030709,31142.683874476697,230.2150535644925,2.938207857520949e-16,0.17008621067128463,-1.8271043307000043,0.0,0.0,0.0,0.2148135154300537,1005.9520549589483,65.3382585829051
6.800000000000606,6387055.244058143,3167.2799357764734,-3.066432291471317e-17,6387056.029370087,0.17006430816304693,-3.066432291471317e-17,-66.25433202601998,465.79231418597436,-1.7914723960470118e-17,-1.7915040939227565e-17,0.07364102793935436,66.02334193066237,8919.02936988152,2.6626399922128e-08,3.590865834852416e-22,9.786762672544867,0.0,2.220446274222858e-16,-0.0004958904463999831,0.0,0.0,1.6191747942405682e-20,-66.02334193066237,304.19470779315844,0.4716305636614823,31172.900580918642,230.25753658163862,3.0277875644186245e-16,0.17268302372227332,-1.8828088548018744,0.0,0.0,0.0,0.2179440924655943,1036.4908146866733,66.2965795565138
6.900000000000639,6387048.570342605,3213.859202269901,-3.2495694779020853e-17,6387049.3789234515,0.17753574770823874,-3.2495694779020853e-17,-67.2199144786764,465.7930174627449,-1.8716671114019652e-17,-1.871701191946783e-17,0.07579664284580041,66.98552651023493,8912.378923245353,2.779620716478047e-08,3.8053238770776724e-22,9.786783086230253,0.0,2.220446279443425e-16,-0.0005031837312072225,0.0,0.0,1.6191747942405682e-20,-66.98552651023492,304.22318086086915,0.47200644307447326,31203.5852940753,230.30064348056936,3.118788864688218e-16,0.17528364169511076,-1.9393973869563672,0.0,0.0,0.0,0.2210729297413625,1067.5142248322709,67.25463749439429
7.000000000000672,6387041.800088206,3260.4385396254975,-3.440845489210201e-17,6387042.632277746,0.18522431666020722,-3.440845489210201e-17,-68.18510819325452,465.7937314337155,-1.9542550941230772e-17,-1.9542916988948176e-17,0.0779838305165938,67.94732230957477,8905.63227753921,2.9000012576110292e-08,4.0293126786381964e-22,9.786803795265994,0.0,2.220446284654629e-16,-0.0005104770500126309,0.0,0.0,1.6191747942405682e-20,-67.94732230957477,304.2520631311125,0.47238799453728664,31234.738914821628,230.34437401515694,3.2112158835378306e-16,0.17788809983375123,-1.9968724923957426,0.0,0.0,0.0,0.2241999787527714,1099.0236909435241,68.21242127183234
7.100000000000706,6387034.933334131,3307.017948913996,-3.640501514104138e-17,6387035.789472156,0.19313317242495534,-3.640501514104138e-17,-69.14990711538583,465.7944561252438,-2.039273601827657e-17,-2.0393128786250353e-17,0.08020260294317583,68.9087232736865,8898.789471950377,3.023831066412677e-08,4.263114677302281e-22,9.786824799534621,0.0,2.2204462898526944e-16,-0.0005177704033107143,0.0,0.0,1.6191747942405682e-20,-68.9087232736865,304.28135432224633,0.4727752260581439,31266.362357352198,230.38872793536117,3.30507280256646e-16,0.18049643395145631,-2.055236771418553,0.0,0.0,0.0,0.2273251919169834,1131.0206378357036,69.169920030216
7.200000000000739,6387027.970120148,3353.5974312087806,-3.84878247253259e-17,6387028.850546458,0.20126547361209834,-3.84878247253259e-17,-70.11430517275224,465.7951915639328,-2.126760001947296e-17,-2.126802104992951e-17,0.0824529721353349,69.8697233296244,8891.850546252046,3.151159613047286e-08,4.507016680210093e-22,9.786846098916905,0.0,2.220446295033787e-16,-0.0005250637915961776,0.0,0.0,1.6191747942405682e-20,-69.8697233296244,304.31105414861645,0.4731681457597285,31298.4565493175,230.4337049873985,3.4003638596049693e-16,0.1831086803787563,-2.1144928592907504,0.0,0.0,0.0,0.2304485225084151,1163.5065095336583,70.12712315731513
7.300000000000771,6387020.910486656,3400.176987585912,-4.0659370267391676e-17,6387021.815541052,0.20962438001067352,-4.0659370267391676e-17,-71.07829627484713,465.79593777663536,-2.2167517731920803e-17,-2.2167968633162484e-17,0.08473495012208494,70.83031638625339,8884.815540846455,3.282036386671021e-08,4.761309876818996e-22,9.786867693291713,0.0,2.220446300194011e-16,-0.0005323572153639105,0.0,0.0,1.6191747942405682e-20,-70.8303163862534,304.34116232037667,0.47356676187675323,31331.022431640602,230.47930491346202,3.4970933485249493e-16,0.18572487591400438,-2.174643426126825,0.0,0.0,0.0,0.2335699245996759,1196.4827692032784,71.08402026914221
7.400000000000806,6387013.754474658,3446.7566191241417,-4.292217592463236e-17,6387014.684496946,0.21821305259854137,-4.292217592463236e-17,-72.04187431273631,465.79669479045714,-2.309286507010255e-17,-2.3093347518393612e-17,0.08704854895523599,71.79049633401,8877.684496739916,3.416510895586397e-08,5.026289852020004e-22,9.786889582536107,0.0,2.220446305329415e-16,-0.0005396506751089967,0.0,0.0,1.6191747942405682e-20,-71.79049633400999,304.37167854360246,0.47397108275738015,31364.06095864854,230.52552745188356,3.5952656190688415e-16,0.18834505777891727,-2.2356911767841727,0.0,0.0,0.0,0.2366893530070148,1229.9508990905472,72.0406011932458
7.500000000000839,6387006.502125769,3493.3363269049496,-4.5278803502865427e-17,6387007.457455762,0.22703465354853447,-4.5278803502865427e-17,-73.0050331588204,465.79746263275797,-2.404401909043015e-17,-2.4044534831896214e-17,0.08939378070962849,72.75025704466483,8870.457455556429,3.554632667345792e-08,5.302256599424941e-22,9.78691176652528,0.0,2.2204463104359874e-16,-0.0005469441713267118,0.0,0.0,1.6191747942405682e-20,-72.75025704466485,304.4026025202378,0.47438111686245227,31397.57309802534,230.57237233704515,3.694885076659847e-16,0.19096926357666677,-2.2976388507448853,0.0,0.0,0.0,0.2398067632401832,1263.9124004539674,72.99685595330592
7.600000000000873,6386999.1534822015,3539.916112012563,-4.7731852571250386e-17,6387000.134459713,0.23609234623779413,-4.7731852571250386e-17,-73.9677666665977,465.7982413311562,-2.502135800574643e-17,-2.5021908858309384e-17,0.09177065748737714,73.70959237108536,8863.134459508172,3.696451248904905e-08,5.589514534823658e-22,9.786934245132676,0.0,2.220446315509657e-16,-0.0005542377045125231,0.0,0.0,1.6191747942405682e-20,-73.70959237108538,304.43393394822795,0.47479687276717647,31431.559830965387,230.61983929957023,3.7959561822255704e-16,0.19359753125380333,-2.360489222006087,0.0,0.0,0.0,0.2429221114560562,1298.368793501934,73.9527747549128
7.700000000000906,6386991.708586815,3586.495975533981,-5.0283960578654714e-17,6386992.715551668,0.24538929521924885,-5.0283960578654714e-17,-74.93006867042801,465.7990309135299,-2.6025261199773242e-17,-2.6025849055104687e-17,0.09417919141510472,74.66849614699976,8855.715551462486,3.842016206183407e-08,5.888372509810752e-22,9.786957018229755,0.0,2.220446320546294e-16,-0.000561531275162094,0.0,0.0,1.6191747942405682e-20,-74.66849614699976,304.46567252123845,0.47521835915732263,31466.022151878922,230.66792806588919,3.898483451973885e-16,0.19622989906289726,-2.4242450989405553,0.0,0.0,0.0,0.246035354416132,1333.3216173140065,74.90834797242341
7.8000000000009395,6386984.16748306,3633.075918559006,-5.2937802971462416e-17,6386985.200775077,0.2549286662611814,-5.2937802971462416e-17,-75.8919329852972,465.7998314080196,-2.7056109241510024e-17,-2.705673606701263e-17,0.09661939464948296,75.62696218676133,8848.200774873752,3.9913771246917085e-08,6.199143825581228e-22,9.786980085686197,0.0,2.2204463255417074e-16,-0.0005688248837712759,0.0,0.0,1.6191747942405682e-20,-75.62696218676133,304.4978179289532,0.47564558483309693,31500.961068724857,230.71663835868105,4.002471457223696e-16,0.19886640553047452,-2.488909324191484,0.0,0.0,0.0,0.2491464494468128,1368.7724297811526,75.8635661367997
7.900000000000973,6386976.530215013,3679.6559421802694,-5.5696093312819e-17,6386977.590174025,0.26471362633571527,-5.5696093312819e-17,-76.85335340658273,465.80064284302904,-2.8114283899578025e-17,-2.811495174041063e-17,0.09909127937507065,76.58498428511427,8840.590173820852,4.1445836093579055e-08,6.522146246894381e-22,9.787003447369841,0.0,2.2204463304916494e-16,-0.0005761185308361191,0.0,0.0,1.6191747942405682e-20,-76.58498428511427,304.53036985692006,0.4760785587070136,31536.37760285333,230.76596989663028,4.107924824183943e-16,0.20150708942502937,-2.5544847745350587,0.0,0.0,0.0,0.252255354402999,1404.7228075284863,76.81841992434359
8.000000000001005,6386968.796827384,3726.236047493253,-5.856158340330895e-17,6386969.8837932255,0.27474734360999475,-5.856158340330895e-17,-77.81432370982007,465.8014652472272,-2.9200168156510795e-17,-2.920087913761052e-17,0.10159485780463647,77.54255621695992,8832.883793021947,4.301685284396894e-08,6.857702016205415e-22,9.787027103146569,0.0,2.2204463353918117e-16,-0.0005834122168528663,0.0,0.0,1.6191747942405682e-20,-77.54255621695992,304.5633279864939,0.47651728980305824,31572.272788953855,230.81592239433107,4.214848233736433e-16,0.20415198972749943,-2.6209743607454077,0.0,0.0,0.0,0.2553620276343104,1441.174345839485,77.77290014625108
8.10000000000095,6386960.967365483,3772.8162355963173,-6.153706340305901e-17,6386962.081677994,0.28503298747033595,-6.153706340305901e-17,-78.77483765046978,465.8022986495504,-3.031414622299074e-17,-3.031490255115063e-17,0.10413014218259144,78.49967173712385,8825.081677791311,4.462731793695751e-08,7.206137867964023e-22,9.78705105288048,0.0,2.220446340237823e-16,-0.0005907059423179554,0.0,0.0,1.6191747942405682e-20,-78.49967173712383,304.5966919950279,0.4769617872591394,31608.647675272794,230.86649556256683,4.323246421242391e-16,0.20680114560490442,-2.688381027474313,0.0,0.0,0.0,0.2584664279535699,1478.128658588461,78.72699773891499
8.200000000000895,6386953.041875269,3819.3965075907377,-6.462536195526281e-17,6386954.183874293,0.2955737285067936,-6.462536195526281e-17,-79.73488896368595,465.8031430792019,-3.1456603552025173e-17,-3.145740751798403e-17,0.10669714478092622,79.45632458012429,8817.183874091568,4.627772800579255e-08,7.5677850430794355e-22,9.787075296433725,0.0,2.220446345025254e-16,-0.0005979997077280217,0.0,0.0,1.6191747942405682e-20,-79.45632458012426,304.6304615556562,0.4774120603241179,31645.503323387275,230.9176891079715,4.4331241762970087e-16,0.20945459638365266,-2.7567077530985755,0.0,0.0,0.0,0.2615685146078907,1515.5873781554053,79.68070375491477
8.30000000000084,6386945.0204033265,3865.976864580719,-6.782934631111927e-17,6386946.190428714,0.30637273852482866,-6.782934631111927e-17,-80.69447136408513,465.8039985656541,-3.262792685306648e-17,-3.262878083362712e-17,0.10929587790144578,80.41250845994111,8809.190428513268,4.796857987999796e-08,7.942979303550987e-22,9.787099833666568,0.0,2.220446349749615e-16,-0.0006052935135798922,0.0,0.0,1.6191747942405682e-20,-80.41250845994111,304.6646363373882,0.477868118358964,31682.840808317105,230.9695027331619,4.544486342514298e-16,0.2121123815259403,-2.8259575495862275,0.0,0.0,0.0,0.2646682472515773,1553.5521553513086,80.63400935463459
8.400000000000784,6386936.90299685,3912.557307673419,-7.115192245618099e-17,6386938.101388455,0.3174331905423892,-7.115192245618099e-17,-81.65357854551662,465.8048651386488,-3.382850410607128e-17,-3.382941056625236e-17,0.11192635387626165,81.36821706978608,8801.101388254425,4.970037058498848e-08,8.332060947263818e-22,9.787124664437437,0.0,2.2204463544063557e-16,-0.0006125873603705947,0.0,0.0,1.6191747942405682e-20,-81.36821706978608,304.6992160052021,0.47832997083792234,31720.661218637546,231.02193613687018,4.657337817308555e-16,0.21477454060768536,-2.8961334623606345,0.0,0.0,0.0,0.2677655859209259,1592.024659342439,81.58690579845916
8.500000000000728,6386928.689703679,3959.137837978998,-7.459603523810507e-17,6386929.916801362,0.32875825881109266,-7.459603523810507e-17,-82.6122041808335,465.8057428281988,-3.505872457550316e-17,-3.5059686070719333e-17,0.11458858506716625,82.32344408187382,8792.916801160276,5.147359734545793e-08,8.735374822948832e-22,9.78714978860281,0.0,2.2204463589908643e-16,-0.000619881248597351,0.0,0.0,1.6191747942405682e-20,-82.32344408187382,304.7342002198821,0.47879762734624026,31758.96565631098,231.07498901368578,4.771683551638125e-16,0.2174411132962866,-2.9672385701411654,0.0,0.0,0.0,0.2708604910109951,1631.0065775618423,82.53938443949973
8.600000000000673,6386920.380572276,4005.7184566106225,-7.816466849580119e-17,6386921.636715903,0.3403511187941379,-7.816466849580119e-17,-83.570341921665,465.80663166458726,-3.6318978824266074e-17,-3.6319998002508604e-17,0.11728258386354203,83.27818314719426,8784.636715702836,5.3288757581992666e-08,9.1532703453062e-22,9.787175206017283,0.0,2.2204463634984663e-16,-0.0006271751787575853,0.0,0.0,1.6191747942405682e-20,-83.27818314719426,304.76958863811234,0.4792710975813265,31797.755236799516,231.12866105418826,4.887528549776013e-16,0.22011213933115464,-3.0392759848005393,0.0,0.0,0.0,0.2739529232537652,1670.4996156301083,83.49143671680865
8.700000000000617,6386911.975651766,4052.299164684498,-8.186084518996976e-17,6386913.2611812055,0.35221494717044044,-8.186084518996976e-17,-84.52798539818922,465.80753167836946,-3.760965872757819e-17,-3.7610738331678123e-17,0.12000836268261694,84.23242789528533,8776.261181005875,5.5146348911790444e-08,9.586101510291725e-22,9.787200916533493,0.0,2.2204463679244295e-16,-0.0006344691513489117,0.0,0.0,1.6191747942405682e-20,-84.23242789528533,304.80538091237673,0.479750391351317,31837.03108896547,231.1829519447845,5.004877869049799e-16,0.22278765850409532,-3.1122488512031015,0.0,0.0,0.0,0.2770428436979453,1710.5054972657401,84.44305414904186
8.800000000000562,6386903.474991888,4098.879963319905,-8.568762753502437e-17,6386904.790247016,0.36435292185989093,-8.568762753502437e-17,-85.48512821890776,465.80844290037186,-3.8931157486779455e-17,-3.893230035663806e-17,0.1227659339695042,85.18617193400755,8767.79024681654,5.704686915268688e-08,1.0034226910565267e-21,9.787226920002192,0.0,2.2204463722639583e-16,-0.0006417631668691504,0.0,0.0,1.6191747942405682e-20,-85.18617193400756,304.84157669108777,0.4802355185766885,31876.79435522165,231.23786136789334,5.123736619607008e-16,0.22546771064210733,-3.186160347058911,0.0,0.0,0.0,0.2801302136899434,1751.0259642042909,85.39422832853623
8.900000000000507,6386894.878643023,4145.460853639221,-8.96481171323915e-17,6386896.22396372,0.376768222010503,-8.96481171323915e-17,-86.44176397042085,465.80936536169264,-4.0283869643073003e-17,-4.028507871795899e-17,0.12555531019529098,86.13940884931917,8759.223963522381,5.899081632121455e-08,1.0498009751100458e-21,9.787253216272207,0.0,2.220446376512194e-16,-0.0006490572258163156,0.0,0.0,1.6191747942405682e-20,-86.13940884931917,304.8781756185202,0.480726489289275,31917.04619146917,231.29338900183464,5.244109964149139e-16,0.2281523355900046,-3.261013682758359,0.0,0.0,0.0,0.283214994856266,1792.062776106875,86.34495091576827
9.000000000000451,6386886.186656208,4192.041836767937,-9.374545510518106e-17,6386887.56238236,0.38946402798785196,-9.374545510518106e-17,-87.39788621720399,465.81029909370204,-4.166819109119901e-17,-4.166946941205548e-17,0.12837650385560356,87.0921322050528,8750.562382162707,6.09786886310205e-08,1.0977817864954948e-21,9.787279805190401,0.0,2.220446380664219e-16,-0.0006563513286886218,0.0,0.0,1.6191747942405682e-20,-87.0921322050528,304.91517733476957,0.48122331363160437,31957.7877670615,231.34953452075524,5.366003117662617e-16,0.2308415731940049,-3.3368121012048553,0.0,0.0,0.0,0.286297149087061,1833.6177104676897,87.29521363416549
9.100000000000396,6386877.399083117,4238.622913834705,-9.798282223422099e-17,6386878.805554617,0.40244352140806255,-9.798282223422099e-17,-88.3534885013852,465.81124412804184,-4.308451909303665e-17,-4.3085869804826696e-17,0.13122952747034136,88.04433554269272,8741.805554420633,6.301098449810261e-08,1.1474023729200376e-21,9.787306686601696,0.0,2.220446384715051e-16,-0.0006636454759844847,0.0,0.0,1.6191747942405682e-20,-88.04433554269272,304.952581475794,0.48172600185734116,31999.020264859413,231.40629759468112,5.489421347156039e-16,0.23353546328658936,-3.4135588776514387,0.0,0.0,0.0,0.2893766385206565,1875.692562523743,88.24500826524299
