time,gePosition_m_X,gePosition_m_Y,gePosition_m_Z,feVelocity_m_s_X,feVelocity_m_s_Y,feVelocity_m_s_Z,altitudeMsl_m,longitude_rad,latitude_rad,localGravity_m_s2,eulerAngle_rad_Yaw,eulerAngle_rad_Pitch,eulerAngle_rad_Roll,bodyAngularRateWrtEi_rad_s_Roll,bodyAngularRateWrtEi_rad_s_Pitch,bodyAngularRateWrtEi_rad_s_Yaw,altitudeRateWrtMsl_m_s,speedOfSound_m_s,airDensity_kg_m3,ambientPressure_Pa,ambientTemperature_K,aero_bodyForce_N_X,aero_bodyForce_N_Y,aero_bodyForce_N_Z,aero_bodyMoment_Nm_L,aero_bodyMoment_Nm_M,aero_bodyMoment_Nm_N,mach,dynamicPressure_Pa,trueAirspeed_m_s
0.0,6387280.999951441,0.0,0.0,0.0,1.2343803179105759e-05,0.0,9144.0,0.0,0.0,9.78607229417136,0.0,-0.0,0.0,0.0,0.0,0.0,0.0,303.2314967110032,0.45935725912772696,30180.52669774471,228.79957777777778,2.515301528396929e-17,0.015569340982434019,-0.0,0.0,0.0,0.0,0.0201034525309,8.535137170277684,6.095994723024886
0.1,6387280.95136632,6.8156518190628e-06,0.0,0.0,0.0001265311800310632,0.9752026942196161,9143.95140226128,1.0670662322456107e-12,0.0,9.786072434348881,0.0,0.0,-7.292116213759523e-06,0.0,0.0,0.0,-0.975202694219616,303.23170665480484,0.45935986188558753,30180.735679370435,228.79989271833335,2.547251585640934e-17,0.015766830118087792,-0.0025222152909704695,0.0,0.0,0.0,0.020358682708,8.75329605580069,6.173392758776609
0.2,6387280.80506232,2.5871440531407123e-05,0.0,0.0,0.0002575651705931904,1.950387655626336,9143.805122584321,4.0504623674595535e-12,0.0,9.78607287332184,0.0,0.0,-1.4584234343879044e-05,0.0,0.0,0.0,-1.950387655626336,303.2323385878056,0.4593676962110532,30181.364716040356,228.80084069166668,2.6408686674963714e-17,0.01634600153562455,-0.005229776921857314,0.0,0.0,0.0,0.0211065049883,9.40836453339013,6.400169326695158
0.3,6387280.561283281,5.8976902975396806e-05,0.0,0.0,0.00040792341948909605,2.92555307472924,9143.56132534776,9.233491845157713e-12,0.0,9.786073611608401,0.0,0.0,-2.1876354673567298e-05,0.0,0.0,0.0,-2.9255530747292404,303.2333917995168,0.45938075330042305,30182.413100898215,228.80242063333336,2.789959358226295e-17,0.01726849261004777,-0.008287456832772233,0.0,0.0,0.0,0.0222973650962,10.50035392768486,6.761299793389347
0.4,6387280.219968241,0.00010817693782938482,0.0,0.0,0.0005797961245568161,3.9006961364839206,9143.2200126852,1.6936306863639647e-11,0.0,9.78607464917808,0.0,0.0,-2.91684775230575e-05,0.0,0.0,0.0,-3.90069613648392,303.2348662810992,0.45939903304134433,30183.88082489464,228.80463252888887,2.986240283186779e-17,0.018483005926179057,-0.01182720953730343,0.0,0.0,0.0,0.0238649772582,12.02930127823078,7.2366869232512565
0.5,6387279.78114768,0.00017571743112648722,0.0,0.0,0.000775010359924872,4.87581323410968,9142.781186974082,2.7510526726145655e-11,0.0,9.78607598606136,0.0,0.0,-3.6460603243945925e-05,0.0,0.0,0.0,-4.875813234109681,303.23676202188483,0.4594225353049725,30185.7678776875,228.80747636333336,3.2211152272835564e-17,0.01993630939518336,-0.015946623632895042,0.0,0.0,0.0,0.0257405370427,13.995267610093778,7.805470348733042
0.6,6387279.24479112,0.0002640091319742792,0.0,0.0,0.00099504217225356,5.85090018988056,9142.244851049041,4.133358224298634e-11,0.0,9.786077622197281,0.0,0.0,-4.375273221373684e-05,0.0,0.0,0.0,-5.85090018988056,303.2390790102912,0.4594512599408168,30188.074247210963,228.81095211833335,3.486816829370208e-17,0.021580302749914255,-0.02071415611061603,0.0,0.0,0.0,0.0278618535532,16.39833671320038,8.448795497321763
0.7,6387278.61095952,0.000375594699656952,0.0,0.0,0.0012410630017908,6.82595243152224,9141.61100808,5.880355665255785e-11,0.0,9.78607955761632,0.0,0.0,-5.1044864830426376e-05,0.0,0.0,0.0,-6.825952431522241,303.2418172319928,0.45948520677622545,30190.79991957976,228.81505977277777,3.7768711663503815e-17,0.023374892761269188,-0.026176456176078066,0.0,0.0,0.0,0.0301770674734,19.238614276806327,9.150940857848733
0.8,6387277.8796224,0.000513121053346392,0.0,0.0,0.001513996124272968,7.80096511926792,9140.87966184648,8.033485672882824e-11,0.0,9.786081792288002,0.0,0.0,-5.833700150841506e-05,0.0,0.0,0.0,-7.80096511926792,303.24497667114,0.4595243756117468,30193.94487884976,228.8197993027778,4.086124538055279e-17,0.02528815863841549,-0.03236498109971929,0.0,0.0,0.0,0.0326448680463,22.516227292956433,9.899383679721192
0.9,6387277.050779761,0.000679317263203752,0.0,0.0,0.0018145695817949042,8.7759332330616,9140.05081652424,1.063547514540514e-10,0.0,9.786084326181841,0.0,0.0,-6.562914267500486e-05,0.0,0.0,0.0,-8.7759332330616,303.24855730914004,0.4595687662226757,30197.50910682647,228.82517068055557,4.410571487790945e-17,0.02729528723756498,-0.0393009998397674,0.0,0.0,0.0,0.0352331201411,26.231323647347757,10.684383603349595
1.0,6387276.124431601,0.0008769773197263841,0.0,0.0,0.002143360432210872,9.750851630287201,9139.12447683768,1.3730067444101687e-10,0.0,9.786087159328321,0.0,0.0,-7.292128876759449e-05,0.0,0.0,0.0,-9.750851630287201,303.2525591261808,0.45961837835596103,30201.492583352294,228.8311738766667,4.747130714220124e-17,0.02937718583233046,-0.04699905893874382,0.0,0.0,0.0,0.0379170740892,30.384071836309396,11.498439798518252
1.1,6387275.1006084,0.00110894685590424,0.0,0.0,0.002500829660124936,10.72571508399048,9138.100647998881,1.7361814520856061e-10,0.0,9.78609029169696,0.0,0.0,-8.021344023168447e-05,0.0,0.0,0.0,-10.725715083990481,303.2569820994024,0.4596732117317523,30205.895285875635,228.8378088561111,5.093436113402886e-17,0.031519188608778816,-0.05546928189315462,0.0,0.0,0.0,0.0406776960359,34.97466076560965,12.335784660124094
1.2,6387273.97927968,0.001378112939763528,0.0,0.0,0.00288734893839192,11.700518307933601,9136.97933579904,2.1575917116333793e-10,0.0,9.78609372325728,0.0,0.0,-8.75055975194739e-05,0.0,0.0,0.0,-11.700518307933601,303.2618262038112,0.45973326604185283,30210.717189642397,228.84507558222222,5.4476648696613936e-17,0.0337099925316528,-0.06471886731635426,0.0,0.0,0.0,0.0435002941906,40.00329960331997,13.191967237044773
1.3,6387272.760506401,0.001687396203659568,0.0,0.0,0.0033032208796816803,12.67525597329816,9135.760546486561,2.6418101542442403e-10,0.0,9.78609745400928,0.0,0.0,-9.479776108796329e-05,0.0,0.0,0.0,-12.67525597329816,303.26709141228,0.45979854094868955,30215.95826764811,228.85297401388888,5.808404071989437e-17,0.0359408317010161,-0.07475306169357478,0.0,0.0,0.0,0.046373452877,45.47021766696118,14.063529998690912
1.4,6387271.4442276005,0.00203974473809952,0.0,0.0,0.0037486943109885603,13.64992271977992,9134.44428691944,3.193452409059593e-10,0.0,9.786101483892,0.0,0.0,-0.00010208993139885158,0.0,0.0,0.0,-13.649922719779921,303.27277769554803,0.45986903608788965,30221.618490446424,228.86150410722223,6.174550115314286e-17,0.038204854656207224,-0.08557579418345111,0.0,0.0,0.0,0.0492882285599,51.37566433305772,14.947765043544175
1.5,6387270.030504241,0.0024381293171570643,0.0,0.0,0.00422397581706576,14.624513163269762,9133.03056444336,3.817169628821658e-10,0.0,9.78610581293592,0.0,0.0,-0.00010938210891684138,0.0,0.0,0.0,-14.62451316326976,303.27888502161125,0.4599447510641575,30227.697826484247,228.87066581444446,6.545233769714274e-17,0.0404966605679564,-0.09719009499595008,0.0,0.0,0.0,0.0522375509936,57.7199089616304,15.842532507524593
1.6,6387268.51933632,0.002885539632732408,0.0,0.0,0.0047292385127004006,15.59902190106576,9131.51938695264,4.5176425947900536e-10,0.0,9.78611044108008,0.0,0.0,-0.00011667429411083114,0.0,0.0,0.0,-15.599021901065761,303.285413356332,0.46002568545488254,30234.19624176659,228.8804590838889,6.919764564971184e-17,0.0428119549896696,-0.10959837461213405,0.0,0.0,0.0,0.0552157787298,64.50324082811072,16.746125779611116
1.7,6387266.910723841,0.0033849812978928,0.0,0.0,0.00526462875434856,16.573443515347922,9129.910762920721,5.299577025977442e-10,0.0,9.78611536832448,0.0,0.0,-0.00012396648745182062,0.0,0.0,0.0,-16.573443515347922,303.29236266343923,0.46011183880807754,30241.113699952337,228.89088386166665,7.29758944003555e-17,0.04514729390991506,-0.1228026127130329,0.0,0.0,0.0,0.0582183686336,71.72596906277235,17.65717128840764
1.8,6387265.2046668,0.00393947344094592,0.0,0.0,0.005830271320881841,17.54777257573848,9128.204701308721,6.167699813165334e-10,0.0,9.78612059460816,0.0,0.0,-0.00013125868941081135,0.0,0.0,0.0,-17.54777257573848,303.2997329039184,0.4602032106423787,30248.45016245,228.90194008833333,7.678261851106149e-17,0.04749989254192509,-0.1368044878501971,0.0,0.0,0.0,0.0612416289846,79.38842259389722,18.574553634593233
1.9,6387263.4011652,0.00455204675741736,0.0,0.0,0.006426273442647121,18.52200364119168,9126.4012116264,7.126755969674267e-10,0.0,9.786126119931119,0.0,0.0,-0.00013855090046279995,0.0,0.0,0.0,-18.52200364119168,303.3075240369264,0.4602998004470455,30256.205588274075,228.91362770333333,8.061418540570212e-17,0.04986748152953901,-0.15160546770634184,0.0,0.0,0.0,0.0642825338039,87.49095008840405,19.497359288987575
2.0,6387261.50024952,0.005225741919549361,0.0,0.0,0.007052727966022081,19.4961312609996,9124.50030396264,8.181506142087951e-10,0.0,9.78613194426288,0.0,0.0,-0.00014584312108479008,0.0,0.0,0.0,-19.4961312609996,303.3157360182672,0.46040160768402255,30264.37993414082,228.92594664111112,8.446761933566714e-17,0.0522481979904612,-0.1672068727947701,0.0,0.0,0.0,0.0673385821638,96.03391989822242,20.42483393068745
2.1,6387259.501950241,0.00596360826763896,0.0,0.0,0.0077097158559756,20.470149975798,9122.50198895496,9.336724562109395e-10,0.0,9.78613806757296,0.0,0.0,-0.00015313535175277848,0.0,0.0,0.0,-20.470149975798,303.3243688028304,0.4605086317833009,30272.97315432457,228.9388968327778,8.834046691724149e-17,0.054640502287543635,-0.18360992200560353,0.0,0.0,0.0,0.0704076907176,105.01772000283646,21.356349858685594
2.2,6387257.40623688,0.00676870272552912,0.0,0.0,0.008397308196165361,21.444054318054,9120.40627772856,1.059719734938529e-09,0.0,9.78614448983088,0.0,0.0,-0.00016042759294676904,0.0,0.0,0.0,-21.444054318054,303.3334223421528,0.4606208721475564,30281.985200897198,228.95247820555556,9.223069356810966e-17,0.057043113926798734,-0.20081576558534223,0.0,0.0,0.0,0.0734881109295,114.4427579523074,22.291380893176814
2.3,6387255.2131399205,0.00764408889544416,0.0,0.0,0.0091155677960568,22.417838812584243,9118.21318201824,1.1967721095153866e-09,0.0,9.786151210975682,0.0,0.0,-0.0001677198451457587,0.0,0.0,0.0,-22.417838812584243,303.3428965853328,0.4607383281500886,30291.416023440786,228.96669068444444,9.613660308884675e-17,0.05945496178224421,-0.21882550929293235,0.0,0.0,0.0,0.0765783648022,124.30946080933835,23.229482886310052
2.4,6387252.922659361,0.00859283629791,0.0,0.0,0.009864550494308882,23.39149797664632,9115.922714076962,1.3453101672907725e-09,0.0,9.78615823097688,0.0,0.0,-0.00017501210883074793,0.0,0.0,0.0,-23.39149797664632,303.35279147964,0.4608609991332739,30301.265569239167,228.9815341888889,1.0005677471168612e-16,0.061875145131705896,-0.23764023229362707,0.0,0.0,0.0,0.0796771945664,134.6182750875089,24.170278465991437
2.5,6387250.534856161,0.009618019729449121,0.0,0.0,0.010644306223074721,24.36502632015216,9113.53488670632,1.5058153233537985e-09,0.0,9.78616554983448,0.0,0.0,-0.00018230438448273725,0.0,0.0,0.0,-24.365026320152158,303.36310696990563,0.46098888441165853,30311.533783277933,228.99700863722225,1.0399001344279753e-16,0.06430290291782709,-0.2572610005445752,0.0,0.0,0.0,0.0827835229917,145.36966669094585,25.11344500123859
2.6,6387248.04966936,0.010722718716927601,0.0,0.0,0.011454879882838562,25.338418345789922,9111.04971328704,1.6787697351868263e-09,0.0,9.786173167457042,0.0,0.0,-0.0001895966725837273,0.0,0.0,0.0,-25.338418345789922,303.37384299821764,0.4611219832704122,30322.220608100764,229.01311394166666,1.0793531058565458e-16,0.06673758931532169,-0.2776888769087425,0.0,0.0,0.0,0.0858964218407,156.56412084824856,26.0587050359401
2.7,6387245.467159921,0.011910017051394,0.0,0.0,0.01229631206613288,26.31166854890208,9108.467207687521,1.8646562297770285e-09,0.0,9.78618108381408,0.0,0.0,-0.00019688897361671702,0.0,0.0,0.0,-26.31166854890208,303.3849995045304,0.4612602949637816,30333.32598385734,229.02985001222223,1.1189181214220294e-16,0.06917865416902994,-0.2989249288534489,0.0,0.0,0.0,0.0890150866143,168.2021420483294,27.00581863079071
2.8,6387242.787327841,0.0131830023884256,0.0,0.0,0.01316863965976224,27.28477141742448,9105.78738438576,2.063958241042844e-09,0.0,9.786189298905601,0.0,0.0,-0.00020418128806570535,0.0,0.0,0.0,-27.28477141742448,303.39657642636,0.46140381871818326,30344.84984839908,229.0472167561111,1.158587933378952e-16,0.0716256272276418,-0.3209702343669482,0.0,0.0,0.0,0.0921388161939,180.2842539714661,27.954577190374845
2.9,6387240.010203601,0.01454476590297288,0.0,0.0,0.01407189634994832,28.257721431947278,9103.0102584084,2.27715975596788e-09,0.0,9.786197812640161,0.0,0.0,-0.00021147361641369475,0.0,0.0,0.0,-28.257721431947278,303.40857369908883,0.4615525537296261,30356.792137183405,229.06521407555556,1.1983563794991524e-16,0.07407810534571854,-0.3438258865258618,0.0,0.0,0.0,0.0952669963238,192.81099941796015,28.904798453768194
3.0,6387237.1357872,0.015998401991234642,0.0,0.0,0.0150061130457276,29.230513065440643,9100.13584530024,2.5047452679692074e-09,0.0,9.78620662498728,0.0,0.0,-0.00021876595914568426,0.0,0.0,0.0,-29.230513065440643,303.4209912550512,0.4617064991642273,30369.152783273705,229.08384186944446,1.2382182142973584e-16,0.07653574203570977,-0.36749299705242194,0.0,0.0,0.0,0.0983990861241,205.78294023440142,29.856322405273772
3.1,6387234.16410912,0.017547008011090322,0.0,0.0,0.0159713182393164,30.20314078325472,9097.164161185201,2.747199736257367e-09,0.0,9.786215735886001,0.0,0.0,-0.00022605831674667472,0.0,0.0,0.0,-30.203140783254717,303.4338290250576,0.46186565415924263,30381.931717435127,229.10310003333333,1.2781689704068095e-16,0.0789982388877788,-0.39197269908927157,0.0,0.0,0.0,0.101534607014,219.20065723993224,30.80900791499974
3.2,6387231.09516936,0.01919368405590792,0.0,0.0,0.0169675383111852,31.1755990429368,9094.09522270536,3.0050085506330795e-09,0.0,9.78622514530584,0.0,0.0,-0.00023335068970266356,0.0,0.0,0.0,-31.1755990429368,303.4470869368704,0.462030017822036,30395.12886794304,229.12298845944446,1.3182048440153075e-16,0.0814653384748891,-0.4172661493822076,0.0,0.0,0.0,0.10467313356,233.06475014724526,31.762729964051314
3.3,6387227.9289984,0.0209415327565764,0.0,0.0,0.01799479779054072,32.1478822935912,9090.9290471124,3.278657500455292e-09,0.0,9.78623485318584,0.0,0.0,-0.0002406430784986533,0.0,0.0,0.0,-32.1478822935912,303.4607649164232,0.4621995892300794,30408.744160726696,229.14350703666668,1.3583225997978247e-16,0.08393681846869684,-0.44337452999096616,0.0,0.0,0.0,0.10781428588,247.3758374816656,32.71737734023325
3.4,6387224.66559624,0.02279365910770872,0.0,0.0,0.01905311957962824,33.119984976763206,9087.66565217616,3.568632747553666e-09,0.0,9.78624485949552,0.0,0.0,-0.0002479354836206431,0.0,0.0,0.0,-33.119984976763206,303.4748628862968,0.46237436743095267,30422.777519321302,229.1646556488889,1.3985194914490253e-16,0.08641248671937293,-0.4702990496428171,0.0,0.0,0.0,0.110957723295,262.13455649975447,33.67285071428647
3.5,6387221.305023841,0.02475317031457128,0.0,0.0,0.020142525145877523,34.091901525280804,9084.30505621512,3.875420802335022e-09,0.0,9.78625516414344,0.0,0.0,-0.0002552279055546321,0.0,0.0,0.0,-34.091901525280804,303.4893807678528,0.46255435144337465,30437.228864915967,229.18643417722222,1.4387931951156287e-16,0.08889217712943259,-0.49804094479168515,0.0,0.0,0.0,0.114103139013,277.3415631012097,34.62906102607724
3.6,6387217.84722024,0.02682317565799656,0.0,0.0,0.021263034689024643,35.0636263637424,9080.84727815736,4.199508502699762e-09,0.0,9.78626576709912,0.0,0.0,-0.00026252034478962147,0.0,0.0,0.0,-35.0636263637424,303.5043184791,0.4627395402546258,30452.098116305766,229.2088425,1.4791417531886801e-16,0.09137574618011918,-0.5266014804601982,0.0,0.0,0.0,0.11725025564,292.9975317441172,35.585928124715934
3.7,6387214.292276881,0.029006786374779603,0.0,0.0,0.02241466728494712,36.035153906992804,9077.29233741864,4.541382995366843e-09,0.0,9.78627666827112,0.0,0.0,-0.00026981280181061196,0.0,0.0,0.0,-36.035153906992804,303.51967593621845,0.4629299328236411,30467.38518974813,229.23188049111113,1.5195635268143384e-16,0.09386306998223316,-0.5559819508762281,0.0,0.0,0.0,0.120398821388,309.1031553511063,36.54337961707697
3.8,6387210.64019376,0.0313071155514552,0.0,0.0,0.023597441012034003,37.0064785622568,9073.64025402432,4.90153171941533e-09,0.0,9.78628786762896,0.0,0.0,-0.0002771052771056011,0.0,0.0,0.0,-37.0064785622568,303.5354530526448,0.46312552807843244,30483.089999250104,229.25554802055555,1.5600571554284026e-16,0.09635404177534206,-0.5861836799995601,0.0,0.0,0.0,0.123548606844,325.6591452188555,37.50134988932637
3.9,6387206.8910013605,0.0337272780306024,0.0,0.0,0.0248113730611272,37.9775947267008,9069.891048548401,5.280442391501447e-09,0.0,9.78629936511168,0.0,0.0,-0.0002843977711635901,0.0,0.0,0.0,-37.9775947267008,303.55164973968243,0.4633263249181508,30499.21245642474,229.279844955,1.6006215222781473e-16,0.09884856978774087,-0.6172080218866465,0.0,0.0,0.0,0.126699402217,342.66623092089566,38.45977927131035
4.0,6387203.04469968,0.0362703903253176,0.0,0.0,0.026056479830375283,38.94849678834721,9066.04474208304,5.6786029927860685e-09,0.0,9.786311160658322,0.0,0.0,-0.00029169028447057974,0.0,0.0,0.0,-38.94849678834721,303.5682659058912,0.4635323222099934,30515.752470299543,229.30477115722223,1.6412557248238543e-16,0.1013465754055642,-0.6490563609841904,0.0,0.0,0.0,0.129851014979,360.1251602094558,39.41861332065506
4.1,6387199.1013192,0.0389395705456968,0.0,0.0,0.02733277701161376,39.9191791254648,9062.10135639096,6.096501757363185e-09,0.0,9.78632325417744,0.0,0.0,-0.00029898281751556955,0.0,0.0,0.0,-39.9191791254648,303.5853014576976,0.4637435187933273,30532.70994765165,229.3303264877778,1.6819590493172286e-16,0.1038479915945571,-0.6817301123382103,0.0,0.0,0.0,0.133003267834,378.03669891443553,40.37780220723433
4.2,6387195.06085992,0.0417379383313224,0.0,0.0,0.02864027966333424,40.8896361068736,9058.0609136616,6.534627161630847e-09,0.0,9.78633564563856,0.0,0.0,-0.0003062753707885588,0.0,0.0,0.0,-40.8896361068736,303.6027562987848,0.46395991347505044,30550.084792816295,229.3565108011111,1.7227309488138362e-16,0.10635276153891936,-0.715230721723041,0.0,0.0,0.0,0.136155996966,396.4016308423775,41.33730018185191
4.3,6387190.923382801,0.044668614790608005,0.0,0.0,0.029979002277252722,41.8598620910304,9053.92343672448,6.993467915145638e-09,0.0,9.78634833495024,0.0,0.0,-0.00031356794477554854,0.0,0.0,0.0,-41.859862091030394,303.6206303307024,0.4641815050347458,30567.87690759108,229.38332395,1.7635710241658555e-16,0.10886083746119224,-0.7495596657391919,0.0,0.0,0.0,0.139309050522,415.2207576653854,42.2970651159684
4.4,6387186.68891832,0.047734722447458404,0.0,0.0,0.0313489588343928,42.829851426638406,9049.688948988241,7.473512952140377e-09,0.0,9.786361322051519,0.0,0.0,-0.0003208605399675381,0.0,0.0,0.0,-42.8298514266384,303.63892345256164,0.4644082922184967,30586.086191523213,229.41076578333335,1.8044790074924844e-16,0.11137217959738828,-0.7847184518355896,0.0,0.0,0.0,0.142462287297,434.4948988181815,43.257058101978316
4.5,6387182.357436,0.0509393851915872,0.0,0.0,0.032750162859919205,43.7995984511232,9045.35747441016,7.975251424036655e-09,0.0,9.786374606850961,0.0,0.0,-0.0003281531568525269,0.0,0.0,0.0,-43.799598451123195,303.6576355607304,0.46464027374455596,30604.7125415265,229.438836145,1.8454547477321167e-16,0.11388675530200902,-0.8207086183095783,0.0,0.0,0.0,0.14561557558,454.224891383194,44.21724310477712
4.6,6387177.9289968,0.0542857282373688,0.0,0.0,0.0341826274657488,44.7690974921568,9040.9290374352,8.49917269267296e-09,0.0,9.7863881892876,0.0,0.0,-0.0003354457959205179,0.0,0.0,0.0,-44.7690974921568,303.6767665491384,0.4648774483002539,30623.75585226437,229.4675348766667,1.8864981980761164e-16,0.11640453826515809,-0.8575317342757804,0.0,0.0,0.0,0.148768792155,474.4115899775594,45.17758665721039
4.7,6387173.4036312,0.0577768780814712,0.0,0.0,0.0356463653922168,45.73834286613361,9036.403663209361,9.045766324230921e-09,0.0,9.78640206930048,0.0,0.0,-0.00034273845766050686,0.0,0.0,0.0,-45.73834286613361,303.6963163098864,0.4651198145414825,30643.2160158626,229.49686181611114,1.9276094048882972e-16,0.11892550782751503,-0.8951893995993755,0.0,0.0,0.0,0.151921821421,495.05586663437964,46.138057593283165
4.8,6387168.7813392,0.0614159624696328,0.0,0.0,0.037141389044683205,46.7073288784752,9031.78137736632,9.615522083789902e-09,0.0,9.786416246798161,0.0,0.0,-0.00035003114256349687,0.0,0.0,0.0,-46.7073288784752,303.7162847317224,0.46536737109527243,30663.092921957188,229.52681679611112,1.9687884979766627e-16,0.12144964837404264,-0.9336832447804444,0.0,0.0,0.0,0.155074554615,516.158610698822,47.098626813213365
4.9,6387164.062151281,0.065206110363744,0.0,0.0,0.038667710525232005,47.676049822716,9027.06220611888,1.0208929930282971e-08,0.0,9.78643072171968,0.0,0.0,-0.00035732385111748546,0.0,0.0,0.0,-47.676049822716,303.7366717018704,0.4656201165567012,30683.386457838013,229.55739964722224,2.0100356820439225e-16,0.12397694880286945,-0.9730149308739029,0.0,0.0,0.0,0.158226889134,537.7207286691562,48.05926707667675
5.0,6387159.2461284,0.0691504519125864,0.0,0.0,0.0402253416613224,48.64449998233201,9022.24617628944,1.0826480012116154e-08,0.0,9.78644549394312,0.0,0.0,-0.00036461658381447567,0.0,0.0,0.0,-48.644499982332,303.7574771038968,0.4658780494909542,30704.096508305167,229.58861019666668,2.0513512290899332e-16,0.12650740205333327,-1.0131861493427097,0.0,0.0,0.0,0.161378727931,559.7431441268501,49.01995282038506
5.1,6387154.33327056,0.0732521184253152,0.0,0.0,0.0418142940326112,49.6126736276928,9017.33331521856,1.1468662663101796e-08,0.0,9.786460563438,0.0,0.0,-0.0003719093411434652,0.0,0.0,0.0,-49.61267362769281,303.7787008201488,0.46614116843229386,30725.22295566897,229.62044826555558,2.0927354716904314e-16,0.12904100468740365,-1.0541986218932817,0.0,0.0,0.0,0.164529978983,582.2267975551025,49.980659995727514
5.2,6387149.323608241,0.0775142423495136,0.0,0.0,0.04343457899228881,50.5805650178904,9012.323650825922,1.2135968398775923e-08,0.0,9.7864759300824,0.0,0.0,-0.00037920212359645363,0.0,0.0,0.0,-50.58056501789041,303.8003427296208,0.46640947188457577,30746.765679797863,229.6529136738889,2.1341887970364195e-16,0.13157775651825523,-1.0960541003242559,0.0,0.0,0.0,0.167680554818,605.1726462526594,50.941365925549604
5.3,6387144.21717192,0.08193995724650399,0.0,0.0,0.0450862076896344,51.548168399824796,9007.2172116408,1.2828887913047215e-08,0.0,9.786491593815361,0.0,0.0,-0.0003864949316624438,0.0,0.0,0.0,-51.5481683998248,303.8224027094784,0.4666829583212477,30768.724558022615,229.68600623666669,2.1757116416140915e-16,0.13411766027976502,-1.138754366357455,0.0,0.0,0.0,0.170830372092,628.5816641710209,51.90204917610795
5.4,6387139.01399208,0.0865323977739744,0.0,0.0,0.0467691910858656,52.515478007899205,9002.0140267716,1.3547912075282297e-08,0.0,9.786507554514962,0.0,0.0,-0.00039378776583343355,0.0,0.0,0.0,-52.515478007899205,303.8448806335344,0.4669616261832886,30791.099465327872,229.71972576555558,2.2173044864452365e-16,0.13666072132803672,-1.1823012314154786,0.0,0.0,0.0,0.173979351215,652.4548417995283,52.862689442349335
5.5,6387133.71406872,0.091294699855752,0.0,0.0,0.048483549649521604,53.4824879792856,8996.714125875362,1.4293531956974378e-08,0.0,9.78652381215072,0.0,0.0,-0.0004010806265994223,0.0,0.0,0.0,-53.4824879792856,303.8675795775192,0.46726242001095486,30815.701474185356,229.75407754388888,2.259049777849581e-16,0.139211995712373,-1.2267410225476707,0.0,0.0,0.0,0.177127530448,676.8177299021276,53.82326736157902
5.6,6387128.31749328,0.0962300034688944,0.0,0.0,0.0502293362874816,54.4491921430032,8991.31753921872,1.5066239268319905e-08,0.0,9.78654036657024,0.0,0.0,-0.0004083735144534132,0.0,0.0,0.0,-54.4491921430032,303.8905697926512,0.4675792775614314,30841.882695982902,229.78905941833335,2.3009226198469066e-16,0.1417699215474006,-1.2720639412781807,0.0,0.0,0.0,0.180274799813,701.6648985749565,54.783764211122076
5.7,6387122.824265761,0.101341452202644,0.0,0.0,0.052006569147232805,55.4155846094016,8985.824297647441,1.586652628910353e-08,0.0,9.78655721774304,0.0,0.0,-0.0004156664298874024,0.0,0.0,0.0,-55.415584609401606,303.9139717712472,0.4679018101490707,30868.53283324041,229.82466783055557,2.3428744065194544e-16,0.14433147785810566,-1.3182458646743296,0.0,0.0,0.0,0.183421019925,726.983025619545,55.74416241654257
5.8,6387117.23438616,0.10663219104253199,0.0,0.0,0.05381526162138241,56.381659514128806,8980.234432708321,1.6694885521813907e-08,0.0,9.78657436551672,0.0,0.0,-0.0004229593733933912,0.0,0.0,0.0,-56.381659514128806,303.9377853788904,0.4682300159262397,30895.651733315615,229.86090257722222,2.384905883958539e-16,0.14689668536830788,-1.3652890034488812,0.0,0.0,0.0,0.186566123199,752.773321123254,56.704445225486104
5.9,6387111.547945919,0.11210536629844561,0.0,0.0,0.055655427030604804,57.347410978202404,8974.54797637488,1.755180968068305e-08,0.0,9.78659180983032,0.0,0.0,-0.000430252345464381,0.0,0.0,0.0,-57.347410978202404,303.96201047964,0.4685638930112902,30923.23924074131,229.89776345111113,2.4270178251360795e-16,0.14946556630087762,-1.4131956013115081,0.0,0.0,0.0,0.189710044433,779.0370134158236,57.66459659655985
6.0,6387105.764914561,0.1177641255988368,0.0,0.0,0.0575270786303472,58.312833106180804,8968.764961291201,1.8437791690551848e-08,0.0,9.78660955056192,0.0,0.0,-0.0004375453465933698,0.0,0.0,0.0,-58.31283310618081,303.98664693389765,0.46890343948804397,30951.295197081723,229.93525024000002,2.4692110273424207e-16,0.15203814421848957,-1.4619679346974486,0.0,0.0,0.0,0.192852720608,805.7753488730631,58.62460114120044
6.1,6387099.885383521,0.12361161788249281,0.0,0.0,0.0594302296221072,59.277919987687206,8962.88542074144,1.9353324685753052e-08,0.0,9.78662758762008,0.0,0.0,-0.00044483837727236057,0.0,0.0,0.0,-59.2779199876872,304.011694600236,0.4692486534052767,30979.81944126767,229.97336272833334,2.5114863099577784e-16,0.15461444387994527,-1.5116083124605801,0.0,0.0,0.0,0.195994090711,832.9895917636351,59.58444406914289
6.2,6387093.9093528,0.1296509933957928,0.0,0.0,0.0613648931567856,60.24266569619041,8956.90938849744,2.0298902010303276e-08,0.0,9.78664592091336,0.0,0.0,-0.0004521314379963496,0.0,0.0,0.0,-60.24266569619041,304.0371533347896,0.46959953277723376,31008.81180911773,230.01210069722222,2.5538445123571216e-16,0.15719449111117462,-1.562119075593182,0.0,0.0,0.0,0.199134095575,860.6810240862616,60.544111140577265
6.3,6387087.836852881,0.1358854036860024,0.0,0.0,0.0633310823438304,61.2070642887,8950.83689897112,2.1275017215564253e-08,0.0,9.78666455035032,0.0,0.0,-0.00045942452925833843,0.0,0.0,0.0,-61.2070642887,304.0630229906448,0.46995607558311486,31038.27213372133,230.0514639238889,2.596286492046373e-16,0.15977831268513382,-1.6135025969101098,0.0,0.0,0.0,0.202272677733,888.8509453494754,61.503588619334316
6.4,6387081.667944721,0.1423180015973112,0.0,0.0,0.0653288102542848,62.171109806376,8944.667987214481,2.228216406111549e-08,0.0,9.786683475809042,0.0,0.0,-0.0004667176515523286,0.0,0.0,0.0,-62.171109806376,304.0893034190592,0.4703182797675893,31068.2002451993,230.0914521805556,2.6388131229498404e-16,0.16236593621371376,-1.6657612807329738,0.0,0.0,0.0,0.205409781285,917.50067245192,62.46286323533108
6.5,6387075.40262832,0.1489519412680896,0.0,0.0,0.06735808992657841,63.134796273309604,8938.402688797682,2.332083651405614e-08,0.0,9.786702697167602,0.0,0.0,-0.0004740108053713178,0.0,0.0,0.0,-63.134796273309604,304.1159944679376,0.4706861432402805,31098.59597079968,230.13206523722224,2.681425293839995e-16,0.16495739004854454,-1.7188975625921068,0.0,0.0,0.0,0.208545351777,946.6315394381587,63.42192214650197
6.6,6387069.04099512,0.1557903781266216,0.0,0.0,0.06941893437079441,64.0981176974376,8932.04103993096,2.4391528747608752e-08,0.0,9.78672221436504,0.0,0.0,-0.00048130399121030766,0.0,0.0,0.0,-64.0981176974376,304.14309598335603,0.4710596638752509,31129.459134945548,230.17330285888892,2.7241239069362837e-16,0.16755270319158627,-1.7729139088662582,0.0,0.0,0.0,0.211679336092,976.2448973646112,64.38075290381664
6.7,6387062.58304512,0.16283646888897121,0.0,0.0,0.07151135657049841,65.0610680687136,8925.58307743416,2.5494735141817376e-08,0.0,9.78674202721848,0.0,0.0,-0.0004885972095632963,0.0,0.0,0.0,-65.06106806871361,304.1706078083424,0.47143883951100174,31160.789558995668,230.21516480722224,2.766909876570658e-16,0.1701519052097232,-1.8278128164890126,0.0,0.0,0.0,0.214811682351,1006.3421140793045,65.3393434240144
6.8,6387056.02877832,0.1700933715556296,0.0,0.0,0.0736353694876152,66.023641360632,8919.02883867576,2.6630950282674928e-08,0.0,9.78676213569744,0.0,0.0,-0.0004958904609252869,0.0,0.0,0.0,-66.023641360632,304.19852978348644,0.47182366795253466,31192.587061579605,230.2576508388889,2.809784128022145e-16,0.17275502616003363,-1.8835968125706888,0.0,0.0,0.0,0.217942339818,1036.9245740399265,66.29768195976655
6.9,6387049.378316641,0.1775642454096864,0.0,0.0,0.0757909860627336,66.9858315293136,8912.378361725281,2.7800668961948632e-08,0.0,9.786782539619042,0.0,0.0,-0.0005031837457902757,0.0,0.0,0.0,-66.9858315293136,304.2268617469392,0.47221414696671316,31224.851458214736,230.3007607088889,2.8527475963869957e-16,0.17536209651817347,-1.9402684540914144,0.0,0.0,0.0,0.221071258823,1067.9936781270949,67.25575707395404
7.0,6387042.6316296,0.185252251014696,0.0,0.0,0.0779782192178496,67.94763251259121,8905.63168513992,2.9004386176656437e-08,0.0,9.786803238922321,0.0,0.0,-0.0005104770646542662,0.0,0.0,0.0,-67.94763251259121,304.25560353441364,0.47261027428741664,31257.582561545598,230.34449416555557,2.895801225582286e-16,0.17797314711343226,-1.9978303275096816,0.0,0.0,0.0,0.224198390678,1099.5508434288943,68.21355761806096
7.1,6387035.78880864,0.1931605502128488,0.0,0.0,0.0801970818575856,68.9090382312288,8898.78884817792,3.024259712959061e-08,0.0,9.7868242334244,0.0,0.0,-0.0005177704180122544,0.0,0.0,0.0,-68.9090382312288,304.2847549782696,0.47301204761038634,31290.780181343933,230.38885095555557,2.938945967425131e-16,0.18058820906957182,-2.0562850484420756,0.0,0.0,0.0,0.227323687612,1131.5975030589323,69.1710727079956
7.2,6387028.849853761,0.20129230612192323,0.0,0.0,0.0824475868707144,69.8700425873976,8891.849890646161,3.1515797228096014e-08,0.0,9.7868455230948,0.0,0.0,-0.000525063806359244,0.0,0.0,0.0,-69.8700425873976,304.31431590934324,0.4734194645983794,31324.444124365,230.43383082000003,2.9821827807430465e-16,0.18320731374699942,-2.11563526127183,0.0,0.0,0.0,0.230447102707,1164.1351059456658,70.12829170711383
7.3,6387021.814795441,0.20965068313528562,0.0,0.0,0.08472974712894,70.8306394649808,8884.81485302208,3.282448208476821e-08,0.0,9.78686710772016,0.0,0.0,-0.0005323572301902347,0.0,0.0,0.0,-70.8306394649808,304.3442861554224,0.4738325228760149,31358.574194395507,230.47943349722223,3.025512630613297e-16,0.18583049269428195,-2.175883638797419,0.0,0.0,0.0,0.233568589833,1197.1651166217289,71.08520420615574
7.4,6387014.68372512,0.2182388469188424,0.0,0.0,0.08704357548933601,71.79082273018321,8877.68377633176,3.416914751658084e-08,0.0,9.786888987239521,0.0,0.0,-0.0005396506900022245,0.0,0.0,0.0,-71.79082273018321,304.3746655409424,0.4742512200333813,31393.170192253583,230.52565872111114,3.068936487602252e-16,0.1884577775974365,-2.237032881836664,0.0,0.0,0.0,0.236688103602,1230.6890150180461,72.04180000832682
7.5,6387007.456642801,0.227059964409516,0.0,0.0,0.08938908479282161,72.7505862300072,8870.456702241361,3.555028954488558e-08,0.0,9.78691116150048,0.0,0.0,-0.0005469441862912136,0.0,0.0,0.0,-72.7505862300072,304.4054538891192,0.47467555362346014,31428.231915788758,230.57250622111113,3.1124553270848104e-16,0.19108920023544793,-2.2990857188753253,0.0,0.0,0.0,0.239805599311,1264.7082962675245,72.9980691128357
7.6,6387000.1336399205,0.2361172038143304,0.0,0.0,0.0917662878644664,73.7099237925576,8863.133673026641,3.696840439558672e-08,0.0,9.786933630411601,0.0,0.0,-0.0005542377195532034,0.0,0.0,0.0,-73.7099237925576,304.4366510192064,0.47510552116315613,31463.759159834135,230.6199757238889,3.1560701286216477e-16,0.19372479244067975,-2.3620449056400723,0.0,0.0,0.0,0.242921032899,1299.2244704560758,73.95400169946085
7.7,6386992.714686001,0.24541373460736318,0.0,0.0,0.0941751975116616,74.66882922734641,8855.71473163392,3.8423988498268445e-08,0.0,9.78695639379,0.0,0.0,-0.0005615312902831921,0.0,0.0,0.0,-74.66882922734641,304.46825674893364,0.4755411201343285,31499.751716302108,230.66806695055556,3.199781875363153e-16,0.19636458605795049,-2.4259132247426254,0.0,0.0,0.0,0.246034360904,1334.239062435884,74.90958811929063
7.8,6386985.199872481,0.2549527275282216,0.0,0.0,0.09661582652412,75.6272963243784,8848.19992155816,3.9917538486369414e-08,0.0,9.78697945154424,0.0,0.0,-0.0005688248989801814,0.0,0.0,0.0,-75.6272963243784,304.50027089237284,0.4759823479812136,31536.209373992846,230.71677961944445,3.243591553502299e-16,0.1990086129093928,-2.4906934852571756,0.0,0.0,0.0,0.249145540424,1369.7536115955795,75.86481887877544
7.9,6386977.58922984,0.26473735458021364,0.0,0.0,0.099088187673876,76.5853188547608,8840.58928696488,4.144955119718275e-08,0.0,9.78700280352192,0.0,0.0,-0.0005761185461391712,0.0,0.0,0.0,-76.5853188547608,304.53269326207203,0.47642920211145606,31573.13191878584,230.76611344444444,3.287500151754202e-16,0.20165690475931242,-2.556388522337838,0.0,0.0,0.0,0.25225452908,1405.769671625626,76.81968462943894
8.0,6386969.882819041,0.274770789028824,0.0,0.0,0.10159229371040882,77.5428905697888,8832.88287256824,4.30205236708088e-08,0.0,9.78702644960112,0.0,0.0,-0.0005834122322591616,0.0,0.0,0.0,-77.54289056978881,304.5655236669216,0.4768816798971392,31610.51913349623,230.816068135,3.3315086608846056e-16,0.20430949328305056,-2.6230011967782763,0.0,0.0,0.0,0.255361284982,1442.2888103124355,77.77417615964686
8.1,6386962.080670561,0.2850562053980568,0.0,0.0,0.1041281573621664,78.50000520064081,8825.080723844401,4.4630953150678816e-08,0.0,9.78705038962944,0.0,0.0,-0.0005907059578351508,0.0,0.0,0.0,-78.50000520064081,304.5987619133736,0.47733977867220845,31648.370797779065,230.86664339666666,3.375618073260615e-16,0.2069664100371811,-2.690534394624708,0.0,0.0,0.0,0.258465766698,1479.312609289391,78.72828438226036
8.2,6386954.182845361,0.2955967794686064,0.0,0.0,0.10669579133382241,79.4566564595976,8817.18288672672,4.628133708285674e-08,0.0,9.78707462351544,0.0,0.0,-0.0005979997233651402,0.0,0.0,0.0,-79.4566564595976,304.6324078057464,0.47780349573504804,31686.686688512338,230.91783893222225,3.4198293824325627e-16,0.209627686430152,-2.75899102673998,0.0,0.0,0.0,0.261567933226,1516.8426638165972,79.68200032691944
8.3,6386946.189373921,0.30639568827420005,0.0,0.0,0.10929520830261841,80.4128380379088,8809.18940794104,4.7972173115515653e-08,0.0,9.78709915104576,0.0,0.0,-0.0006052935293481286,0.0,0.0,0.0,-80.4128380379088,304.6664611453104,0.47827282834641954,31725.46657927031,230.96965443777776,3.4641435827247695e-16,0.21229335369559618,-2.828374028385434,0.0,0.0,0.0,0.264667743966,1554.880582541479,80.63531513181172
8.4,6386938.10028672,0.31745611010556,0.0,0.0,0.11192642091866879,81.36854360731681,8801.10033473136,4.970395909893776e-08,0.0,9.78712397212896,0.0,0.0,-0.0006125873762811192,0.0,0.0,0.0,-81.36854360731681,304.70092173028803,0.47874777372946187,31764.710240658656,231.02208960777781,3.5085616688841403e-16,0.21496344286920063,-2.898686358780534,0.0,0.0,0.0,0.267765158695,1593.4279872641685,81.58822003492703
8.5,6386929.9156752005,0.328781224490592,0.0,0.0,0.11458944180069361,82.32376681883761,8792.91571504272,5.147719308499082e-08,0.0,9.78714908664312,0.0,0.0,-0.0006198812646621086,0.0,0.0,0.0,-82.32376681883761,304.735789356768,0.4792283290717528,31804.41744021871,231.0751441316667,3.553084635733198e-16,0.21763798476157242,-2.9699310006713864,0.0,0.0,0.0,0.270860137546,1632.486512693316,82.54070636891285
8.6,6386921.635539361,0.34037421220932,0.0,0.0,0.11728428353358,83.27850130306561,8784.63559739928,5.3292373326604484e-08,0.0,9.787174494374879,0.0,0.0,-0.0006271751949890984,0.0,0.0,0.0,-83.27850130306561,304.7710638177912,0.47971449152118606,31844.587942427494,231.12881769444445,3.5977134778097784e-16,0.22031700993911119,-3.042110959890371,0.0,0.0,0.0,0.273952640981,1672.0578061971114,83.4927655523288
8.7,6386913.259970641,0.352238255282304,0.0,0.0,0.1200109586668584,84.2327406698688,8776.26003102624,5.5149998276897685e-08,0.0,9.78720019520232,0.0,0.0,-0.0006344691677600872,0.0,0.0,0.0,-84.2327406698688,304.80674490396,0.48020625819060936,31885.22150860191,231.18310997666666,3.642449189095692e-16,0.22300054869998878,-3.115229264897967,0.0,0.0,0.0,0.27704262978,1712.143527578249,84.44438908347337
8.8,6386904.789030001,0.36437653696759204,0.0,0.0,0.1227694797104352,85.1864785086936,8767.78906572792,5.70505665895277e-08,0.0,9.78722618900352,0.0,0.0,-0.0006417631834750769,0.0,0.0,0.0,-85.18647850869361,304.842832404048,0.4807036261537019,31926.317896946643,231.23802065611113,3.6872927626964477e-16,0.2256886310545772,-3.1892889663468345,0.0,0.0,0.0,0.280130065011,1752.745348791432,85.39556853678268
8.9,6386896.22271744,0.376792241751576,0.0,0.0,0.1255598591321544,86.13970838704081,8759.222751979201,5.899457711729385e-08,0.0,9.78725247562608,0.0,0.0,-0.0006490572426320673,0.0,0.0,0.0,-86.13970838704081,304.879326098904,0.48120659244652,31967.876862649933,231.29354940555558,3.7322451905788107e-16,0.22838128670632105,-3.26429313660585,0.0,0.0,0.0,0.283214908023,1793.8649537231245,86.34629555357064
9.0,6386887.56109392,0.38948855535204,0.0,0.0,0.1283821093544448,87.09242385198961,8750.56114089504,6.098252891196299e-08,0.0,9.78727905488712,0.0,0.0,-0.0006563513457310569,0.0,0.0,0.0,-87.09242385198961,304.916225775168,0.4817151540685282,32009.898157739928,231.34969589333335,3.777307463286115e-16,0.23107854503394487,-3.3402448693063893,0.0,0.0,0.0,0.286297120423,1835.5040379138452,87.29656184151443
9.1,6386878.80425088,0.402468664709016,0.0,0.0,0.1312362427515768,88.044618429588,8741.80428429144,6.301492122304783e-08,0.0,9.787305926634241,0.0,0.0,-0.0006636454932700457,0.0,0.0,0.0,-88.044618429588,304.953531210336,0.48222930797950697,32052.3815309889,231.4064597838889,3.8224805697203004e-16,0.23378043507277035,-3.417147278870817,0.0,0.0,0.0,0.289376664062,1877.6643083235551,88.24635916590891
9.2,6386869.95218832,0.415735757984784,0.0,0.0,0.1341222716450904,88.99628562363361,8732.952234502562,6.50922534978068e-08,0.0,9.78733309071504,0.0,0.0,-0.0006709396857490359,0.0,0.0,0.0,-88.99628562363361,304.991242184952,0.48274905110264454,32095.32672815268,231.4638407377778,3.8677654968750205e-16,0.23648698549692376,-3.4950035000365243,0.0,0.0,0.0,0.292453501025,1920.3474830395874,89.19567934658008
9.3,6386861.00499768,0.42929302454863205,0.0,0.0,0.137040208301052,89.94741891719761,8724.005044655041,6.721502537984794e-08,0.0,9.7873605470076,0.0,0.0,-0.0006782339236670254,0.0,0.0,0.0,-89.94741891719761,305.029358467368,0.48327438032196085,32138.733491826988,231.52183841055557,3.9131632296176785e-16,0.23919822460688062,-3.573816687379972,0.0,0.0,0.0,0.295527593611,1963.5552910372458,90.1445142542838
9.4,6386851.962709441,0.443143654976856,0.0,0.0,0.1399900649267016,90.898011770796,8714.96276845464,6.938373670843067e-08,0.0,9.78738829529856,0.0,0.0,-0.0006855282075260133,0.0,0.0,0.0,-90.89801177079602,305.067879828984,0.4838052924838527,32182.601561351694,231.58045245444444,3.958674750475912e-16,0.24191418030944886,-3.653590014827385,0.0,0.0,0.0,0.298598904325,2007.289471916463,91.09285580710488
9.5,6386842.82541504,0.457290841049712,0.0,0.0,0.1429718536649664,91.8480576239136,8705.8254602472,7.159888751759316e-08,0.0,9.78741633543552,0.0,0.0,-0.0006928225378230045,0.0,0.0,0.0,-91.8480576239136,305.1068060412,0.48434178439554837,32226.930673002338,231.63968251666668,4.004301039432978e-16,0.2446348801062035,-3.7343266751743434,0.0,0.0,0.0,0.301667395866,2051.5517756049458,92.040695964798
9.6,6386833.593144961,0.471737775739224,0.0,0.0,0.1459855865935464,92.7975498937848,8696.5931750796,7.38609780354542e-08,0.0,9.787444667266081,0.0,0.0,-0.000700116915059994,0.0,0.0,0.0,-92.7975498937848,305.14613686932,0.4848838528261381,32271.720559798596,231.69952824055557,4.0500430737231314e-16,0.2473603510792521,-3.816029879583134,0.0,0.0,0.0,0.304733031116,2096.343962128344,92.9880267267301
9.7,6386824.26592968,0.48648765320308807,0.0,0.0,0.149031275717904,93.7464819753936,8687.2659686388,7.61705086828169e-08,0.0,9.78747329063784,0.0,0.0,-0.0007074113397379822,0.0,0.0,0.0,-93.7464819753936,305.1858720756,0.4854314945060586,32316.970951552164,231.75998926555556,4.0959018276536964e-16,0.25009061987433184,-3.898702857075657,0.0,0.0,0.0,0.307795773127,2141.6678012846724,93.93484012879361
9.8,6386814.84386064,0.501543668778576,0.0,0.0,0.15210893296913042,94.69484724147361,8677.84389728232,7.852798007159797e-08,0.0,9.78750220533744,0.0,0.0,-0.0007147058123559728,0.0,0.0,0.0,-94.6948472414736,305.22601141924804,0.4859847061270933,32362.681574866754,231.82106522611113,4.141878272409347e-16,0.2528257126923577,-3.98234885404856,0.0,0.0,0.0,0.310855585117,2187.5250724192656,94.88112823929093
9.9,6386805.326968321,0.516909018979488,0.0,0.0,0.155218570198764,95.64263904281282,8668.32701800776,8.09338930051767e-08,0.0,9.787531411242961,0.0,0.0,-0.0007220003334149622,0.0,0.0,0.0,-95.64263904281282,305.26655465947204,0.486543484340826,32408.85215318601,231.88275575222224,4.187973375891968e-16,0.25556565527207437,-4.066971133743911,0.0,0.0,0.0,0.313912430454,2233.9175641087745,95.82688315687668
10.0,6386795.71534416,0.532586901471768,0.0,0.0,0.1583601991751328,96.589850707644,8658.71538848328,8.338874847542797e-08,0.0,9.787560908141039,0.0,0.0,-0.0007292949034169512,0.0,0.0,0.0,-96.589850707644,305.307501546336,0.48710782576070244,32455.482406649804,231.94506047055557,4.2341881025382832e-16,0.2583104728820496,-4.152572975742094,0.0,0.0,0.0,0.316966272655,2280.847073893034,96.77209700849987
10.1,6386786.00901864,0.548580515082648,0.0,0.0,0.1615338315787824,97.5364755416448,8649.00906710856,8.589304766254762e-08,0.0,9.78759069587928,0.0,0.0,-0.0007365895228629415,0.0,0.0,0.0,-97.53647554164482,305.348851836,0.48767772696203043,32502.572052237927,232.0079790027778,4.2805234131775033e-16,0.26106019030555006,-4.239157675445819,0.0,0.0,0.0,0.320017075372,2328.3154079782057,97.7167619442595
10.2,6386776.20805272,0.564893059788456,0.0,0.0,0.1647394789975992,98.4825068276328,8639.20811283192,8.844729193330731e-08,0.0,9.7876207742748,0.0,0.0,-0.0007438841922539297,0.0,0.0,0.0,-98.4825068276328,305.39060527548,0.48825318447785665,32550.12080353067,232.0715109661111,4.3269802648623043e-16,0.2638148318307555,-4.326728543546329,0.0,0.0,0.0,0.323064802388,2376.3243809638598,98.66087013843345
10.3,6386766.312537841,0.581527736690232,0.0,0.0,0.1679771529231528,99.42793782587042,8629.312585424641,9.105198283965799e-08,0.0,9.787651143144721,0.0,0.0,-0.00075117891209192,0.0,0.0,0.0,-99.4279378258704,305.43276160874404,0.4888341948051513,32598.12837099611,232.1356559738889,4.3735596107220264e-16,0.266574421239193,-4.415288905502969,0.0,0.0,0.0,0.326109417609,2424.875815550908,99.6044137838196
10.4,6386756.32250448,0.598487748022872,0.0,0.0,0.1712468647458192,100.37276177376,8619.322545176161,9.370762211715937e-08,0.0,9.787681802306162,0.0,0.0,-0.000758473682877909,0.0,0.0,0.0,-100.37276177376,305.475320576712,0.489420754398108,32646.59446179858,232.200413635,4.420262399820338e-16,0.2693389817963962,-4.504842101013837,0.0,0.0,0.0,0.329150885058,2473.9715422303793,100.54738509276463
10.5,6386746.238013601,0.615776297133792,0.0,0.0,0.17454862575051364,101.316971885844,8609.23805319888,9.6414711683758e-08,0.0,9.78771275160672,0.0,0.0,-0.0007657685051138988,0.0,0.0,0.0,-101.31697188584401,305.51828192640005,0.49001285967329794,32695.518779702925,232.26578355277778,4.467089577012887e-16,0.2721085362381154,-4.595391483388592,0.0,0.0,0.0,0.332189168869,2523.6133990057147,101.4897762930486
10.6,6386736.05912616,0.633396588473784,0.0,0.0,0.17788244710968,102.2605613531952,8599.05917115384,9.917375363734387e-08,0.0,9.78774399080256,0.0,0.0,-0.000773063379302888,0.0,0.0,0.0,-102.26056135319521,305.561645389584,0.49061050700606185,32744.901025313873,232.33176532833335,4.514042082836103e-16,0.27488310676409017,-4.686940419237072,0.0,0.0,0.0,0.335224233279,2573.803231086335,102.4315796253127
10.7,6386725.78590312,0.651351827584824,0.0,0.0,0.18124833988268163,103.20352334433122,8588.785961494561,1.0198525025487779e-07,0.0,9.78777551977176,0.0,0.0,-0.0007803583059458786,0.0,0.0,0.0,-103.20352334433122,305.60541070108803,0.4912136927330871,32794.740895884555,232.3983585561111,4.561120853298119e-16,0.2776627150260393,-4.779492287561863,0.0,0.0,0.0,0.338256042625,2624.5428905859944,103.37278734460247
10.8,6386715.41843592,0.669645221093976,0.0,0.0,0.184646315006352,104.1458510043,8578.418487284162,1.0484970399029692e-07,0.0,9.78780733827048,0.0,0.0,-0.0007876532855468676,0.0,0.0,0.0,-104.14585100430001,305.649577595736,0.49182241314983083,32845.038085316475,232.4655628277778,4.608326819901028e-16,0.2804473821183192,-4.873050479598161,0.0,0.0,0.0,0.34128456134,2675.8342362211342,104.31339171470906
10.9,6386704.95675504,0.688279976689008,0.0,0.0,0.18807638329377602,105.08753745498481,8567.95681231728,1.0776761747242045e-07,0.0,9.787839446146322,0.0,0.0,-0.0007949483186068571,0.0,0.0,0.0,-105.0875374549848,305.69414579616,0.49243666451103496,32895.792284159514,232.53337773,4.655660909342836e-16,0.2832371285694728,-4.967618397924126,0.0,0.0,0.0,0.344309753945,2727.679132999662,105.25338500868355
11.0,6386694.400951921,0.70725930312144,0.0,0.0,0.19153855542727918,106.0285757941896,8557.401001059121,1.107394935032042e-07,0.0,9.78787184318592,0.0,0.0,-0.0008022434056298473,0.0,0.0,0.0,-106.0285757941896,305.739115031088,0.49305644303227303,32947.00317975559,232.60180284444445,4.703124043428509e-16,0.2860319743324429,-5.063199456060544,0.0,0.0,0.0,0.347331585046,2780.079451914519,106.19275950832265
11.1,6386683.75108752,0.7265864101760641,0.0,0.0,0.1950328419532464,106.968959097468,8546.75111864544,1.1376583505547172e-07,0.0,9.787904529175922,0.0,0.0,-0.0008095385471178355,0.0,0.0,0.0,-106.968959097468,305.784485020104,0.493681744887888,32998.67045590346,232.6708377488889,4.750717139203415e-16,0.2888319387756759,-5.15979707798152,0.0,0.0,0.0,0.350350019329,2833.037069637242,107.13150749953857
11.2,6386673.00719232,0.7462645086709441,0.0,0.0,0.198559253278464,107.90868041598961,8536.00723094352,1.1684714527116902e-07,0.0,9.78793750396392,0.0,0.0,-0.0008168337435748251,0.0,0.0,0.0,-107.90868041598961,305.830255488888,0.4943125662109926,33050.79379319393,232.74048201611112,4.798441108419539e-16,0.29163704067556034,-5.257414697224836,0.0,0.0,0.0,0.353365021558,2886.553868192384,108.06962127338795
11.3,6386662.169357761,0.7662968104330321,0.0,0.0,0.20211779966402402,108.8477327777592,8525.1694044912,1.19983927458921e-07,0.0,9.78797076730608,0.0,0.0,-0.000824128995503815,0.0,0.0,0.0,-108.8477327777592,305.87642614788,0.4949489030950154,33103.372868770406,232.81073521555555,4.846296857757893e-16,0.2944472982066399,-5.356055756758507,0.0,0.0,0.0,0.356376556571,2940.6317346510755,109.0070931245286
11.4,6386651.23767528,0.7866865282920721,0.0,0.0,0.2057084912189232,109.7861091867024,8514.23770655784,1.2317668509176253e-07,0.0,9.788004319019521,0.0,0.0,-0.0008314243034078041,0.0,0.0,0.0,-109.7861091867024,305.92299671056804,0.49559075159112387,33156.4073563768,232.88159691111113,4.894285288606105e-16,0.297262728934497,-5.455723708002163,0.0,0.0,0.0,0.359384589274,2995.272560800653,109.94391534967602
11.5,6386640.212144881,0.8074368760592641,0.0,0.0,0.2093313378982344,110.72380262358,8503.21220505288,1.2642592180504423e-07,0.0,9.788038158921362,0.0,0.0,-0.0008387196677907943,0.0,0.0,0.0,-110.72380262358001,305.969966893488,0.4962381077097706,33209.89692640542,232.95306666166667,4.942407296924972e-16,0.3000833498073007,-5.556422010426722,0.0,0.0,0.0,0.36238908464,3050.4782428334374,110.88008024606022
11.6,6386629.09291896,0.828551068508976,0.0,0.0,0.2129863494936576,111.66080604476882,8492.092968647761,1.2973214139346514e-07,0.0,9.788072286767761,0.0,0.0,-0.0008460150891577844,0.0,0.0,0.0,-111.6608060447688,306.017336397936,0.49689096742069316,33263.84124575329,233.02514402333335,4.990663773115016e-16,0.30290917714780047,-5.658154131020591,0.0,0.0,0.0,0.365390007704,3106.250681006782,111.81558011091118
11.7,6386617.880028,0.8500323213726481,0.0,0.0,0.2166735356301672,112.5971123837856,8480.88006671496,1.330958478088041e-07,0.0,9.78810670237584,0.0,0.0,-0.0008533105680107732,0.0,0.0,0.0,-112.5971123837856,306.065104931304,0.49754932665188367,33318.23997801373,233.0978285455556,5.039055602105443e-16,0.305740226646653,-5.760923543488994,0.0,0.0,0.0,0.368387323564,3162.591779346219,112.75040723940113
11.8,6386606.57353296,0.871883851305264,0.0,0.0,0.22039290576144002,113.5327145494584,8469.57356926704,1.3651754515782497e-07,0.0,9.78814140553224,0.0,0.0,-0.0008606061048547629,0.0,0.0,0.0,-113.5327145494584,306.11327219184005,0.4982131812890729,33373.092783236876,233.17111977444446,5.087583663042776e-16,0.30857651335352654,-5.864733727853631,0.0,0.0,0.0,0.371380997372,3219.5034452767763,113.68455392515892
11.9,6386595.1734948,0.8941088758853522,0.0,0.0,0.2241444691622352,114.4676054271456,8458.173547109041,1.3999773769843735e-07,0.0,9.78817639599312,0.0,0.0,-0.0008679017001937522,0.0,0.0,0.0,-114.4676054271456,306.161837883888,0.4988825271772768,33428.39931807342,233.24501725111114,5.136248829246362e-16,0.31141805167087305,-5.969588169785441,0.0,0.0,0.0,0.374370994339,3276.987589316548,114.61801245872678
12.0,6386583.68003544,0.916710613587552,0.0,0.0,0.22792823492473682,115.4017778778216,8446.680071747041,1.4353692983829994e-07,0.0,9.78821167360608,0.0,0.0,-0.0008751973545327415,0.0,0.0,0.0,-115.4017778778216,306.21080169960004,0.49955736011925045,33484.1592357745,233.31952051277779,5.185051968163899e-16,0.31426485534681103,-6.075490359892888,0.0,0.0,0.0,0.377357279727,3335.0461247415305,115.55077512601694
12.1,6386572.09315488,0.939692283755184,0.0,0.0,0.2317442119515432,116.3352247389912,8435.0932153272,1.471356261304574e-07,0.0,9.78824723806632,0.0,0.0,-0.0008824930683757315,0.0,0.0,0.0,-116.33522473899122,306.260163331128,0.5002376758760029,33540.37218600028,233.39462909055555,5.233993941237987e-16,0.3171169374662293,-6.182443793232662,0.0,0.0,0.0,0.380339818846,3393.6809672408863,116.48283420779718
12.2,6386560.41300552,0.963057106606344,0.0,0.0,0.23559240895079042,117.2679388243848,8423.41305081864,1.507943312717695e-07,0.0,9.78828308925192,0.0,0.0,-0.000889788842227721,0.0,0.0,0.0,-117.2679388243848,306.30992246757603,0.5009234701652515,33597.03781501139,233.4703425127778,5.283075603906122e-16,0.31997431044678326,-6.290451968642439,0.0,0.0,0.0,0.383318577059,3452.8940345722044,117.41418198020527
12.3,6386548.639617841,0.986808303185136,0.0,0.0,0.2394728344306656,118.1999129227392,8411.63965183056,1.5451355009889696e-07,0.0,9.788319226888559,0.0,0.0,-0.0008970846765927105,0.0,0.0,0.0,-118.19991292273922,306.360078798048,0.5016147386645143,33654.15576552535,233.54666030111113,5.332297805378293e-16,0.3228369860304435,-6.399518388207095,0.0,0.0,0.0,0.386293519772,3512.687246240702,118.34481071114789
12.4,6386536.7730528,1.010949095358624,0.0,0.0,0.2433854966930064,119.1311397996264,8399.77309273416,1.5829378758550882e-07,0.0,9.7883556507324,0.0,0.0,-0.0009043805719767003,0.0,0.0,0.0,-119.13113979962641,306.41063200250403,0.5023114770075019,33711.725676860166,233.62358197444445,5.381661388548017e-16,0.32570497527682335,-6.509646556413549,0.0,0.0,0.0,0.389264612437,3573.0625231353383,119.27471266235841
12.5,6386524.813401841,1.035482705795496,0.0,0.0,0.24733040382811922,120.0616121965392,8387.81344863216,1.621355488393153e-07,0.0,9.78839236060056,0.0,0.0,-0.0009116765288846897,0.0,0.0,0.0,-120.0616121965392,306.461581760904,0.5030136807851484,33769.74718469495,233.70110704555557,5.4311671899923285e-16,0.32857828855739646,-6.620839979750418,0.0,0.0,0.0,0.392231820549,3634.0217871936484,120.2038800878535
12.6,6386512.7607564,1.0604123579355842,0.0,0.0,0.2513075637080736,120.99132283058641,8375.76079529784,1.660393390980538e-07,0.0,9.788429356249202,0.0,0.0,-0.0009189725478216786,0.0,0.0,0.0,-120.99132283058641,306.512927753208,0.5037213455466425,33828.21992126142,233.77923502277778,5.480816039927313e-16,0.33145693554837924,-6.733102165951819,0.0,0.0,0.0,0.395195109644,3695.566961047432,121.13230523238987
12.7,6386500.61517744,1.085741275974624,0.0,0.0,0.25531698398213043,121.92026439510241,8363.61520926648,1.700056637268707e-07,0.0,9.78846663746496,0.0,0.0,-0.0009262686292936682,0.0,0.0,0.0,-121.92026439510242,306.564669650232,0.5044344667973653,33887.143515200296,233.85796541000002,5.530608761941201e-16,0.33434092522494846,-6.8464366233746246,0.0,0.0,0.0,0.398154445297,3757.699967678014,122.05998033094978
12.8,6386488.3767259205,1.111472684833776,0.0,0.0,0.259358672070036,122.8484295587328,8351.37676786584,1.7403502821430707e-07,0.0,9.78850420397352,0.0,0.0,-0.000933564773804657,0.0,0.0,0.0,-122.8484295587328,306.61680712584,0.5051530400009526,33946.517591657044,233.93729770722226,5.580546173083341e-16,0.33723026585501364,-6.9608468603312215,0.0,0.0,0.0,0.401109793124,3820.422730061931,122.98689761079885
12.9,6386476.0454932805,1.1376098101504801,0.0,0.0,0.2634326351562312,123.7758109666536,8339.04554906376,1.7812793816811013e-07,0.0,9.788542055592,0.0,0.0,-0.0009408609818606474,0.0,0.0,0.0,-123.77581096665361,306.669339844752,0.5058770605767176,34006.341772090316,234.01723140777779,5.630629083730745e-16,0.3401249649938791,-7.076336384644693,0.0,0.0,0.0,0.404061118775,3883.737170807044,123.91304928634156
13.0,6386463.62157096,1.16415587824188,0.0,0.0,0.2675388801834504,124.7024012402664,8326.621631620561,1.822848993147094e-07,0.0,9.7885801920156,0.0,0.0,-0.0009481572539686366,0.0,0.0,0.0,-124.70240124026641,306.722267471688,0.5066065239017119,34066.61567460717,234.09776600111113,5.680858297365683e-16,0.34302502947668234,-7.192908702581247,0.0,0.0,0.0,0.407008387939,3947.6452118125826,124.83842756272244
13.1,6386451.1050504,1.1911141160804402,0.0,0.0,0.2716774138484544,125.628192976284,8314.1050949976,1.8650641749031555e-07,0.0,9.78861861309192,0.0,0.0,-0.0009554535906336267,0.0,0.0,0.0,-125.62819297628401,306.775589671368,0.5073414253086652,34127.33891348426,234.17890097333336,5.731234610798093e-16,0.34593046541439015,-7.310567318583317,0.0,0.0,0.0,0.409951566338,4012.148773890897,125.76302463376824
13.2,6386438.49596208,1.218487751281752,0.0,0.0,0.2758482425938008,126.55317874734001,8301.49601944872,1.9079299863969884e-07,0.0,9.788657318516162,0.0,0.0,-0.0009627499923616153,0.0,0.0,0.0,-126.55317874734001,306.829306099368,0.5080817600875306,34188.51109959869,234.26063580277778,5.781758813809724e-16,0.34884127818712646,-7.429315734513369,0.0,0.0,0.0,0.412890619729,4077.2497764227164,126.68683268044458
13.3,6386425.794427921,1.2462800120588162,0.0,0.0,0.28005137260266244,127.4773511025984,8288.7944859288,1.9514514881583987e-07,0.0,9.78869630804448,0.0,0.0,-0.000970046459658606,0.0,0.0,0.0,-127.4773511025984,306.883416411264,0.5088275234839382,34250.13184009295,234.34296996555557,5.832431689154134e-16,0.35175747243839,-7.549157448853223,0.0,0.0,0.0,0.415825513903,4142.950136978898,127.60984387291379
13.4,6386413.000539361,1.2744941272128962,0.0,0.0,0.2842868097933408,128.400702567144,8276.00057615472,1.9956337416771242e-07,0.0,9.788735581494,0.0,0.0,-0.0009773429930305946,0.0,0.0,0.0,-128.400702567144,306.937920259584,0.5095787107007421,34312.20073856639,234.42590293222221,5.883254012556687e-16,0.35467905207016065,-7.670095956170262,0.0,0.0,0.0,0.418756214681,4209.251770970897,128.53205036693376
13.5,6386400.11432688,1.303133326099992,0.0,0.0,0.2885545598119512,129.3232256413728,8263.11437257488,2.0404818094202864e-07,0.0,9.788775138529441,0.0,0.0,-0.0009846395929835848,0.0,0.0,0.0,-129.3232256413728,306.992817293808,0.5103353168949277,34374.71739488366,234.50943416722222,5.934226552536637e-16,0.3576060202380068,-7.792134746361235,0.0,0.0,0.0,0.421682687918,4276.156591267729,129.45344430643016
13.6,6386387.135912401,1.3322008386003599,0.0,0.0,0.29285462802754564,130.2449128031256,8250.13595843016,2.0860007547974849e-07,0.0,9.788814978967919,0.0,0.0,-0.0009919362600255743,0.0,0.0,0.0,-130.24491280312563,307.04810715427203,0.5110973371817343,34437.68140541419,234.59356313166666,5.985350070451591e-16,0.36053837934352345,-7.915277304118474,0.0,0.0,0.0,0.424604899498,4343.666507832075,130.37401782195315
13.7,6386374.06538736,1.3616998950941281,0.0,0.0,0.29718701952510246,131.16575650464,8237.065417662481,2.1321956420909837e-07,0.0,9.78885510253512,0.0,0.0,-0.0009992329946605634,0.0,0.0,0.0,-131.16575650464,307.103789490456,0.511864766630533,34501.092362696974,234.67828928166668,6.036625320186151e-16,0.36347613103255244,-8.039527108040247,0.0,0.0,0.0,0.427522815338,4411.783427356397,131.29376302913394
13.8,6386360.90278224,1.391633726433864,0.0,0.0,0.3015517390991256,132.08574917620803,8223.90283503672,2.1790715363858988e-07,0.0,9.78889550895672,0.0,0.0,-0.0010065297973985527,0.0,0.0,0.0,-132.08574917620803,307.1598639366,0.5126376002663718,34564.949855775754,234.76361206722223,6.088053048463278e-16,0.36641927618717623,-8.164887630185936,0.0,0.0,0.0,0.430436401381,4480.509252875106,132.21267203125714
13.9,6386347.64824944,1.422005563908,0.0,0.0,0.305948791248768,133.0048832225184,8210.64829598832,2.226633503570197e-07,0.0,9.78893619801936,0.0,0.0,-0.0010138266687385428,0.0,0.0,0.0,-133.0048832225184,307.216330129992,0.5134158330710074,34629.25346991172,234.84953093444446,6.139633994399475e-16,0.36936781492171394,-8.29136233518639,0.0,0.0,0.0,0.433345623602,4549.845883400667,133.1307369161741
14.0,6386334.30184992,1.4528186392225442,0.0,0.0,0.310378180168992,133.9231510257048,8197.30188680616,2.2748866103172434e-07,0.0,9.78897716941824,0.0,0.0,-0.0010211236091985315,0.0,0.0,0.0,-133.9231510257048,307.27318770182404,0.514199459979812,34694.002786727164,234.936045325,6.191368889549271e-16,0.3723217465787187,-8.418954679710147,0.0,0.0,0.0,0.436250448005,4619.795213540566,134.04794975630267
14.1,6386320.86364464,1.48407618445536,0.0,0.0,0.314839909746912,134.8405449438216,8183.86369444968,2.323835923911269e-07,0.0,9.789018422909521,0.0,0.0,-0.0010284206192785225,0.0,0.0,0.0,-134.8405449438216,307.330436283288,0.5149884758848662,34759.19738406186,235.0231546738889,6.243258457949698e-16,0.37528106972230435,-8.547668111618263,0.0,0.0,0.0,0.439150840622,4690.3591331286225,134.96430261068537
14.2,6386307.33375552,1.51578143203788,0.0,0.0,0.31933398355173603,135.75705731145362,8170.333806701281,2.3734865123520884e-07,0.0,9.78905995824936,0.0,0.0,-0.0010357176994785105,0.0,0.0,0.0,-135.75705731145362,307.38807549948,0.5157828756323818,34824.83683611666,235.1108584127778,6.295303415986846e-16,0.37824578213503246,-8.677506069430526,0.0,0.0,0.0,0.442046767512,4761.539526822804,135.8797875229312
14.3,6386293.712274,1.5479376147154802,0.0,0.0,0.323860404838728,136.6726804394112,8156.71231213584,2.4238434441980235e-07,0.0,9.789101775132961,0.0,0.0,-0.0010430148503185013,0.0,0.0,0.0,-136.6726804394112,307.446104975496,0.5165826540263095,34890.920713357744,235.19915596777778,6.347504472173453e-16,0.3812158808125742,-8.808471981524788,0.0,0.0,0.0,0.444938194766,4833.338273765272,136.79439651967266
14.4,6386279.99926104,1.580547965520048,0.0,0.0,0.328419176524824,137.5874066150352,8142.999300029281,2.4749117885658995e-07,0.0,9.78914387331648,0.0,0.0,-0.0010503120722984906,0.0,0.0,0.0,-137.5874066150352,307.50452432728804,0.5173878058164855,34957.44858251666,235.28804675944446,6.399862327326838e-16,0.38419136195970677,-8.940569265469707,0.0,0.0,0.0,0.447825088498,4905.757247060483,137.70812161416669
