time,feVelocity_m_s_X,feVelocity_m_s_Y,feVelocity_m_s_Z,altitudeMsl_m,longitude_rad,latitude_rad,localGravity_m_s2,eulerAngle_rad_Yaw,eulerAngle_rad_Pitch,eulerAngle_rad_Roll,bodyAngularRateWrtEi_rad_s_Roll,bodyAngularRateWrtEi_rad_s_Pitch,bodyAngularRateWrtEi_rad_s_Yaw,altitudeRateWrtMsl_m_s,speedOfSound_m_s,airDensity_kg_m3,ambientPressure_Pa,ambientTemperature_K,aero_bodyForce_N_X,aero_bodyForce_N_Y,aero_bodyForce_N_Z,aero_bodyMoment_Nm_L,aero_bodyMoment_Nm_M,aero_bodyMoment_Nm_N,mach,trueAirspeed_m_s
0.0,1.1186160000000001e-15,-2.862072e-09,0.0,9144.0,0.0,0.0,9.786072474552002,0.0,0.0,0.0,0.0,0.0,0.0,0.0,303.23005392984,0.459177273275918,30157.60192315531,228.79958955555557,-7.784387826705873e-09,0.015563246513943979,0.0,0.0,0.0,0.0,0.020103548,6.095994720144001
0.1,5.394960000000001e-12,0.00011348039280000001,0.9752023217784,9143.951241144001,8.674286382411818e-13,-4.153883619746505e-21,9.786072593424,-3.0368728984701332e-27,-4.153883619746505e-21,-7.292107787879949e-06,0.0,0.0,0.0,-0.9752023218800001,303.23026372368,0.45917985017000806,30157.81869145179,228.7999061666667,7.873352259011085e-09,0.015723297975882667,-0.002263722221114145,0.0,0.0,0.0,0.020358782,6.17339339097684
0.2,5.57784e-12,0.0002438616408,1.9503867819720002,9143.804961528002,3.647738136668149e-12,-4.1364303272265614e-21,9.786073014048,-3.0368728984701332e-27,-4.153883619746505e-21,-1.4584233029052416e-05,0.0,0.0,0.0,-1.9503867819720002,303.23089316616006,0.459188096231096,30158.471399930233,228.800856,8.140245555926714e-09,0.016265505053231617,-0.004943815778303133,0.0,0.0,0.0,0.021106609,6.400170348123719
0.3,5.8826400000000005e-12,0.0003936357888,2.9255516441352003,9143.5611642,8.604473212332043e-12,-4.101523742186674e-21,9.786073730328,-3.0368728984701332e-27,-4.1364303272265614e-21,-2.1876358270224887e-05,0.0,0.0,0.0,-2.925551643932,303.23193966648,0.45920149608036404,30159.557151834968,228.8024352777778,8.585067717452765e-09,0.01715551857867778,-0.007958784803353778,0.0,0.0,0.0,0.022297476,6.761300920176041
0.4,6.30936e-12,0.0005649818520000001,3.900694066008,9143.21984916,1.6074482410867775e-11,-4.084070449666732e-21,9.78607474836,-3.0368728984701332e-27,-4.1189770347066175e-21,-2.9168483511397355e-05,0.0,0.0,0.0,-3.900694067024,303.23340581544,0.459220049717812,30161.076473848843,228.80464783333335,9.163336527436628e-09,0.018342820099336653,-0.011444046506899454,0.0,0.0,0.0,0.023865095,7.2366878841297595
0.5,6.797040000000001e-12,0.0007597158288,4.875810424128,9142.781025552,2.6354471705114375e-11,-4.066617157146788e-21,9.786076065096001,-3.0368728984701332e-27,-4.101523742186674e-21,-3.6460608752569824e-05,0.0,0.0,0.0,-4.875810424128001,303.2352915216,0.45924427252225797,30163.03177434889,228.80749361111114,9.87505198587831e-09,0.019773995370052182,-0.015500424280071656,0.0,0.0,0.0,0.025740664,7.8054708907512405
0.6,7.34568e-12,0.0009793035024,5.850896524752001,9142.244690328,3.996803987067015e-11,-4.0491638646268446e-21,9.786077683584,-3.0368728984701332e-27,-4.084070449666732e-21,-4.375273399374229e-05,0.0,0.0,0.0,-5.85089652272,303.23759434656,0.459273649114884,30165.42018530759,228.8109687777778,1.0720214092777805e-08,0.021400260744369806,-0.020198942877401246,0.0,0.0,0.0,0.02786199,8.448795402818401
0.7,7.95528e-12,0.0012249073800000001,6.825947786736,9141.610846536001,5.724679946541401e-11,-4.031710572106901e-21,9.786079597728001,-3.0368728984701332e-27,-4.084070449666732e-21,-5.104485923491476e-05,0.0,0.0,0.0,-6.82594778572,303.24031672872,0.45930817949568997,30168.244632208764,228.81507722222224,1.1609858415829903e-08,0.02318071037631559,-0.025588096810937804,0.0,0.0,0.0,0.030177214,9.150939924235761
0.8,8.62584e-12,0.0014974433856000003,7.800959369856,9140.879500272,7.853981633974482e-11,-4.014257279586957e-21,9.786081813624001,-3.0368728984701332e-27,-4.066617157146788e-21,-5.8337001929379746e-05,0.0,0.0,0.0,-7.80095936884,303.24345869856,0.459348379043494,30171.502764131706,228.8198188888889,1.2543984955034609e-08,0.025082649837017367,-0.031700602750661555,0.0,0.0,0.0,0.032645025,9.89938173054432
0.9,9.2964e-12,0.0017976351144000002,8.775926244912,9140.050657632,1.0419615634406148e-10,-3.996803987067015e-21,9.786084325176,-3.0368728984701332e-27,-4.0491638646268446e-21,-6.562914462384474e-05,0.0,0.0,0.0,-8.77592624288,303.24701769576,0.459393732379478,30175.194116637897,228.82518994444447,1.3522593710391919e-08,0.027080630850614233,-0.03855857280622197,0.0,0.0,0.0,0.035233289,10.68438047280352
1.0,9.99744e-12,0.002126054676,9.750843272976,9139.124318615999,1.3491395117916167e-10,-3.961897402027128e-21,9.78608713848,-3.0368728984701332e-27,-4.031710572106901e-21,-7.292128731830972e-05,0.0,0.0,0.0,-9.750843271960001,303.25099621968,0.45944475488246,30179.321639151294,228.8311942777778,1.4590166898054439e-08,0.02915505900089097,-0.04617711313822448,0.0,0.0,0.0,0.037917255,11.498435331138001
1.1,1.072896e-11,0.0024831601848000003,10.72570522368,9138.10048932,1.710422666954443e-10,-3.9444441095071844e-21,9.786090253535999,-3.0368728984701332e-27,-4.014257279586957e-21,-8.021343001277472e-05,0.0,0.0,0.0,-10.72570522368,303.25539430080005,0.459500415794804,30183.88299032723,228.83783188888887,1.565774008571696e-08,0.031290890402344756,-0.05456672154968108,0.0,0.0,0.0,0.040677889,12.33577870924168
1.2,1.1490960000000002e-11,0.0028693210584000003,11.700506811792,9136.979178888001,2.129301687433082e-10,-3.926990816987242e-21,9.786093664248,-3.0368728984701332e-27,-3.996803987067015e-21,-8.750559016053222e-05,0.0,0.0,0.0,-11.700506809760002,303.2602093788,0.459562261252964,30188.87772966733,228.84509888888888,1.672531327337948e-08,0.033476524093003,-0.06373483101891088,0.0,0.0,0.0,0.043500501,13.19195965820432
1.3,1.225296e-11,0.0032848378296,12.675242709408,9135.760390368001,2.6179938779914943e-10,-3.909537524467299e-21,9.786097373664,-3.0368728984701332e-27,-3.979350694547072e-21,-9.479775030828972e-05,0.0,0.0,0.0,-12.675242706360002,303.26544395304,0.459628745120486,30194.308825747634,228.85299911111113,1.7837368677194604e-08,0.03570298356164611,-0.07368688172094934,0.0,0.0,0.0,0.046373674,14.06352065134632
1.4,1.3045439999999999e-11,0.0037299583008,13.649907555096,9134.444132904,3.1590459461097366e-10,-3.892084231947355e-21,9.786101384832,-3.0368728984701332e-27,-3.961897402027128e-21,-0.00010208992790933976,0.0,0.0,0.0,-13.649907554080002,303.27109796256,0.45970089815500603,30200.17394679955,228.86153261111113,1.8993906297162337e-08,0.03796325841100843,-0.08442692598568799,0.0,0.0,0.0,0.049288464,14.94775379435156
1.5,1.380744e-11,0.0042048879072,14.624495966088002,9133.030412592001,3.787364476827695e-10,-3.8746309394274115e-21,9.786105694704002,-3.0368728984701332e-27,-3.9444441095071844e-21,-0.00010938208805709726,0.0,0.0,0.0,-14.624495968120002,303.27716893848,0.459778720356524,30206.472676264806,228.8706955,2.0150443917130063e-08,0.040251810605178955,-0.09595806867181424,0.0,0.0,0.0,0.052237803,15.84251921624652
1.6,1.459992e-11,0.0047097988608,15.599002541328002,9131.519235528,4.468042885105484e-10,-3.857177646907468e-21,9.78611030328,-3.0368728984701332e-27,-3.926990816987242e-21,-0.00011667428311143981,0.0,0.0,0.0,-15.599002543360001,303.2836593192,0.459861180967404,30213.207997083548,228.88049161111113,2.1306981537097796e-08,0.042564263094088284,-0.10828280523165426,0.0,0.0,0.0,0.055216047,16.74611032108336
1.7,1.5422880000000002e-11,0.0052448371608,16.57342186452,9129.910613904,5.253441048502932e-10,-3.839724354387525e-21,9.78611521056,-3.0368728984701332e-27,-3.909537524467299e-21,-0.00012396647816578237,0.0,0.0,0.0,-16.57342186452,303.2905665444,0.45994931074528206,30220.377093896546,228.8909172222222,2.2463519157065522e-08,0.04489709733443873,-0.12140317295070788,0.0,0.0,0.0,0.058218655,17.65715352794876
1.8,1.621536e-11,0.005810127165600001,17.547748504128002,9128.204553816,6.126105674500098e-10,-3.822271061867582e-21,9.786120416544,-3.0368728984701332e-27,-3.892084231947355e-21,-0.00013125867322012492,0.0,0.0,0.0,-17.54774850616,303.29789317440003,0.460043109690158,30227.980569995063,228.90197600000002,2.3620056777033255e-08,0.04724746646439653,-0.13532087549785368,0.0,0.0,0.0,0.061241934,18.57453343993968
1.9,1.7038320000000003e-11,0.0064057755552,18.52197702252,9126.401067456,7.068583470577034e-10,-3.8048177693476386e-21,9.786125921232001,-3.0368728984701332e-27,-3.8746309394274115e-21,-0.00013855088572775997,0.0,0.0,0.0,-18.52197702252,303.30563911776,0.46014206242321404,30236.01852592764,228.91366805555558,2.482107661315359e-08,0.0496130707533866,-0.15003744306132738,0.0,0.0,0.0,0.064282858,19.497336538267557
2.0,1.786128e-11,0.0070318752936,19.496101963776002,9124.500163968001,8.133234314293576e-10,-3.787364476827695e-21,9.786131724624001,-3.0368728984701332e-27,-3.857177646907468e-21,-0.00014584309823539507,0.0,0.0,0.0,-19.49610196276,303.31380184464,0.46024616894445003,30244.492967877133,228.92598955555556,2.6022096449273925e-08,0.051992001914336,-0.1655542145558351,0.0,0.0,0.0,0.067338928,20.4248084936952
2.1,1.8653760000000004e-11,0.0076885071528,20.470117871976,9122.501849448001,9.285151620609833e-10,-3.7699111843077514e-21,9.786137829768,-3.0368728984701332e-27,-3.839724354387525e-21,-0.00015313532819632262,0.0,0.0,0.0,-20.47011787096,303.32238132456,0.460355429253866,30253.401602379134,228.93894044444446,2.722311628539426e-08,0.05438269417323613,-0.18187244882809403,0.0,0.0,0.0,0.070408059,21.35632160223156
2.2,1.95072e-11,0.0083757421512,21.444019282056,9120.406142184,1.054178868204575e-09,-3.752457891787809e-21,9.786144230568,-3.0368728984701332e-27,-3.822271061867582e-21,-0.00016042757561054275,0.0,0.0,0.0,-21.444019281040003,303.33138255624,0.46047035873028,30262.74556419578,228.9525283888889,2.842413612151459e-08,0.05678385309759698,-0.1989933335532754,0.0,0.0,0.0,0.073488502,22.29134969569788
2.3,2.033016e-11,0.009093643077600001,22.417800713712,9118.21305132,1.1903145498601329e-09,-3.735004599267865e-21,9.78615093312,-3.0368728984701332e-27,-3.8048177693476386e-21,-0.00016771982302476286,0.0,0.0,0.0,-22.417800716760002,303.34079795016,0.46059044199487403,30272.523460011536,228.96674194444444,2.9625155957634925e-08,0.0591943888731228,-0.21691799857966948,0.0,0.0,0.0,0.076578782,23.22944861857788
2.4,2.115312e-11,0.00984226632,23.391456689688003,9115.922586,1.3386675362796509e-09,-3.717551306747922e-21,9.786157931328,-3.0368728984701332e-27,-3.787364476827695e-21,-0.00017501208789227549,0.0,0.0,0.0,-23.391456691720002,303.35063250504004,0.46071619442646605,30282.738832965566,228.98158872222223,3.0826175793755264e-08,0.061613380717939224,-0.23564753372157204,0.0,0.0,0.0,0.079677638,24.17024100047536
2.5,2.197608e-11,0.010621661256,24.364981714440002,9113.534764512,1.499237827463129e-09,-3.7000980142279785e-21,9.786165231288,-3.0368728984701332e-27,-3.7699111843077514e-21,-0.0001823043527597881,0.0,0.0,0.0,-24.36498171444,303.36088615992,0.460847100646238,30293.38701473262,228.9970687777778,3.20716778460282e-08,0.06404006353792845,-0.25518306437905175,0.0,0.0,0.0,0.082783995,25.113404207835718
2.6,2.282952e-11,0.0114318736056,25.338370292424003,9111.049596,1.6720254234105678e-09,-3.682644721708035e-21,9.786172829952001,-3.0368728984701332e-27,-3.752457891787809e-21,-0.00018959663508059325,0.0,0.0,0.0,-25.33837029344,303.37155385512,0.46098316065419,30304.471945858008,229.01317444444445,3.3272697682148537e-08,0.06647378789273461,-0.2755256937110691,0.0,0.0,0.0,0.085896924,26.05866079072088
2.7,2.365248e-11,0.012272943907199999,26.311616918952,9108.467095704,1.8500490071139894e-09,-3.665191429188092e-21,9.786180724272,-3.0368728984701332e-27,-3.735004599267865e-21,-0.00019688893485469094,0.0,0.0,0.0,-26.311616916920002,303.38264308872004,0.46112488982914007,30315.992884197723,229.02991716666665,3.451819973442148e-08,0.06891398885821261,-0.29667647594614704,0.0,0.0,0.0,0.08901562,27.00577079701592
2.8,2.450592e-11,0.0131449093464,27.284716077144,9105.787275816001,2.059488517353309e-09,-3.647738136668149e-21,9.786188920344001,-3.0368728984701332e-27,-3.717551306747922e-21,-0.00020418125208208112,0.0,0.0,0.0,-27.28471607816,303.3941462712,0.46127177279227,30327.948465164383,229.04728544444444,3.571921957054181e-08,0.07136019047464957,-0.31863654093257576,0.0,0.0,0.0,0.092139384,27.954525640256602
2.9,2.535936e-11,0.014047804060800001,28.257662253168,9103.010157672,2.268928027592628e-09,-3.6302848441482056e-21,9.78619741512,-3.0368728984701332e-27,-3.7000980142279785e-21,-0.0002114735867627638,0.0,0.0,0.0,-28.257662250120003,303.40606840128004,0.46142380954358,30340.339866612358,229.06528699999998,3.696472162281475e-08,0.07381199240210017,-0.34140704075975364,0.0,0.0,0.0,0.0952676,28.90474305807816
3.0,2.618232e-11,0.014981658835200001,29.230449908808005,9100.135750416,2.4958208303518913e-09,-3.612831551628262e-21,9.786206205552002,-3.0368728984701332e-27,-3.682644721708035e-21,-0.00021876592144344652,0.0,0.0,0.0,-29.23044991084,303.41840688816,0.461581515461888,30353.166743803777,229.083918,3.821022367508769e-08,0.07626903433461353,-0.36498906969019806,0.0,0.0,0.0,0.098399729,29.856263027529963
3.1,2.7035760000000003e-11,0.0159465026256,30.203073514992003,9097.164072336001,2.7401669256310974e-09,-3.595378259108319e-21,9.786215297736,-3.0368728984701332e-27,-3.665191429188092e-21,-0.00022605827357742174,0.0,0.0,0.0,-30.20307351804,303.4311642312,0.461744375168376,30366.43217065128,229.10318222222222,3.9411243511208024e-08,0.07873102713778468,-0.38938384653663155,0.0,0.0,0.0,0.101535289,30.808944416045044
3.2,2.78892e-11,0.0169423622544,31.1755275396,9094.095141720001,3.001966313430247e-09,-3.577924966588375e-21,9.786224688624,-3.0368728984701332e-27,-3.647738136668149e-21,-0.00023335064316468948,0.0,0.0,0.0,-31.175527524360003,303.44433780912,0.461912388663044,30380.131023967137,229.1230758888889,4.0656745563480965e-08,0.08119770391831671,-0.4145925144920092,0.0,0.0,0.0,0.104673859,31.76266220858696
3.3,2.874264e-11,0.0179692627152,32.147806377360006,9090.928973808,3.263765701229396e-09,-3.560471674068433e-21,9.786234375168,-3.0368728984701332e-27,-3.6302848441482056e-21,-0.00024064303020524975,0.0,0.0,0.0,-32.14780638752,303.45792759144,0.46208607132471,30394.265884497323,229.14359894444445,4.1902247615753906e-08,0.08366884671335045,-0.4406163501959347,0.0,0.0,0.0,0.107815056,32.717305187507364
3.4,2.9596080000000005e-11,0.0190272271728,33.11990452968,9087.665586888,3.5604716740684324e-09,-3.543018381548489e-21,9.786244360416001,-3.0368728984701332e-27,-3.612831551628262e-21,-0.0002479354346991026,0.0,0.0,0.0,-33.11990453476,303.47193354768,0.462264907774556,30408.83693897484,229.16475144444445,4.314774966802684e-08,0.08614426424935645,-0.46745656801290897,0.0,0.0,0.0,0.110958542,33.672774023958716
3.5,3.044952e-11,0.020116277572800004,34.09181641872,9084.304999248,3.8571776469074684e-09,-3.5255650890285455e-21,9.786254647416001,-3.0368728984701332e-27,-3.595378259108319e-21,-0.0002552278566462479,0.0,0.0,0.0,-34.09181640856001,303.4863555864,0.462448898012582,30423.844383708758,229.18653333333333,4.439325172029979e-08,0.08862377414924849,-0.4951144134449842,0.0,0.0,0.0,0.114104008,34.628979652251324
3.6,3.13944e-11,0.0212364346416,35.063536405680004,9080.847229176,4.188790204786391e-09,-3.508111796508602e-21,9.786265230072,-3.0368728984701332e-27,-3.577924966588375e-21,-0.0002625202960466857,0.0,0.0,0.0,-35.063536415840005,303.50119617648005,0.462638557417606,30439.28892253887,229.2089485,4.5816682637183146e-08,0.09110724741459975,-0.5235912209586451,0.0,0.0,0.0,0.117251178,35.58584191686552
3.7,3.2004e-11,0.022387717581600002,36.03505897368,9077.292298008,4.537856055185256e-09,-3.490658503988659e-21,9.786276111432,-3.0368728984701332e-27,-3.560471674068433e-21,-0.00026981275290041603,0.0,0.0,0.0,-36.03505897876,303.51645022776,0.46283337061081004,30455.169746288815,229.23198927777779,4.670632696023525e-08,0.09359455949520495,-0.5528883294685978,0.0,0.0,0.0,0.120399801,36.5432884200972
3.8,3.29184e-11,0.0235701452904,37.00637848392,9073.640224032,4.886921905584123e-09,-3.473205211468716e-21,9.786287291496,-3.0368728984701332e-27,-3.543018381548489e-21,-0.0002771052272074389,0.0,0.0,0.0,-37.00637849916,303.53212270848,0.463033337592194,30471.48568189224,229.2556632777778,4.80407934448134e-08,0.09608559918552377,-0.5830071090270997,0.0,0.0,0.0,0.123549645,37.5012535497586
3.9,3.38328e-11,0.0247837351416,37.97748935856,9069.891028584001,5.270894341022875e-09,-3.4557519189487726e-21,9.786298767216,-3.0368728984701332e-27,-3.5255650890285455e-21,-0.0002843977189677543,0.0,0.0,0.0,-37.977489363640004,303.54821102784,0.46323897374057604,30488.241244457564,229.27996672222224,4.9375259929391546e-08,0.09858027752112383,-0.6139489563757383,0.0,0.0,0.0,0.126700503,38.45967762520128
4.0,3.47472e-11,0.026028504204000002,38.9483859588,9066.044733,5.672320068981571e-09,-3.438298626428829e-21,9.786310544688,-3.0368728984701332e-27,-3.508111796508602e-21,-0.0002916902281813622,0.0,0.0,0.0,-38.94838596388001,303.56471259504,0.46344976367713797,30505.431344313263,229.3048957777778,5.070972641396969e-08,0.10107852333045937,-0.6457153082900949,0.0,0.0,0.0,0.129852182,39.418506207961165
4.1,3.56616e-11,0.027304468632000003,39.91906267632,9062.101358616,6.0911990894602106e-09,-3.420845333908886e-21,9.786322617816,-3.0368728984701332e-27,-3.490658503988659e-21,-0.0002989827548482626,0.0,0.0,0.0,-39.91906266616,303.58163240880003,0.46366570740188007,30523.05962514704,229.33045805555557,5.204419289854785e-08,0.10358025209731964,-0.6783075704082004,0.0,0.0,0.0,0.133004504,40.37768945355908
4.2,3.6576e-11,0.028611643970400003,40.88951384184,9058.060926768001,6.527531402458792e-09,-3.403392041388943e-21,9.786334989648,-3.0368728984701332e-27,-3.473205211468716e-21,-0.0003062752989684555,0.0,0.0,0.0,-40.88951384184001,303.59896784784,0.46388732029362,30541.12341045243,229.3566497777778,5.3378659383126e-08,0.10608542823593173,-0.7117272907111765,0.0,0.0,0.0,0.136157305,41.33718161249012
4.3,3.71856e-11,0.0299500451544,41.859733847040005,9053.923464888001,6.981317007977318e-09,-3.3859387488689993e-21,9.786347657136002,-3.0368728984701332e-27,-3.4557519189487726e-21,-0.0003135678779952336,0.0,0.0,0.0,-41.859733836880004,303.61671635184,0.46411408697354,30559.62723927797,229.38346711111112,5.42683037061781e-08,0.10859399391941467,-0.7459759993872591,0.0,0.0,0.0,0.139310436,42.296940551790684
4.4,3.81e-11,0.0313196871192,42.82971699216,9049.688988216,7.452555906015786e-09,-3.368485456349056e-21,9.786360626376,-3.0368728984701332e-27,-3.438298626428829e-21,-0.00032086047447530406,0.0,0.0,0.0,-42.82971699724,303.6348803592,0.46434600744164,30578.56465257673,229.41091383333335,5.5602770190756245e-08,0.1111059091137739,-0.7810551954871324,0.0,0.0,0.0,0.142463754,43.256927353772156
4.5,3.90144e-11,0.0327205835808,43.799457668879995,9045.357527232,7.958701389094143e-09,-3.3510321638291124e-21,9.786373891272,-3.0368728984701332e-27,-3.420845333908886e-21,-0.0003281530884086671,0.0,0.0,0.0,-43.799457653640005,303.65345977848,0.464583597076738,30597.943119669108,229.43899000000002,5.69372366753344e-08,0.11362114712967972,-0.8169665248527941,0.0,0.0,0.0,0.145617127,44.217105981632365
4.6,3.9928800000000003e-11,0.034152748255200004,44.768950116480006,9040.92910632,8.482300164692442e-09,-3.3335788713091696e-21,9.786387451824,-3.0368728984701332e-27,-3.403392041388943e-21,-0.00033544571979532265,0.0,0.0,0.0,-44.76895012664001,303.67245454872,0.46482634050001603,30617.758082354452,229.46769561111114,5.827170315991254e-08,0.11613969017424565,-0.8537116155333553,0.0,0.0,0.0,0.148770431,45.177442955355765
4.7,4.0843200000000004e-11,0.0356161948584,45.738188726640004,9036.403746816,9.023352232810684e-09,-3.316125578789226e-21,9.786401314128002,-3.0368728984701332e-27,-3.3859387488689993e-21,-0.00034273838608856323,0.0,0.0,0.0,-45.738188726640004,303.69186457848,0.46507423771147405,30638.012212351212,229.49703066666666,5.96061696444907e-08,0.11866150266169884,-0.8912920599921543,0.0,0.0,0.0,0.151923553,46.137907109924846
4.8,4.17576e-11,0.0371109358872,46.70716773864,9031.781476152,9.599310885968814e-09,-3.2986722862692828e-21,9.786415469040001,-3.0368728984701332e-27,-3.368485456349056e-21,-0.0003500310523818038,0.0,0.0,0.0,-46.70716775388001,303.71168730744,0.46532780408993,30658.702861881073,229.52699127777777,6.094063612906885e-08,0.12118657569559599,-0.9297095396569619,0.0,0.0,0.0,0.155076384,47.09846933295364
4.9,4.2672000000000004e-11,0.038636984448000004,47.6758814832,9027.06232176,1.0192722831646885e-08,-3.2812189937493395e-21,9.786429925704002,-3.0368728984701332e-27,-3.3510321638291124e-21,-0.00035732377103492194,0.0,0.0,0.0,-47.675881488280005,303.73192511304,0.465586524256566,30679.83081618027,229.55758133333336,6.227510261364699e-08,0.12371490482771552,-0.9689658427128672,0.0,0.0,0.0,0.15822882,48.05910237948792
5.0,4.3586400000000004e-11,0.040194352732800004,48.6443241996,9022.246311072,1.08035880698449e-08,-3.2637657012293963e-21,9.786444678024,-3.0368728984701332e-27,-3.3335788713091696e-21,-0.0003646164896880401,0.0,0.0,0.0,-48.64432420976001,303.75257543496,0.465850398211382,30701.398249012567,229.588797,6.316474693669909e-08,0.12624649005805744,-1.0090627262074081,0.0,0.0,0.0,0.161380765,49.01978067651645
5.1,4.4196e-11,0.0417830532384,49.612490188079995,9017.333465424,1.1449359893082802e-08,-3.246312408709453e-21,9.786459726,-3.0368728984701332e-27,-3.316125578789226e-21,-0.0003719092432477433,0.0,0.0,0.0,-49.61249017792001,303.77364068112,0.466119425954378,30723.40355160126,229.62064211111112,6.449921342127724e-08,0.12878130469729202,-1.0500018137414746,0.0,0.0,0.0,0.164532128,49.98048016349332
5.2,4.5110400000000005e-11,0.0434030975472,50.58037365744,9012.323821392,1.2112585008840647e-08,-3.22885911618951e-21,9.786475072680002,-3.0368728984701332e-27,-3.2986722862692828e-21,-0.0003792020317140315,0.0,0.0,0.0,-50.58037364728,303.79512079056,0.46639412286437204,30745.84941481691,229.6531166111111,6.58336799058554e-08,0.13131937543474895,-1.091785075877242,0.0,0.0,0.0,0.167682819,50.9411781585826
5.3,4.60248e-11,0.045054498156,51.547968846959996,9007.217400312,1.2810716709638378e-08,-3.2114058236695663e-21,9.786490718064,-3.0368728984701332e-27,-3.2812189937493395e-21,-0.00038649483763361224,0.0,0.0,0.0,-51.5479688368,303.817013142,0.46667397356254603,30768.733229185396,229.68621672222224,6.716814639043355e-08,0.1338607022704283,-1.1344143630749022,0.0,0.0,0.0,0.170832758,51.9018532249028
5.4,4.6939200000000005e-11,0.0467372660376,52.51526999592001,9002.014235712,1.3526301702956054e-08,-3.1939525311496234e-21,9.786506659104,-3.0368728984701332e-27,-3.2637657012293963e-21,-0.00039378766100648554,0.0,0.0,0.0,-52.5152700264,303.839317644,0.4669589780489,30792.055291564327,229.71994250000003,6.850261287501169e-08,0.13640528075610836,-1.1778913790033336,0.0,0.0,0.0,0.173981864,52.8624850007604
5.5,4.7853600000000005e-11,0.0484514182608,53.482271282640006,8996.714358072,1.4276793281313616e-08,-3.1764992386296798e-21,9.786522895800001,-3.0368728984701332e-27,-3.246312408709453e-21,-0.00040108051928594384,0.0,0.0,0.0,-53.48227129280001,303.86203673496,0.46725789776334,30816.375015747522,229.75429761111113,6.983707935958985e-08,0.13895523714172128,-1.2222367278250588,0.0,0.0,0.0,0.17713006,53.8230542202276
5.6,4.8768e-11,0.050196987134400003,54.44896670256001,8991.317791776,1.504473815219112e-08,-3.1590459461097362e-21,9.786539431200001,-3.0368728984701332e-27,-3.22885911618951e-21,-0.00040837341247198714,0.0,0.0,0.0,-54.448966692400006,303.88516782408004,0.467567640432958,30841.49259262623,229.7892783888889,7.1171545844168e-08,0.14151059811659675,-1.2674534788129916,0.0,0.0,0.0,0.180277274,54.7835423633204
5.7,4.9682400000000006e-11,0.0519739875936,55.41535040352,8985.8245734,1.5847589608108513e-08,-3.1415926535897933e-21,9.786556262256001,-3.0368728984701332e-27,-3.2114058236695663e-21,-0.00041566632311132304,0.0,0.0,0.0,-55.415350434000004,303.90871075896,0.467883052269574,30867.064088724146,229.82488477777778,7.250601232874614e-08,0.14406946429010506,-1.313527153005775,0.0,0.0,0.0,0.183423436,55.7439317846096
5.8,5.05968e-11,0.053782431830400004,56.38141653336,8980.234733424,1.6667894356545847e-08,-3.1241393610698497e-21,9.786573388968002,-3.0368728984701332e-27,-3.1939525311496234e-21,-0.00042295925120395145,0.0,0.0,0.0,-56.38141652320001,303.93266547864,0.46820361789437004,30893.094670321207,229.8611167777778,7.38404788133243e-08,0.14663186679979748,-1.3604599789624376,0.0,0.0,0.0,0.186568478,56.704205764665204
5.9,5.1511200000000006e-11,0.0556223326464,57.34715920944,8974.548302328001,1.7453292519943295e-08,-3.106686068549907e-21,9.786590814384,-3.0368728984701332e-27,-3.1764992386296798e-21,-0.0004302522316564574,0.0,0.0,0.0,-57.3471592196,303.95703442152,0.46852985268616404,30919.580372931985,229.89797822222224,7.517494529790244e-08,0.14919781899033888,-1.4082541318633497,0.0,0.0,0.0,0.189712334,57.664348355723206
6.0,5.24256e-11,0.0574937025384,58.3125725796,8968.76531364,1.8500490071139893e-08,-3.0892327760299633e-21,9.786608535456,-3.0368728984701332e-27,-3.1590459461097362e-21,-0.0004375452295622559,0.0,0.0,0.0,-58.31257257960001,303.981812406,0.468861756644956,30946.52293460987,229.93546144444446,7.606458962095455e-08,0.15176734755105895,-1.4569118180264322,0.0,0.0,0.0,0.192854942,58.624344124463605
6.1,5.334e-11,0.05939655369840001,59.277650730720005,8962.885797840001,1.9373154697137057e-08,-3.07177948351002e-21,9.786626552184002,-3.0368728984701332e-27,-3.1415926535897933e-21,-0.00044483824492134685,0.0,0.0,0.0,-59.277650710399996,304.0070044308,0.469199329770746,30973.923739094345,229.97357405555556,7.739905610553269e-08,0.15434047917128738,-1.506435274907158,0.0,0.0,0.0,0.19599624,59.5841783063436
6.2,5.3949600000000007e-11,0.0613308986232,60.242387749680006,8956.909794552,2.0245819323134222e-08,-3.054326190990077e-21,9.786644867616001,-3.0368728984701332e-27,-3.1241393610698497e-21,-0.00045213131264031537,0.0,0.0,0.0,-60.24238777000001,304.03260781368,0.46954205668471605,31001.78022000354,230.01231233333337,7.873352259011084e-08,0.15691722274746742,-1.5568266509965667,0.0,0.0,0.0,0.19913617,60.5438367027088
6.3,5.4864e-11,0.0632967492,61.20677769288,8950.837334256,2.129301687433082e-08,-3.0368728984701332e-21,9.786663475656,-3.0368728984701332e-27,-3.106686068549907e-21,-0.00045942439781257644,0.0,0.0,0.0,-61.206777713200005,304.05861996384004,0.46989045276568403,31030.094651649742,230.0516723888889,8.0067989074689e-08,0.15949761831359355,-1.608088357230774,0.0,0.0,0.0,0.202274676,61.503305526460004
6.4,5.57784e-11,0.0652941182304,62.170814647200004,8944.66845048,2.2340214425527418e-08,-3.01941960595019e-21,9.786682382400002,-3.0368728984701332e-27,-3.0892327760299633e-21,-0.0004667175178914225,0.0,0.0,0.0,-62.170814647200004,304.08504325872,0.47024451801365,31058.86791981776,230.091658,8.140245555926713e-08,0.16208168811077395,-1.660222728926128,0.0,0.0,0.0,0.2054117,62.4625716078308
6.5,5.66928e-11,0.0673230176016,63.13449263856,8938.403182848,2.3212879051524583e-08,-2.9845130209103035e-21,9.786701581752,-3.0368728984701332e-27,-3.07177948351002e-21,-0.0004740106728768537,0.0,0.0,0.0,-63.134492628400004,304.11187763736,0.470603737049796,31088.097994384592,230.1322692777778,8.27369220438453e-08,0.1646694365872301,-1.713231865643231,0.0,0.0,0.0,0.208547188,63.4216220342768
6.6,5.76072e-11,0.0693834592008,64.09780569288,8932.041564888,2.443460952792061e-08,-2.9670597283903603e-21,9.786721079808,-3.0368728984701332e-27,-3.054326190990077e-21,-0.00048130384531557734,0.0,0.0,0.0,-64.0978056624,304.13912297784003,0.47096862525294003,31117.785258392327,230.17350616666667,8.407138852842344e-08,0.16726093046628634,-1.7671185475205928,0.0,0.0,0.0,0.211681087,64.38044440769761
6.7,5.85216e-11,0.0714754555248,65.0607478056,8925.583633176,2.5481807079117213e-08,-2.949606435870417e-21,9.786740873520001,-3.0368728984701332e-27,-3.01941960595019e-21,-0.0004885970701141786,0.0,0.0,0.0,-65.0607478056,304.16677665888005,0.471339182623082,31147.93201009338,230.21536483333333,8.540585501300159e-08,0.16985617419616425,-1.8218849319456962,0.0,0.0,0.0,0.214813347,65.3390266386592
6.8,5.943600000000001e-11,0.07359901846080001,66.02331297216,8919.029427336,2.652900463031381e-08,-2.9321531433504735e-21,9.786760962888,-3.0368728984701332e-27,-3.0019663134302468e-21,-0.0004958903123660723,0.0,0.0,0.0,-66.023312962,304.19484102744,0.471715409160222,31178.536741259613,230.2578491111111,8.674032149757975e-08,0.17245519446619348,-1.8775334565439874,0.0,0.0,0.0,0.217943915,66.2973571007272
6.9,6.03504e-11,0.07575415989600001,66.985495188,8912.378983944001,2.775073510670984e-08,-2.9146998508305306e-21,9.786781347912001,-3.0368728984701332e-27,-2.9845130209103035e-21,-0.0005031835895245511,0.0,0.0,0.0,-66.985495188,304.22331605304004,0.47209730486436,31209.60227682629,230.30095900000003,8.807478798215788e-08,0.17505801796570378,-1.934066598974905,0.0,0.0,0.0,0.221072741,67.2554242189116
7.0,6.126480000000001e-11,0.07794089232720001,67.9472883876,8905.632342624001,2.897246558310587e-08,-2.897246558310587e-21,9.786802025544,-3.0368728984701332e-27,-2.9670597283903603e-21,-0.000510476901589615,0.0,0.0,0.0,-67.9472883876,304.25219905344,0.472484354356678,31241.123680338715,230.34469072222223,8.940925446673605e-08,0.17766467583224643,-1.9914868635872187,0.0,0.0,0.0,0.22419978,68.2132169841108
7.1,6.21792e-11,0.080159227032,68.90868650544,8898.789539952,3.01941960595019e-08,-2.8797932657906434e-21,9.78682300188,-3.0368728984701332e-27,-2.949606435870417e-21,-0.0005177702485612638,0.0,0.0,0.0,-68.9086865156,304.2814899372,0.472877073015994,31273.106189897222,230.38904416666668,9.074372095131419e-08,0.1802752169962592,-2.049796937106785,0.0,0.0,0.0,0.227324983,69.170724490112
7.2,6.309360000000001e-11,0.08240917650719999,69.869683476,8891.8506186,3.141592653589793e-08,-2.8623399732707006e-21,9.786844270824002,-3.0368728984701332e-27,-2.9321531433504735e-21,-0.0005250636304394977,0.0,0.0,0.0,-69.869683476,304.31119108176006,0.47327494546349,31305.54834036589,230.43402327777778,9.207818743589234e-08,0.18288965035418536,-2.1089992349179396,0.0,0.0,0.0,0.230448301,70.1279361393688
7.3,6.4008e-11,0.0846907523352,70.83027320328,8884.815615144,3.281218993749339e-08,-2.844886680750757e-21,9.786865835424,-3.0368728984701332e-27,-2.9146998508305306e-21,-0.0005323570646776092,0.0,0.0,0.0,-70.8302732236,304.34129986584,0.473678487077984,31338.45003598419,230.47962416666667,9.34126539204705e-08,0.18550801594001937,-2.1690963414374416,0.0,0.0,0.0,0.23356969,71.084841488668
7.4,6.49224e-11,0.08700396670800001,71.79044959128001,8877.684575304,3.4208453339088855e-08,-2.827433388230814e-21,9.78688769568,-3.0368728984701332e-27,-2.897246558310587e-21,-0.0005396505163690131,0.0,0.0,0.0,-71.7904495608,304.37181616752,0.474087697859476,31371.811707674464,230.52584688888888,9.474712040504863e-08,0.1881303226502045,-2.230090707635401,0.0,0.0,0.0,0.236689105,72.0414304034628
7.5,6.58368e-11,0.089348831208,72.75020645256001,8870.457541752,3.5604716740684323e-08,-2.8099800957108705e-21,9.786909848544,-3.0368728984701332e-27,-2.8797932657906434e-21,-0.0005469440029670022,0.0,0.0,0.0,-72.7502064424,304.40274236424,0.474502577807966,31405.631899876833,230.57269516666668,9.60815868896268e-08,0.19075663275984336,-2.2919853182685217,0.0,0.0,0.0,0.2398065,72.9976929035396
7.6,6.67512e-11,0.09172535772240001,73.7095377216,8863.134551064,3.7000980142279785e-08,-2.7925268031909273e-21,9.786932300112001,-3.0368728984701332e-27,-2.8623399732707006e-21,-0.0005542375244715763,0.0,0.0,0.0,-73.7095377216,304.43407330488003,0.47492261154463605,31439.91484520619,230.62016144444445,9.741605337420495e-08,0.193386946268936,-2.3547824997567086,0.0,0.0,0.0,0.242921833,73.953619163018
7.7,6.76656e-11,0.0941335581384,74.66843715,8855.715645912,3.8397243543875254e-08,-2.775073510670984e-21,9.78695504124,-3.0368728984701332e-27,-2.844886680750757e-21,-0.0005615310983360278,0.0,0.0,0.0,-74.66843715,304.46581139736,0.47534831444830405,31474.656689301686,230.6682495,9.875051985878309e-08,0.1960213121079201,-2.4184851212029037,0.0,0.0,0.0,0.246035061,74.90919961323961
7.8,6.858e-11,0.0965734443432,75.6268985808,8848.200878112,3.996803987067015e-08,-2.7576202181510405e-21,9.786978081072002,-3.0368728984701332e-27,-2.827433388230814e-21,-0.0005688247071070645,0.0,0.0,0.0,-75.6268985808,304.49795901912,0.47577968651897,31509.86082208567,230.71696322222223,1.0008498634336124e-07,0.198659761414347,-2.4830959138151782,0.0,0.0,0.0,0.249146138,75.8644247369904
7.9,6.94944e-11,0.09904502791920002,76.58491582656,8840.590281192,4.136430327226561e-08,-2.7401669256310976e-21,9.787001413512,-3.0368728984701332e-27,-2.8099800957108705e-21,-0.0005761183507846863,0.0,0.0,0.0,-76.5849158164,304.53051098856,0.47621621237781603,31545.524241465882,230.76629483333335,1.0141945282793938e-07,0.20130232532576803,-2.548617631042712,0.0,0.0,0.0,0.252255025,76.819285222834
8.0,7.040880000000001e-11,0.10154832075360001,77.54248266936,8832.883910016,4.293509959906051e-08,-2.722713633111154e-21,9.787025038560001,-3.0368728984701332e-27,-2.7925268031909273e-21,-0.000583412029368893,0.0,0.0,0.0,-77.5424826592,304.56346721424,0.47665840740366006,31581.652252575037,230.8162445,1.0275391931251754e-07,0.20394901718684805,-2.6150528573022638,0.0,0.0,0.0,0.255361682,77.7737718622228
8.1,7.162800000000001e-11,0.10408333442880001,78.49959283032,8825.08180116,4.4680428851054836e-08,-2.7052603405912108e-21,9.787048959264,-3.0368728984701332e-27,-2.775073510670984e-21,-0.0005907057428596848,0.0,0.0,0.0,-78.49959281000001,304.59683257296,0.477106271596502,31618.23911935809,230.8668197777778,1.040883857970957e-07,0.20659987258335993,-2.682404386077008,0.0,0.0,0.0,0.258466062,78.7278756523868
8.2,7.25424e-11,0.106650080832,79.45624006104,8817.18400644,4.625122517784973e-08,-2.6878070480712676e-21,9.787073172576001,-3.0368728984701332e-27,-2.7576202181510405e-21,-0.0005979995087103541,0.0,0.0,0.0,-79.4562400712,304.63060188312,0.477559289577524,31655.289107946137,230.918013,1.0586767444319989e-07,0.20925493154929822,-2.7506752377094217,0.0,0.0,0.0,0.261568129,79.68158759055599
8.3,7.34568e-11,0.10924857093600002,80.41241808264,8809.190568528002,4.799655442984406e-08,-2.6703537555513243e-21,9.787097681544,-3.0368728984701332e-27,-2.7401669256310976e-21,-0.0006052933094676086,0.0,0.0,0.0,-80.41241809280001,304.66477758312,0.478017976725544,31692.800810659555,230.96982805555558,1.0720214092777804e-07,0.21191421632577104,-2.8198680633395865,0.0,0.0,0.0,0.26466784,80.6348988282936
8.4,7.43712e-11,0.1118788172376,81.36812058576001,8801.10153924,4.974188368183839e-08,-2.6529004630313807e-21,9.787122483120001,-3.0368728984701332e-27,-2.722713633111154e-21,-0.0006125871451314478,0.0,0.0,0.0,-81.3681205756,304.69935696024004,0.47848233304056204,31730.776616723266,231.02226105555556,1.085366074123562e-07,0.214577753602108,-2.889985732070446,0.0,0.0,0.0,0.267765158,81.5878007229404
8.5,7.52856e-11,0.11454083040480001,82.32334126104,8792.916961248,5.1487212933832726e-08,-2.6179938779914943e-21,9.787147577304,-3.0368728984701332e-27,-2.7052603405912108e-21,-0.0006198810331551649,0.0,0.0,0.0,-82.32334127120001,304.73433989256,0.47895184314376,31769.212169033693,231.07531205555557,1.0987107389693434e-07,0.21724558786052534,-2.961031353208907,0.0,0.0,0.0,0.270860042,82.5402845289484
8.6,7.62e-11,0.11723462262960001,83.27807379912001,8784.636886368,5.323254218582705e-08,-2.600540585471551e-21,9.787172967144,-3.01941960595019e-27,-2.6878070480712676e-21,-0.0006271749560854669,0.0,0.0,0.0,-83.2780737788,304.76972875752,0.479427022413956,31808.11334728666,231.12898483333333,1.1120554038151249e-07,0.21991773689390945,-3.0330076357219355,0.0,0.0,0.0,0.273952451,83.4923417579916
8.7,7.71144e-11,0.1199602051896,84.23231176872,8776.261363368,5.515240436302081e-08,-2.5830872929516078e-21,9.787198646544,-3.01941960595019e-27,-2.6703537555513243e-21,-0.0006344689313756464,0.0,0.0,0.0,-84.23231174840001,304.8055208424,0.47990735547233204,31847.477700012892,231.18327561111113,1.1254000686609064e-07,0.22259421404692528,-3.10591727968005,0.0,0.0,0.0,0.277042348,84.443963921744
8.8,7.80288e-11,0.12271758905760001,85.18604883,8767.790441016,5.7072266540214574e-08,-2.5656340004316642e-21,9.787224621600002,-3.01941960595019e-27,-2.6529004630313807e-21,-0.0006417629415724111,0.0,0.0,0.0,-85.18604883,304.8417137088,0.480393357697706,31887.30279968326,231.23818055555557,1.138744733506688e-07,0.22527508159467532,-3.1797637191103387,0.0,0.0,0.0,0.280129696,85.3951426347684
8.9,7.89432e-11,0.12550678612080002,86.13927858216002,8759.224171128,5.8992128717408336e-08,-2.5481807079117214e-21,9.787250889264,-3.01941960595019e-27,-2.6179938779914943e-21,-0.0006490569866757607,0.0,0.0,0.0,-86.139278572,304.8783119592,0.4808850290900781,31927.595057464445,231.2937072777778,1.1520893983524695e-07,0.22796035288182445,-3.2545497074619814,0.0,0.0,0.0,0.283214453,86.345869563072
9.0,7.985760000000001e-11,0.12832780765680002,87.0919946244,8750.562602472,6.09119908946021e-08,-2.5307274153917778e-21,9.787277446488002,-3.01941960595019e-27,-2.600540585471551e-21,-0.000656351084138988,0.0,0.0,0.0,-87.09199462440002,304.9153131552,0.48138185427063007,31968.34962308622,231.34985200000003,1.1654340631982509e-07,0.23065004125303756,-3.330278002632379,0.0,0.0,0.0,0.286296582,87.2961364241064
9.1,8.107680000000001e-11,0.1311806646384,88.04419046448,8741.805789912,6.30063859969953e-08,-2.5132741228718345e-21,9.787304299368001,-3.01941960595019e-27,-2.5830872929516078e-21,-0.0006636452339620928,0.0,0.0,0.0,-88.0441904848,304.95271699200003,0.48188434861818,32009.56945554857,231.40661466666668,1.1787787280440324e-07,0.23334418674230917,-3.406951874064419,0.0,0.0,0.0,0.289376046,88.245935038212
9.2,8.19912e-11,0.13406536834320001,88.99585967112,8732.953782216,6.510078109938849e-08,-2.4958208303518913e-21,9.787331444856001,-3.01941960595019e-27,-2.5656340004316642e-21,-0.0006709394186917826,0.0,0.0,0.0,-88.9958596508,304.9905234696,0.48239251213272805,32051.25508153436,231.4639953888889,1.1965716145050744e-07,0.23604282938363377,-3.484574377686351,0.0,0.0,0.0,0.292452806,89.1952572771736
9.3,8.290560000000001e-11,0.136981929744,89.94699575208,8724.006634248,6.71951762017817e-08,-2.4783675378319477e-21,9.787358879904,-3.01941960595019e-27,-2.5481807079117214e-21,-0.00067823365578135,0.0,0.0,0.0,-89.9469957724,305.0287298448,0.482905829435456,32093.404087878527,231.52199022222223,1.209916279350856e-07,0.23874596917701144,-3.563148315877793,0.0,0.0,0.0,0.295526828,90.144095012776
9.4,8.382e-11,0.1399303604232,90.89759221512001,8714.964400872,6.928957130417489e-08,-2.460914245312005e-21,9.787386610608001,-3.01941960595019e-27,-2.5307274153917778e-21,-0.0006855279277775024,0.0,0.0,0.0,-90.89759219480001,305.0673358128,0.48342481590518205,32136.017020416035,231.58059922222225,1.2232609441966375e-07,0.24145365505287988,-3.642677042597842,0.0,0.0,0.0,0.298598075,91.0924402196928
9.5,8.473440000000001e-11,0.1429106710488,91.84764250704,8705.827133904,7.15584993317675e-08,-2.4434609527920612e-21,9.787414630872002,-3.01941960595019e-27,-2.5132741228718345e-21,-0.0006928222521335324,0.0,0.0,0.0,-91.8476425172,305.10634655520005,0.48394895616308803,32179.097920240736,231.63983,1.236605609042419e-07,0.24416590035590396,-3.7231633913636677,0.0,0.0,0.0,0.301666503,92.0402848211532
9.6,8.56488e-11,0.1459228722888,92.79714010512,8696.594891256002,7.382742735936014e-08,-2.426007660272118e-21,9.787442943744,-3.01941960595019e-27,-2.4958208303518913e-21,-0.0007001166288494399,0.0,0.0,0.0,-92.7971401356,305.1457541472,0.484478765587992,32222.64574356298,231.69967116666666,1.2499502738882005e-07,0.2468827273271918,-3.8046104803786225,0.0,0.0,0.0,0.304732084,92.9876209976084
9.7,8.656320000000001e-11,0.1489669754208,93.74607845616,8687.267724744,7.609635538695276e-08,-2.4085543677521748e-21,9.787471546176,-3.01941960595019e-27,-2.4783675378319477e-21,-0.0007074110404719325,0.0,0.0,0.0,-93.74607844600001,305.1855634656,0.485013728801076,32266.65726804135,231.76013033333334,1.2632949387339818e-07,0.24960416710429462,-3.8870214500871665,0.0,0.0,0.0,0.307794776,93.9344406722876
9.8,8.77824e-11,0.15204299080800002,94.694450946,8677.845692280001,7.853981633974483e-08,-2.3911010752322316e-21,9.787500441216,-3.01941960595019e-27,-2.460914245312005e-21,-0.0007147055044543026,0.0,0.0,0.0,-94.694450946,305.225772072,0.485554361181158,32311.13738225027,231.82120361111112,1.2810878251950238e-07,0.25233025972120704,-3.9703997523092727,0.0,0.0,0.0,0.310854544,94.88073602564201
9.9,8.86968e-11,0.15515092942320002,95.64225096048,8668.328854824002,8.080874436733745e-08,-2.373647782712288e-21,9.787529628864,-3.01941960595019e-27,-2.4434609527920612e-21,-0.0007220000207965503,0.0,0.0,0.0,-95.64225093,305.26637935680003,0.48610066272823804,32356.081796118553,231.88289105555555,1.2944324900408053e-07,0.25506101852259383,-4.054748278388992,0.0,0.0,0.0,0.313911353,95.8264991866784
10.0,8.961120000000001e-11,0.1582908016296,96.58947185496,8658.717264192,8.325220532012952e-08,-2.356194490192345e-21,9.787559106072,-3.01941960595019e-27,-2.426007660272118e-21,-0.0007292945894986757,0.0,0.0,0.0,-96.5894718448,305.30738836800003,0.486652118063498,32401.49405757337,231.94519655555555,1.307777154886587e-07,0.25779644795667667,-4.140069906325709,0.0,0.0,0.0,0.316965163,96.771722335848
10.1,9.05256e-11,0.16146261809520002,97.53610701528,8649.010978296,8.587019919812101e-08,-2.3387411976724015e-21,9.78758887284,-3.01941960595019e-27,-2.4085543677521748e-21,-0.0007365892105606784,0.0,0.0,0.0,-97.5361070356,305.34879331440004,0.48720872718693803,32447.376105765234,232.00811233333334,1.3211218197323684e-07,0.2605366102985581,-4.226368466038234,0.0,0.0,0.0,0.320015944,97.716397653602
10.2,9.17448e-11,0.1646663888784,98.48214973584,8639.210061144,8.831366015091307e-08,-2.303834612632515e-21,9.787618932216,-3.01941960595019e-27,-2.3911010752322316e-21,-0.0007438838665292663,0.0,0.0,0.0,-98.48214974600002,305.3905966344,0.487771520856194,32493.724210821947,232.07164227777778,1.3344664845781497e-07,0.263281496651795,-4.313646559736212,0.0,0.0,0.0,0.323063656,98.6605173203916
10.3,9.26592e-11,0.1679021246472,99.42759334152001,8629.314570648,9.093165402890457e-08,-2.2863813201125714e-21,9.787649281152001,-3.01941960595019e-27,-2.373647782712288e-21,-0.0007511785748577316,0.0,0.0,0.0,-99.4275933212,305.4327958896,0.488338952934812,32540.538420623787,232.1357826111111,1.352259371039192e-07,0.2660311248092737,-4.401907407932093,0.0,0.0,0.0,0.326108267,99.6040736195568
10.4,9.357360000000002e-11,0.17116983546,100.37243109624,8619.324561672,9.37241808320955e-08,-2.2689280275926286e-21,9.787679922696,-3.01941960595019e-27,-2.356194490192345e-21,-0.0007584733355460747,0.0,0.0,0.0,-100.3724311064,305.4753932136,0.48891256955924606,32587.824744143243,232.20053711111112,1.3656040358849732e-07,0.26878556149431854,-4.4911549339573416,0.0,0.0,0.0,0.329149739,100.5470587315488
10.5,9.448800000000001e-11,0.17446953107040003,101.31665623344001,8609.24010432,9.634217471008699e-08,-2.251474735072685e-21,9.787710850752001,-3.01941960595019e-27,-2.3387411976724015e-21,-0.0007657681660475878,0.0,0.0,0.0,-101.31665624360001,305.5183886064,0.48949082459304205,32635.57648293209,232.2659057777778,1.3789487007307547e-07,0.27154478891404304,-4.581391740021601,0.0,0.0,0.0,0.332188034,101.48946504259641
10.6,9.54024e-11,0.1778012218416,102.26026204752,8599.061253456,9.913470151327791e-08,-2.2340214425527418e-21,9.787742071416,-3.01941960595019e-27,-2.3212879051524586e-21,-0.0007730630314556859,0.0,0.0,0.0,-102.2602620272,305.5617793248,0.490075264172654,32683.79857823305,232.3318847777778,1.3922933655765365e-07,0.27430882930955525,-4.672621113360648,0.0,0.0,0.0,0.335223121,102.4312847331508
10.7,9.66216e-11,0.1811649175272,103.20324168048,8588.788073088,1.0192722831646885e-07,-2.2165681500327985e-21,9.78777358164,-3.01941960595019e-27,-2.303834612632515e-21,-0.0007803579492236614,0.0,0.0,0.0,-103.2032417008,305.6055678072,0.490664342161628,32732.492179172346,232.39847794444444,1.4100862520375783e-07,0.27707770937018483,-4.764846332313812,0.0,0.0,0.0,0.338254962,103.3725101379964
10.8,9.7536e-11,0.184560627576,104.14558836576,8578.420624176,1.0471975511965977e-07,-2.1991148575128553e-21,9.787805378376,-3.01941960595019e-27,-2.2863813201125714e-21,-0.0007876529193515147,0.0,0.0,0.0,-104.14558835560001,305.6497485672,0.491259604696418,32781.651971041225,232.4656776666667,1.42343091688336e-07,0.27985146912992637,-4.858071062215702,0.0,0.0,0.0,0.341283526,104.3131335919176
10.9,9.845040000000002e-11,0.1879883617416,105.08729527584,8567.958976824,1.0768681484805013e-07,-2.181661564992912e-21,9.78783746772,-3.01941960595019e-27,-2.2689280275926286e-21,-0.0007949479418392455,0.0,0.0,0.0,-105.08729528600001,305.6943267864,0.49185950564057,32831.28208111801,232.53349150000003,1.4367755817291414e-07,0.28263009079589335,-4.952297909724187,0.0,0.0,0.0,0.344308773,105.2531474296988
11.0,9.96696e-11,0.19144812916800003,106.02835555272001,8557.403188944001,1.106538745764405e-07,-2.1642082724729685e-21,9.787869846624,-3.01941960595019e-27,-2.251474735072685e-21,-0.0008022430341401464,0.0,0.0,0.0,-106.0283555324,305.73929697840003,0.492465591130538,32881.38450122148,232.60191194444445,1.4545684681901834e-07,0.28541363219496685,-5.047530936065601,0.0,0.0,0.0,0.347330673,106.1925438832356
11.1,1.00584e-10,0.19493993960880002,106.96876230792,8546.753327592,1.1362093430483086e-07,-2.1467549799530252e-21,9.78790251204,-3.01941960595019e-27,-2.2165681500327985e-21,-0.0008095381613476322,0.0,0.0,0.0,-106.96876228760001,305.7846643248,0.493076315029868,32931.95607604256,232.6709465,1.4679131330359647e-07,0.28820209777536837,-5.143773117100203,0.0,0.0,0.0,0.350349186,107.1313153902012
11.2,1.014984e-10,0.1984638019032,107.90850862248,8536.009456776,1.1676252695842065e-07,-2.129301687433082e-21,9.787935467016,-3.01941960595019e-27,-2.1991148575128553e-21,-0.0008168333409149957,0.0,0.0,0.0,-107.9085086428,305.8304233392,0.49369270809619603,32982.99880697609,232.74058761111112,1.4812577978817464e-07,0.29099548308887646,-5.241027424240034,0.0,0.0,0.0,0.353364282,108.0694542339356
11.3,1.0271760000000002e-10,0.2020197251952,108.84758760792,8525.1716466,1.1990411961201044e-07,-2.1118483949131388e-21,9.787968711552,-3.01941960595019e-27,-2.181661564992912e-21,-0.0008241285902955292,0.0,0.0,0.0,-108.84758763840001,305.87657646,0.49431477032952204,33034.51387666445,232.81083905555556,1.494602462727528e-07,0.29379382816948557,-5.339297602887693,0.0,0.0,0.0,0.356375923,109.0069527492232
11.4,1.0363200000000001e-10,0.205607718324,109.78599231480001,8514.23996412,1.2304571226560025e-07,-2.0943951023931956e-21,9.788002245648,-3.01941960595019e-27,-2.1642082724729685e-21,-0.0008314238920359403,0.0,0.0,0.0,-109.7859923148,305.923120944,0.49494198635102804,33086.49895333904,232.88169705555555,1.51239534918857e-07,0.2965971374654172,-5.43858662890344,0.0,0.0,0.0,0.359384077,109.9438033222928
11.5,1.045464e-10,0.209227789824,110.72371576319999,8503.214470296001,1.2636183784438946e-07,-2.0769418098732523e-21,9.788036066256,-3.01941960595019e-27,-2.1467549799530252e-21,-0.0008387192461362289,0.0,0.0,0.0,-110.7237157632,305.97005922960005,0.495574871539532,33138.95768547559,232.95316544444447,1.5257400140343515e-07,0.2994054421142229,-5.538898283275651,0.0,0.0,0.0,0.362388707,110.87999828792881
11.6,1.057656e-10,0.2128799784048,111.66075039408,8492.095241328001,1.296779634231787e-07,-2.0594885173533087e-21,9.788070173376001,-3.01941960595019e-27,-2.129301687433082e-21,-0.0008460146700496878,0.0,0.0,0.0,-111.66075041440001,306.0173885736,0.496233525668936,33193.299241764165,233.02524033333336,1.5390846788801328e-07,0.30222979149839474,-5.640441774763332,0.0,0.0,0.0,0.36538978,111.8155294150272
11.7,1.0668e-10,0.21656438068800002,112.59708749016,8480.882344272,1.329940890019679e-07,-2.042035224833366e-21,9.788104570056001,-3.01941960595019e-27,-2.1118483949131388e-21,-0.0008533101288697315,0.0,0.0,0.0,-112.59708748,306.06510897600003,0.49690712578406204,33248.704831471994,233.09792177777777,1.556877565341175e-07,0.3050665603173165,-5.743157301475088,0.0,0.0,0.0,0.368387254,112.75038739215161
11.8,1.0759440000000001e-10,0.2202810125232,113.53271982768,8469.575849232,1.3648474750595655e-07,-2.0245819323134223e-21,9.788139253248001,-3.01941960595019e-27,-2.1118483949131388e-21,-0.0008606056575029454,0.0,0.0,0.0,-113.532719848,306.1132198272,0.49758587968736806,33304.60390385703,233.17120972222222,1.5702222301869563e-07,0.30790879155238166,-5.846919552559796,0.0,0.0,0.0,0.371381095,113.68456429686441
11.9,1.0881360000000001e-10,0.2240298848832,114.46764027432,8458.175826312001,1.3997540600994522e-07,-2.0071286397934787e-21,9.788174226,-3.01941960595019e-27,-2.0943951023931956e-21,-0.0008679012559493294,0.0,0.0,0.0,-114.4676403048,306.161721432,0.49827081813649005,33360.99227897266,233.24510422222224,1.5880151166479984e-07,0.31075650744469857,-5.9517321933520675,0.0,0.0,0.0,0.374371268,114.61805246395
12.0,1.09728e-10,0.22781100782639999,115.4018416368,8446.682345616,1.4346606451393387e-07,-1.989675347273536e-21,9.788209485264002,-3.01941960595019e-27,-2.0769418098732523e-21,-0.0008751969067555908,0.0,0.0,0.0,-115.4018416368,306.2106131808,0.49896091037379203,33417.87311212796,233.31960527777778,1.60135978149378e-07,0.3136097035460454,-6.057598462157236,0.0,0.0,0.0,0.377357737,115.55084407385961
12.1,1.1064240000000001e-10,0.2316243920208,116.33531669136,8435.095480296,1.47131255943122e-07,-1.9722220547535922e-21,9.788245027992001,-3.01941960595019e-27,-2.0594885173533087e-21,-0.0008824926099217299,0.0,0.0,0.0,-116.33531668120001,306.25989507360003,0.49965667177809203,33475.24468442162,233.39471283333336,1.6147044463395614e-07,0.3164684376833033,-6.164522931747125,0.0,0.0,0.0,0.380340469,116.4829314099332
12.2,1.1186160000000001e-10,0.2354700478296,117.26805821424001,8423.415306552,1.5079644737231008e-07,-1.9547687622336494e-21,9.78828086028,-3.01941960595019e-27,-2.042035224833366e-21,-0.0008897883654477465,0.0,0.0,0.0,-117.26805822440001,306.3095643672,0.50035810234939,33533.10961969183,233.47042311111113,1.6324973328006032e-07,0.3193326653742559,-6.272507941886303,0.0,0.0,0.0,0.383319432,117.414306652622
12.3,1.1277600000000001e-10,0.23934798531120002,118.20005892072001,8411.641894488,1.5446163880149816e-07,-1.9373154697137058e-21,9.788316979080001,-3.01941960595019e-27,-2.0245819323134223e-21,-0.0008970841907869332,0.0,0.0,0.0,-118.2000589512,306.3596210616,0.501065202087686,33591.46864093051,233.54673616666668,1.645841997646385e-07,0.3222024355493413,-6.381558087587697,0.0,0.0,0.0,0.386294591,118.3449620338216
12.4,1.139952e-10,0.2432582139144,119.13131158704,8399.775320304001,1.5812683023068626e-07,-1.9198621771937625e-21,9.788353384392,-3.01941960595019e-27,-2.0071286397934787e-21,-0.00090438008593929,0.0,0.0,0.0,-119.13131159720001,306.41006729040004,0.501777455614162,33650.31814754218,233.62365572222225,1.6636348841074268e-07,0.3250777526567808,-6.491676607156645,0.0,0.0,0.0,0.389265908,119.274889836872
12.5,1.1490960000000001e-10,0.24720074400240002,120.06180883704,8387.815657152,1.6196655458507377e-07,-1.9024088846738193e-21,9.788390076216,-3.01941960595019e-27,-1.989675347273536e-21,-0.0009116760334515244,0.0,0.0,0.0,-120.0618088472,306.46090061520005,0.502495893686454,33709.66321962232,233.701178,1.6769795489532083e-07,0.32795864783412587,-6.6028676774732435,0.0,0.0,0.0,0.392233352,120.2040821393356
12.6,1.161288e-10,0.2511755844144,120.99154338600002,8375.76298428,1.6598081186466075e-07,-1.8849555921538757e-21,9.788427051504001,-3.01941960595019e-27,-1.9722220547535922e-21,-0.0009189720507769288,0.0,0.0,0.0,-120.99154338600002,306.51212042640003,0.503219485546926,33769.50215742173,233.779303,1.6947724354142503e-07,0.3308450899438252,-6.71513404753845,0.0,0.0,0.0,0.395196888,121.13253122455241
12.7,1.170432e-10,0.25518274459920004,121.92050785776,8363.61737484,1.699950691442477e-07,-1.8675022996339325e-21,9.788464313304,-3.01941960595019e-27,-1.9547687622336494e-21,-0.0009262681204622107,0.0,0.0,0.0,-121.9205078476,306.56372672400005,0.503948746574396,33829.83326119123,233.85803072222225,1.7081171002600318e-07,0.33373714126098136,-6.828480392433182,0.0,0.0,0.0,0.398156482,122.06022927297361
12.8,1.182624e-10,0.25922223339600003,122.84869484568001,8351.378908080002,1.7400932642383464e-07,-1.8675022996339325e-21,9.788501861616002,-3.01941960595019e-27,-1.9373154697137058e-21,-0.0009335642599606628,0.0,0.0,0.0,-122.848694866,306.6157192032,0.504683676768864,33890.65973890816,233.93736116666668,1.7259099867210736e-07,0.33663475730337816,-6.942909443365512,0.0,0.0,0.0,0.4011121,122.98716841360601
12.9,1.191768e-10,0.263294059644,123.7760969736,8339.0476602,1.7802358370342164e-07,-1.8500490071139893e-21,9.78853969644,-3.01941960595019e-27,-1.9198621771937625e-21,-0.0009408604518189924,0.0,0.0,0.0,-123.7760969736,306.668097864,0.50542427613033,33951.98235665666,234.01729433333335,1.7392546515668554e-07,0.3395379603121238,-7.05842489235938,0.0,0.0,0.0,0.404063706,123.91334087834521
13.0,1.20396e-10,0.2673982318776,124.70270680440001,8326.623713496001,1.8151424220741028e-07,-1.832595714594046e-21,9.78857781168,-3.01941960595019e-27,-1.9024088846738193e-21,-0.0009481567134904921,0.0,0.0,0.0,-124.70270680440001,306.72085996320004,0.5061705446587941,34013.80132032186,234.09782638888888,1.7570475380278974e-07,0.3424467814247695,-7.175030960777099,0.0,0.0,0.0,0.40701127,124.83873874475361
13.1,1.2131040000000002e-10,0.2715347583264,125.62851690096001,8314.107147216,1.8675022996339324e-07,-1.8151424220741028e-21,9.788616213432,-3.01941960595019e-27,-1.8849555921538757e-21,-0.0009554530449751618,0.0,0.0,0.0,-125.62851689080001,306.7740055008,0.506921966975438,34076.11250262542,234.17895738888888,1.7703922028736787e-07,0.34536122953775844,-7.292731358435496,0.0,0.0,0.0,0.409954758,125.76335419328241
13.2,1.2252960000000002e-10,0.27570364691520005,126.55351970424002,8301.49803756,1.9024088846738193e-07,-1.7976891295541596e-21,9.788654901696,-3.01941960595019e-27,-1.8849555921538757e-21,-0.0009627494288197092,0.0,0.0,0.0,-126.55351971440001,306.8275363056,0.50767905845908,34138.92213278904,234.26069105555558,1.788185089334721e-07,0.3482812913064259,-7.411529292502356,0.0,0.0,0.0,0.412894131,126.68717930149401
13.3,1.23444e-10,0.2799049058736,127.47770777712,8288.796469872,1.954768762233649e-07,-1.7802358370342163e-21,9.788693873424,-3.01941960595019e-27,-1.8675022996339325e-21,-0.0009700458999307191,0.0,0.0,0.0,-127.47770780760001,306.881447196,0.50844181910972,34202.22743854573,234.3430198888889,1.8015297541805023e-07,0.35120695338610697,-7.5314279167668055,0.0,0.0,0.0,0.415829363,127.6102062498396
13.4,1.246632e-10,0.2841385419072,128.40107356056,8276.0025234,1.9896753472735356e-07,-1.7627825445142727e-21,9.788733125568,-3.01941960595019e-27,-1.8500490071139893e-21,-0.0009773424234016065,0.0,0.0,0.0,-128.4010735504,306.9357436584,0.509210248927358,34266.030311165705,234.4259513888889,1.8193226406415446e-07,0.3541382647072394,-7.652432013067078,0.0,0.0,0.0,0.418760412,128.5324270644372
13.5,1.255776e-10,0.2884045629408,129.323609526,8263.116283488,2.0420352248333654e-07,-1.7418385934903408e-21,9.788772664224,-3.01941960595019e-27,-1.832595714594046e-21,-0.0009846390166856642,0.0,0.0,0.0,-129.323609526,306.9904195968,0.509983832533176,34330.330434639276,234.50947800000003,1.8326673054873258e-07,0.35707522082160165,-7.7745447529851885,0.0,0.0,0.0,0.421687251,129.453833925738
13.6,1.267968e-10,0.29270297568000003,130.24530802296002,8250.137829384,2.076941809873252e-07,-1.7261306302223917e-21,9.788812486344,-3.01941960595019e-27,-1.8151424220741028e-21,-0.0009919356623295994,0.0,0.0,0.0,-130.2453080128,307.0454804976,0.510763085305992,34395.129714600735,234.59360733333335,1.8504601919483679e-07,0.3600177905916423,-7.897769276965594,0.0,0.0,0.0,0.424609838,130.37441880841558
13.7,1.277112e-10,0.2970337868304,131.1661614924,8237.06724948,2.129301687433082e-07,-1.7086773377024485e-21,9.788852591928,-3.0368728984701332e-27,-1.7976891295541596e-21,-0.000999232395239997,0.0,0.0,0.0,-131.16616149240002,307.10091843600003,0.511548007245806,34460.42482816011,234.67832794444448,1.8638048567941494e-07,0.3629660140513559,-8.022109846404604,0.0,0.0,0.0,0.42752815,131.2941737900324
13.8,1.289304e-10,0.3013970027928,132.08616231432,8223.904626072,2.181661564992912e-07,-1.6912240451825055e-21,9.788892977928,-3.0368728984701332e-27,-1.7802358370342163e-21,-0.0010065291805102725,0.0,0.0,0.0,-132.086162294,307.156737984,0.5123385983526181,34526.21769531579,234.76364744444444,1.8815977432551914e-07,0.3659198645114129,-8.147569570609127,0.0,0.0,0.0,0.430442146,132.2130909481508
13.9,1.301496e-10,0.3057926293584,133.00530277728,8210.650047552,2.2340214425527418e-07,-1.6755160819145562e-21,9.788933650439999,-3.0368728984701332e-27,-1.7627825445142727e-21,-0.0010138260530470102,0.0,0.0,0.0,-133.0053027976,307.2129394464,0.5131343432476101,34592.51158628947,234.84956588888892,1.8993906297162332e-07,0.3688793775575861,-8.274152728768357,0.0,0.0,0.0,0.433351791,133.1311622574444
14.0,1.3106400000000002e-10,0.3102206726232,133.92357526128,8197.303596216,2.2689280275926283e-07,-1.658062789394613e-21,9.788974603368,-3.0368728984701332e-27,-1.7453292519943295e-21,-0.0010211229779436256,0.0,0.0,0.0,-133.92357523080003,307.269517032,0.5139357573096,34659.30127734487,234.93607561111114,1.912735294562015e-07,0.37184449981121614,-8.40186181633462,0.0,0.0,0.0,0.436257059,134.0483797954756
14.1,1.3228320000000002e-10,0.31468113807360004,134.84097199392002,8183.8653604559995,2.3212879051524583e-07,-1.642354826126664e-21,9.789015836712002,-3.0368728984701332e-27,-1.729621288726381e-21,-0.0010284199726534112,0.0,0.0,0.0,-134.8409720244,307.3264756176,0.5147428405385881,34726.59363451116,235.02318422222223,1.9305281810230567e-07,0.3748152935474056,-8.530701695214143,0.0,0.0,0.0,0.439157909,134.9647354854736
14.2,1.335024e-10,0.31917403089120006,135.75748529424,8170.335431712001,2.3736477827122881e-07,-1.626646862858715e-21,9.789057353519999,-3.0368728984701332e-27,-1.7121679962064372e-21,-0.0010357170546296593,0.0,0.0,0.0,-135.7574853044,307.3838103264,0.515555592934574,34794.38589988541,235.11088411111112,1.9438728458688383e-07,0.3777917009392736,-8.660674829721698,0.0,0.0,0.0,0.442054313,135.8802213535564
14.3,1.344168e-10,0.323699355648,136.67310738984,8156.71389228,2.426007660272118e-07,-1.6091935703387718e-21,9.789099150744,-3.0368728984701332e-27,-1.696460032938488e-21,-0.0010430141889657852,0.0,0.0,0.0,-136.6731074,307.441523292,0.5163734991187401,34862.677000949814,235.19917905555556,1.9616657323298803e-07,0.38077377981370103,-8.79178610400462,0.0,0.0,0.0,0.444946233,136.7948293229532
14.4,1.35636e-10,0.32825711722080003,137.58783050832002,8143.000839696001,2.478367537831948e-07,-1.5934856070708228e-21,9.789141231432001,-3.0368728984701332e-27,-1.6807520696705393e-21,-0.0010503114105683733,0.0,0.0,0.0,-137.5878305388,307.4996145144,0.517196559091086,34931.47024144224,235.28806916666667,1.9794586187909223e-07,0.3837614501026988,-8.924037306247998,0.0,0.0,0.0,0.447833637,137.70855136833762
14.5,1.368552e-10,0.332847319572,138.5016468468,8129.196359304,2.530727415391778e-07,-1.577777643802874e-21,9.789183592536002,-3.0368728984701332e-27,-1.6650441064025904e-21,-0.0010576086845308392,0.0,0.0,0.0,-138.5016468468,307.5580782024,0.518025803609248,35000.76286345978,235.37754666666666,1.9928032836367036e-07,0.386754769633148,-9.057433316150945,0.0,0.0,0.0,0.450716496,138.62137936149438
14.6,1.377696e-10,0.3374699663592,139.41454854144,8115.300539496,2.583087292951608e-07,-1.5620696805349249e-21,9.789226234056002,-3.0368728984701332e-27,-1.6493361431346414e-21,-0.0010649060457597675,0.0,0.0,0.0,-139.4145485516,307.6169198424,0.51886020191559,35070.556844457125,235.46761933333332,2.010596170097746e-07,0.38975373395682683,-9.191977785703406,0.0,0.0,0.0,0.453594771,139.53330532854162
