time,eiPosition_m_X,eiPosition_m_Y,eiPosition_m_Z,eiVelocity_m_s_X,eiVelocity_m_s_Y,eiVelocity_m_s_Z,feVelocity_m_s_X,feVelocity_m_s_Y,feVelocity_m_s_Z,altitudeMsl_m,longitude_rad,latitude_rad,localGravity_m_s2,eulerAngle_rad_Yaw,eulerAngle_rad_Pitch,eulerAngle_rad_Roll,bodyAngularRateWrtEi_rad_s_Roll,bodyAngularRateWrtEi_rad_s_Pitch,bodyAngularRateWrtEi_rad_s_Yaw,speedOfSound_m_s,airDensity_kg_m3,ambientPressure_Pa,ambientTemperature_K,aero_bodyForce_N_X,aero_bodyForce_N_Y,aero_bodyForce_N_Z,aero_bodyMoment_Nm_L,aero_bodyMoment_Nm_M,aero_bodyMoment_Nm_N,mach,dynamicPressure_Pa
0.0,6387281.000012401,0.0,0.0,0.0,465.76787589444,0.0,0.0,0.0,-0.0,9144.0,0.0,0.0,9.78607215813912,0.0,0.0,0.0,0.0,0.0,0.0,303.2301256063032,0.4590404150549219,30148.940285576737,228.79937393444447,-0.0,0.015558605184930938,-0.0,0.0,0.0,0.0,0.020103543432,8.529250014730591
0.1,6387280.951061521,46.576792812192004,0.0,-0.978598639464288,465.767979386232,0.0,0.0,0.00011417287302783841,0.9752022053630881,9143.95123974192,8.734295059023242e-13,0.0,9.786072307781787,0.0,0.0,-7.292115873431868e-06,0.0,0.0,0.0,303.2303350261536,0.4590431135232674,30149.15915988641,228.79968996611112,-0.0,0.015755961366131974,-0.002520475350305268,0.0,0.0,0.0,0.0203587745907,8.747260103826129
0.2,6387280.80426984,93.1535957288088,0.0,-1.95717950525724,465.76807841880003,0.0,0.0,0.0002452430634960264,1.9503866345615761,9143.8049601564,3.663222867385486e-12,0.0,9.786072756740268,0.0,0.0,-1.45842336632178e-05,0.0,0.0,0.0,303.2309632802184,0.45905120893809614,30149.815785400955,228.80063805444445,-0.0,0.016334742241242844,-0.005226171880087955,0.0,0.0,0.0,0.0211065996228,9.40188154493571
0.3,6387280.55963736,139.7304084307248,0.0,-2.9357407775034003,465.76817548540805,0.0,0.0,0.00039570311055816003,2.9255514674731202,9143.56116307224,8.653782877215039e-12,0.0,9.786073505014564,0.0,0.0,-2.1876353653829015e-05,0.0,0.0,0.0,303.2320103581344,0.45906470141485295,30150.91017701114,228.8022181861111,-0.0,0.017256613146343268,-0.008281751284575109,0.0,0.0,0.0,0.0222974640162,10.493127227425049
0.4,6387280.2171336,186.3072308332056,0.0,-3.91427961666768,465.76827275928,0.0,0.0,0.000567731590789056,3.90069386426088,9143.21985059256,1.6166193744558595e-11,0.0,9.786074552543717,0.0,0.0,-2.9168476166179195e-05,0.0,0.0,0.0,303.2334762461856,0.4590835912034966,30152.442363971804,228.80443034888887,-0.0,0.018470314021352414,-0.011819081689163556,0.0,0.0,0.0,0.0238650818414,12.021036626030025
0.5,6387279.77678904,232.884063050856,0.0,-4.89279239892192,465.76837206312,0.0,0.0,0.000763143735028248,4.87581020064864,9142.78102515576,2.655282029285643e-11,0.0,9.786075899388686,0.0,0.0,-3.6460601552737595e-05,0.0,0.0,0.0,303.23536092821763,0.45910787868128433,30154.412389566693,228.8072745266667,-0.0,0.01992265189522955,-0.015935690626644884,0.0,0.0,0.0,0.0257406484986,13.985674182551795
0.6,6387279.238573201,279.460905362568,0.0,-5.871274935872161,465.768474859968,0.0,0.0,0.0009834049768000321,5.8508962878309605,9142.244689566001,4.019166223498538e-11,0.0,9.786077545518992,0.0,0.0,-4.375273019171705e-05,0.0,0.0,0.0,303.2376643847232,0.4591375643501951,30156.820310916966,228.81075070166668,-0.0,0.021565562339304654,-0.020699995915491643,0.0,0.0,0.0,0.0278619729385,16.38712810190769
0.7,6387278.60251656,326.037758177688,0.0,-6.84972264905664,465.76858231416,0.0,0.0,0.0012296779554595919,6.82594754691936,9141.610847084641,5.7481220384618594e-11,0.0,9.786079490904157,0.0,0.0,-5.104486248122717e-05,0.0,0.0,0.0,303.2403865922328,0.45917264883383735,30159.66619855023,228.81485885333333,-0.0,0.023358982593592214,-0.026158624514869545,0.0,0.0,0.0,0.0301771957228,19.225509504123956
0.8,6387277.86861912,372.614622011328,0.0,-7.828130695965361,465.76869534619203,0.0,0.0,0.001502878975635072,7.800959134824721,9140.87950139976,7.88361967357236e-11,0.0,9.786081735544185,0.0,0.0,-5.833699883613271e-05,0.0,0.0,0.0,303.243527523924,0.4592131328759027,30162.950136352716,228.81959895777777,-0.0,0.025271016793625575,-0.03234302385494985,0.0,0.0,0.0,0.0326450060084,22.500951844074866
0.9,6387277.03691136,419.191497457848,0.0,-8.806494055780322,465.76881467234404,0.0,0.0,0.0018037306955834642,8.775926030241362,9140.05065674808,1.046840600079538e-10,0.0,9.786084279439073,0.0,0.0,-6.562913968403935e-05,0.0,0.0,0.0,303.24708714870724,0.4592590173391352,30166.672221521338,228.8249709877778,-0.0,0.02727687188360745,-0.039274462038522744,0.0,0.0,0.0,0.0352332686132,26.213610519391324
1.0,6387276.107332321,465.768385175616,0.0,-9.78480758664744,465.768940877832,0.0,0.0,0.002132806070572368,9.75084309073608,9139.124317854,1.3546237020002212e-10,0.0,9.786087122558346,0.0,0.0,-7.29212854623266e-05,0.0,0.0,0.0,303.25106543183523,0.4593103032043009,30170.83256446798,228.83097491333334,-0.0,0.029357471329389026,-0.04696749137385005,0.0,0.0,0.0,0.0379172338463,30.36366260453386
1.1,6387275.07994296,512.3452858778641,0.0,-10.76306606307552,465.76907441376,0.0,0.0,0.0024905629804551363,10.725705090360481,9138.100489960081,1.7161671780230958e-10,0.0,9.786090264871529,0.0,0.0,-8.021343661675153e-05,0.0,0.0,0.0,303.2554623349032,0.45936699156864114,30175.431288675823,228.83761070166668,-0.0,0.03149816250045401,-0.055432246187700915,0.0,0.0,0.0,0.0406778678555,34.95130666851252
1.2,6387273.9547128,558.9222003144,0.0,-11.74126420089936,465.76921565503204,0.0,0.0,0.002877370757710272,11.70050674430928,9136.979178827041,2.1359913919323895e-10,0.0,9.786093706409098,0.0,0.0,-8.750559359917991e-05,0.0,0.0,0.0,303.2602778152392,0.45942908364690394,30180.46853084301,228.844878315,-0.0,0.03368765326862903,-0.06467593998896712,0.0,0.0,0.0,0.0435004788718,39.9767626474296
1.3,6387272.7317028,605.499129274656,0.0,-12.719396673617041,465.7693649034,0.0,0.0,0.0032935302587683204,12.675242725531922,9135.76039079472,2.618668948569619e-10,0.0,9.786097447110105,0.0,0.0,-9.479775686688799e-05,0.0,0.0,0.0,303.2655118262088,0.4594965807718588,30185.94444083475,228.8527777138889,-0.0,0.03591718693552453,-0.07470383758688481,0.0,0.0,0.0,0.0463736512558,45.44027175326776
1.4,6387271.410852,652.0760735724481,0.0,-13.69745812345416,465.769522411848,0.0,0.0,0.00373928900012688,13.64990767567488,9134.444132660159,3.1688152141213916e-10,0.0,9.786101486974545,0.0,0.0,-0.00010208992688151536,0.0,0.0,0.0,303.2711643172152,0.4595694843912048,30191.85918144393,228.86130885444445,-0.0,0.03817991996814407,-0.08551988949733538,0.0,0.0,0.0,0.0492884415212,51.34209640661824
1.5,6387269.992190881,698.65303403988,0.0,-14.67544316880096,465.76968838764003,0.0,0.0,0.00421485260204832,14.624496212549282,9133.03041179952,3.791080903653713e-10,0.0,9.78610582597194,0.0,0.0,-0.00010938210410801773,0.0,0.0,0.0,303.277235234004,0.45964779607014755,30198.212928726258,228.87047169,-0.0,0.04047045851380864,-0.09712715007612222,0.0,0.0,0.0,0.0522377794808,57.68252018573629
1.6,6387268.47574992,745.2300115364881,0.0,-15.65334640936344,465.76986300146405,0.0,0.0,0.00472039348373568,15.59900293531248,9131.519236137601,4.4901462335154806e-10,0.0,9.786110464102302,0.0,0.0,-0.00011667428901466695,0.0,0.0,0.0,303.2837245180536,0.4597315174888219,30205.005871712994,228.88026616944444,-0.0,0.04278451439200057,-0.10952805659372236,0.0,0.0,0.0,0.0552160237522,64.46184778593869
1.7,6387266.86152912,791.807006934,0.0,-16.63116242972952,465.770046408768,0.0,0.0,0.00525605752045728,16.57342242797328,9129.91061411736,5.270716266091585e-10,0.0,9.786115401274186,0.0,0.0,-0.00012396648207165472,0.0,0.0,0.0,303.29063210627044,0.4598206504453846,30212.238212554592,228.89069224,-0.0,0.04511864932704744,-0.12272461808586976,0.0,0.0,0.0,0.0582186312721,71.68040498833798
1.8,6387265.14952848,838.384021116336,0.0,-17.60888580177696,465.77023873452003,0.0,0.0,0.0058219691801582405,17.54774926179984,9128.2045547304,6.137517174466699e-10,0.0,9.786120637548564,0.0,0.0,-0.00013125868375179068,0.0,0.0,0.0,303.2979579328176,0.45991519685292176,30219.91016647282,228.9017498427778,-0.0,0.047470083872360604,-0.13671854499074676,0.0,0.0,0.0,0.0612419103969,79.33853863130577
1.9,6387263.339748001,884.9610549796081,0.0,-18.586511086441202,465.770440088448,0.0,0.0,0.00641823552298512,18.521977997118,9126.40106754744,7.095293218659799e-10,0.0,9.786126172833995,0.0,0.0,-0.00013855089452928087,0.0,0.0,0.0,303.3057019266768,0.4600151587409953,30228.021961808623,228.91343891833336,-0.0,0.04983655371988815,-0.15151133940517983,0.0,0.0,0.0,0.0642828352285,87.43661658653264
2.0,6387261.43221816,931.5381094382161,0.0,-19.564032834843122,465.77065056504006,0.0,0.0,0.00704494934057352,19.4961031845,9124.5001625964,8.14880427422049e-10,0.0,9.786132007130481,0.0,0.0,-0.00014584311488042559,0.0,0.0,0.0,303.313864013172,0.46012053825512705,30236.573839926405,228.92575940166665,-0.0,0.05221620082166169,-0.1671043588040799,0.0,0.0,0.0,0.0673389049231,95.97502773796084
2.1,6387259.426969441,978.115185400464,0.0,-20.541445589203438,465.770870255736,0.0,0.0,0.00770219164217976,20.470119365587443,9122.50185054528,9.302823805098899e-10,0.0,9.786138140377073,0.0,0.0,-0.00015313534528239788,0.0,0.0,0.0,303.3224441136648,0.4602313376578301,30245.566055261846,228.93871122555558,-0.0,0.054607490221841665,-0.18349886161958973,0.0,0.0,0.0,0.0704080362211,104.95418196071694
2.2,6387257.323940881,1024.69228379904,0.0,-21.5187438833304,465.77109923064,0.0,0.0,0.008390033638746,21.44402107357896,9120.406142519281,1.0562137171740942e-09,0.0,9.786144572573772,0.0,0.0,-0.000160427586213767,0.0,0.0,0.0,303.3314421458592,0.46034755932551624,30254.99887541772,228.95229431833334,-0.0,0.05700914600410532,-0.20069604026912974,0.0,0.0,0.0,0.0734884806759,114.37451010435373
2.3,6387255.12322392,1071.2694055574882,0.0,-22.49592224307696,465.771337556808,0.0,0.0,0.00910853834090568,22.41780283368744,9118.213050314162,1.1931540234196617e-09,0.0,9.786151303690104,0.0,0.0,-0.00016771983815397492,0.0,0.0,0.0,303.34085802288723,0.46046920575261885,30264.87258092446,228.96650860500003,-0.0,0.05942010155163264,-0.21869704536751283,0.0,0.0,0.0,0.0765787603819,124.23646397130423
2.4,6387252.8247576,1117.846551623736,0.0,-23.47297518637128,465.7715852952,0.0,0.0,0.00985776185343864,23.39145916332288,9115.922586152401,1.3415838172277413e-09,0.0,9.786158333634637,0.0,0.0,-0.00017501210158438345,0.0,0.0,0.0,303.3506916539184,0.4605962795479856,30275.187465575338,228.98135400833334,-0.0,0.061839460615825924,-0.23750300368441507,0.0,0.0,0.0,0.0796776176632,134.54051630203864
2.5,6387250.42863336,1164.4237229335201,0.0,-24.44989722361296,465.771842503728,0.0,0.0,0.010637754433780561,24.364984572214322,9113.534762835601,1.5019844489741265e-09,0.0,9.786165662437849,0.0,0.0,-0.0001823043769849581,0.0,0.0,0.0,303.36094294416,0.46072878343797036,30285.943836139177,228.99683044555556,-0.0,0.06426646660089477,-0.25711503160247023,0.0,0.0,0.0,0.0827839753849,145.28716075447588
2.6,6387247.934790241,1211.000920440864,0.0,-25.426682857429203,465.77210923116,0.0,0.0,0.01144856136082488,25.338373562470803,9111.04959377496,1.6748380167493705e-09,0.0,9.786173290008314,0.0,0.0,-0.00018959666483845698,0.0,0.0,0.0,303.37161179516164,0.4608667202628258,30297.14201250398,229.01293783222224,-0.0,0.06670047815112615,-0.27753424530503185,0.0,0.0,0.0,0.0858969054063,156.47691188674676
2.7,6387245.3432892,1257.5781450997922,0.0,-26.4033265828272,465.77238552016803,0.0,0.0,0.01229022365598816,26.31162062845944,9108.46709286936,1.8606272948020311e-09,0.0,9.786181216315553,0.0,0.0,-0.00019688896562659097,0.0,0.0,0.0,303.382698103596,0.46101009297979567,30308.78232762908,229.02967607944444,-0.0,0.06914094960940198,-0.29876176856011605,0.0,0.0,0.0,0.0890156033266,168.11030513947824
2.8,6387242.654130241,1304.155397864328,0.0,-27.37982288707224,465.772671416472,0.0,0.0,0.01316277868168488,27.284720256835918,9105.78727456632,2.0598356713351383e-09,0.0,9.786189441329094,0.0,0.0,-0.00020418127983630688,0.0,0.0,0.0,303.394201763088,0.4611589046625991,30320.865127592973,229.04704509444446,-0.0,0.07158741525892937,-0.3207987387197181,0.0,0.0,0.0,0.0921393681271,180.18789681616252
2.9,6387239.86734384,1350.732679703736,0.0,-28.35616624956576,465.772966962744,0.0,0.0,0.014066260644095042,28.25766692642256,9103.01015392296,2.2729470952090733e-09,0.0,9.786197965018465,0.0,0.0,-0.00021147360794757027,0.0,0.0,0.0,303.40612266269045,0.46131315849885424,30333.390771593367,229.06504478222226,-0.0,0.07403947654349981,-0.3436463113815488,0.0,0.0,0.0,0.0952675856531,192.7102640630473
3.0,6387236.982899521,1397.309991581184,0.0,-29.33235114169296,465.773272189464,0.0,0.0,0.0150007010161656,29.230455108025442,9100.1357464536,2.5004460304495614e-09,0.0,9.78620678729223,0.0,0.0,-0.00021876595044558272,0.0,0.0,0.0,303.4184606871888,0.46147285779316993,30346.35963189929,229.08367504333333,-0.0,0.07649679162929238,-0.3673056640374657,0.0,0.0,0.0,0.0983997151273,205.678004851899
3.1,6387234.000858241,1443.8873344659362,0.0,-30.30837202670088,465.773587133208,0.0,0.0,0.015966128894531282,30.203079264221042,9097.16406834312,2.7428174159166046e-09,0.0,9.786215908150396,0.0,0.0,-0.000226058307817291,0.0,0.0,0.0,303.4312157177112,0.4616380059656001,30359.77209385104,229.10293577444446,-0.0,0.07895906682959206,-0.39177799895058274,0.0,0.0,0.0,0.101535278072,219.0917379579777
3.2,6387230.92125048,1490.464709333352,0.0,-31.2842233593936,465.77391183055204,0.0,0.0,0.01696257130468032,31.1755338492648,9094.09513626408,3.000546630659696e-09,0.0,9.78622532750153,0.0,0.0,-0.0002333506805461514,0.0,0.0,0.0,303.44438763142324,0.4618086065521588,30373.628556003914,229.12282686944445,-0.0,0.0814260495250003,-0.41706454543720833,0.0,0.0,0.0,0.10467384916,232.9521029389699
3.3,6387227.744015281,1537.042117158792,0.0,-32.259899586345604,465.774246311976,0.0,0.0,0.01799005346216808,32.147813309426404,9090.928967437681,3.2741194642472212e-09,0.0,9.786235045315166,0.0,0.0,-0.00024064306911911076,0.0,0.0,0.0,303.4579763012232,0.4619846632037895,30387.929429888733,229.1433482188889,-0.0,0.08389752228110665,-0.4431665616879469,0.0,0.0,0.0,0.107815048612,247.2597601144
3.4,6387224.46927456,1583.619558920664,0.0,-33.2353951452312,465.774590604912,0.0,0.0,0.01904859899390184,33.1199120807952,9087.66557963376,3.5640220891029907e-09,0.0,9.786245061530343,0.0,0.0,-0.0002479354740213706,0.0,0.0,0.0,303.4719815960472,0.46216617968688073,30402.67514034703,229.16449970888888,-0.0,0.08637329793854186,-0.4700853362276053,0.0,0.0,0.0,0.11095853586,262.01539054264776
3.5,6387221.096967361,1630.1970356065199,0.0,-34.2107044646112,465.77494473984,0.0,0.0,0.020138230132481283,34.091824592541606,9084.30499123176,3.870741038549999e-09,0.0,9.786255376086112,0.0,0.0,-0.0002552278957416231,0.0,0.0,0.0,303.486403380564,0.46235315988532716,30417.866125148015,229.1862812227778,-0.0,0.08885321549259009,-0.4978221890859649,0.0,0.0,0.0,0.114104004216,277.21969599940235
3.6,6387217.6271241605,1676.774548197816,0.0,-35.1858219639024,465.77530874419205,0.0,0.0,0.021258967881613442,35.0635452628632,9080.8472210988,4.194763185081071e-09,0.0,9.786265988952003,0.0,0.0,-0.0002625203347633245,0.0,0.0,0.0,303.50124151578484,0.4625456077964069,30433.502835275845,229.20869263944448,-0.0,0.09133713662313125,-0.5263784727661592,0.0,0.0,0.0,0.117251176399,292.8733989527642
3.7,6387214.05980592,1723.352097685152,0.0,-36.160742053377604,465.7756826454,0.0,0.0,0.02241083216110608,36.035068501728006,9077.292288742081,4.536575723359363e-09,0.0,9.786276900067064,0.0,0.0,-0.00026981279157516693,0.0,0.0,0.0,303.51649585845365,0.4627435275333584,30449.585734881763,229.23173383555556,-0.0,0.09382494275481144,-0.5557555729915306,0.0,0.0,0.0,0.120399800728,308.97724253786885
3.8,6387210.39498216,1769.9296850591281,0.0,-37.1354591338608,465.776066470896,0.0,0.0,0.023593841933115842,37.0063887087408,9073.64021418696,4.896666153724991e-09,0.0,9.78628810933986,0.0,0.0,-0.00027710526666584266,0.0,0.0,0.0,303.5321662610472,0.4629469233253802,30466.115301188293,229.25540468277777,-0.0,0.09631653255803187,-0.5859549093541806,0.0,0.0,0.0,0.123549647902,325.5319905348621
3.9,6387206.63271384,1816.507311310344,0.0,-38.109967595812805,465.776460242016,0.0,0.0,0.02480801531215056,37.9775002740576,9069.891017976961,5.275522268284767e-09,0.0,9.786299616709444,0.0,0.0,-0.00028439776052229844,0.0,0.0,0.0,303.5482525726896,0.4631557995171156,30483.092024585058,229.27970505055555,-0.0,0.0988118198155819,-0.6169779358220675,0.0,0.0,0.0,0.126700508243,342.53842734065006
4.0,6387202.77300096,1863.084977438544,0.0,-39.084261819636,465.77686398924004,0.0,0.0,0.0260533696610508,38.9483975780808,9066.0447212652,5.673632138607621e-09,0.0,9.786311422175821,0.0,0.0,-0.00029169027363148124,0.0,0.0,0.0,303.5647546379328,0.4633701605681377,30500.51640867662,229.30463480333336,-0.0,0.10131073159486478,-0.6488261411393462,0.0,0.0,0.0,0.129852189334,359.997357942087
4.1,6387198.815874,1909.662684443472,0.0,-40.0583361759792,465.77727773390404,0.0,0.0,0.027329921677614003,39.919074989935204,9062.10134578392,6.091484104153069e-09,0.0,9.786323525586603,0.0,0.0,-0.00029898280648382855,0.0,0.0,0.0,303.58167229706163,0.46359001105346415,30518.38897009097,229.33019380333334,-0.0,0.10381320667589604,-0.6815010491955704,0.0,0.0,0.0,0.133004513994,377.9096078901193
4.2,6387194.761332961,1956.2404333218242,0.0,-41.032185024518405,465.77770150344,0.0,0.0,0.02863768746731976,40.88952686899201,9058.06091378352,6.5295667630907805e-09,0.0,9.786335926941799,0.0,0.0,-0.0003062753595662872,0.0,0.0,0.0,303.59900538670325,0.46381535566355764,30536.71023871894,229.35638190833333,-0.0,0.10631919419237187,-0.7150042192703454,0.0,0.0,0.0,0.136157318522,396.27602326866383
4.3,6387190.6094388,2002.818225076392,0.0,-42.005802713652,465.77813531613606,0.0,0.0,0.0299766826119708,41.859747563649606,9053.923448124,6.988368963696111e-09,0.0,9.786348626149982,0.0,0.0,-0.0003135679333692947,0.0,0.0,0.0,303.61675373982723,0.4640461992038102,30555.48075757054,229.38319897222223,-0.0,0.10882865245867306,-0.7493372462779793,0.0,0.0,0.0,0.13931045118,415.0974706687523
4.4,6387186.36019152,2049.396060719112,0.0,-42.97918358172,465.778579199424,0.0,0.0,0.0313469222263248,42.8297314110288,9049.68897215304,7.46837979578053e-09,0.0,9.786361623119715,0.0,0.0,-0.000320860528379798,0.0,0.0,0.0,303.6349171842216,0.46428254659505885,30574.701082870746,229.41064484611113,-0.0,0.11134154794499469,-0.7845017609320681,0.0,0.0,0.0,0.142463770878,434.37483715549405
4.5,6387182.013621601,2095.973941252776,0.0,-43.95232195548,465.779033177688,0.0,0.0,0.0327484210123488,43.7994727369728,9045.35750991936,7.970088585054204e-09,0.0,9.786374917820535,0.0,0.0,-0.00032815314508823453,0.0,0.0,0.0,303.65349554432163,0.4645244028741008,30594.371783915834,229.4387193777778,-0.0,0.11385785438948119,-0.8204994299011832,0.0,0.0,0.0,0.145617146022,454.10903023886874
4.6,6387177.56972904,2142.551867692368,0.0,-44.9252121491928,465.77949726921605,0.0,0.0,0.034181193304024804,44.7689658557424,9040.9290858984,8.493984885917801e-09,0.0,9.786388510130529,0.0,0.0,-0.00033544578398504184,0.0,0.0,0.0,303.6724886409048,0.4647717731906011,30614.493443360672,229.46742241,-0.0,0.11637755201800819,-0.8573319559067318,0.0,0.0,0.0,0.148770453516,474.3009778392531
4.7,6387173.0285748,2189.129841046776,0.0,-45.8978484664512,465.77997150144,0.0,0.0,0.0356452531093512,45.7382050703208,9036.40372520568,9.040558476715173e-09,0.0,9.786402400019227,0.0,0.0,-0.0003427384455589121,0.0,0.0,0.0,303.69189628987203,0.4650246628122467,30635.06665688357,229.4967537827778,-0.0,0.1189006268609357,-0.8950010778252669,0.0,0.0,0.0,0.151923577873,494.9516282606077
4.8,6387168.3901588805,2235.707862330984,0.0,-46.8702251983512,465.780455898744,0.0,0.0,0.0371406141476808,46.7071846708896,9031.781453535841,9.610299355090805e-09,0.0,9.786416587395205,0.0,0.0,-0.0003500311302985376,0.0,0.0,0.0,303.7117183034664,0.4652830771190771,30656.092033377776,229.52671333222224,-0.0,0.12142707015482229,-0.9335085707329686,0.0,0.0,0.0,0.155076410452,516.0619501421177
4.9,6387163.65454224,2282.285932566072,0.0,-47.842336623796804,465.78095047941605,0.0,0.0,0.038667289882639205,47.675898935743206,9027.06229713216,1.0203697733137778e-08,0.0,9.78643107216703,0.0,0.0,-0.0003573238386978464,0.0,0.0,0.0,303.731954489664,0.4655470216081228,30677.57019504725,229.55730089166667,-0.0,0.12395687781086269,-0.972856245954575,0.0,0.0,0.0,0.158228848767,537.6329324481384
5.0,6387158.8217248805,2328.864052767024,0.0,-48.814177008890404,465.78145527088805,0.0,0.0,0.0402252935523,48.6443421306792,9022.24628278656,1.082124403464016e-08,0.0,9.78644585427375,0.0,0.0,-0.0003646165712437854,0.0,0.0,0.0,303.75260465308804,0.4658165018892821,30699.501777215162,229.58851628944444,-0.0,0.12649004994693477,-1.0130459511078644,0.0,0.0,0.0,0.161380795891,559.6655844083446
5.1,6387153.8917068,2375.442223961016,0.0,-49.7857406072376,465.78197029144803,0.0,0.0,0.0418146381957024,49.6125085083888,9017.333437931042,1.1463428890831859e-08,0.0,9.786460933593462,0.0,0.0,-0.0003719093284285375,0.0,0.0,0.0,303.77366859318,0.4660915236894445,30721.887428419606,229.62035935055556,-0.0,0.1290265904743598,-1.0540795700992074,0.0,0.0,0.0,0.164532159922,582.1609354961846
5.2,6387148.86457944,2422.02044716608,0.0,-50.7570216593376,465.7824955685281,0.0,0.0,0.0434353366766256,50.5803923090664,9012.32379051576,1.2130743138092776e-08,0.0,9.786476310095697,0.0,0.0,-0.00037920211074254006,0.0,0.0,0.0,303.7951461060288,0.4663720928488829,30744.727810413657,229.6528298977778,-0.0,0.13156650672870002,-1.095959023128014,0.0,0.0,0.0,0.167682853508,605.120035376212
5.3,6387143.74031232,2468.598723415488,0.0,-51.728014392583205,465.783031123464,0.0,0.0,0.0450874017049248,51.5479877588856,9007.21736907,1.2823677815034118e-08,0.0,9.786491983689029,0.0,0.0,-0.0003864949186779761,0.0,0.0,0.0,303.817036983456,0.4666582153233147,30768.02359826107,229.68592774777778,-0.0,0.13410980914059029,-1.1386862666778388,0.0,0.0,0.0,0.170832793423,628.5439538849333
5.4,6387138.518966401,2515.177053736416,0.0,-52.6987130203464,465.783576977592,0.0,0.0,0.046770845857257604,52.5152890709136,9002.014202763121,1.3542724160857776e-08,0.0,9.786507954251544,0.0,0.0,-0.0003937877527235377,0.0,0.0,0.0,303.83934101362564,0.4669498971823564,30791.775480144814,229.71965271555558,-0.0,0.13665651094482442,-1.1822632935074826,0.0,0.0,0.0,0.1739819002,652.4337809733522
5.5,6387133.20057216,2561.7554391560398,0.0,-53.66911174228321,465.784133158344,0.0,0.0,0.048485681593848,53.4822904448064,8996.71432125216,1.428837361315723e-08,0.0,9.78652422169182,0.0,0.0,-0.00040108061337315316,0.0,0.0,0.0,303.86205798012963,0.4672471446115845,30815.984157558563,229.7540046116667,-0.0,0.1392066279161307,-1.2266921326109608,0.0,0.0,0.0,0.177130097786,676.7906266830286
5.6,6387127.7851600805,2608.33388071068,0.0,-54.6392047443336,465.784699687056,0.0,0.0,0.050231921274336004,54.448986064980005,8991.31775486472,1.5061117805456606e-08,0.0,9.78654078594891,0.0,0.0,-0.0004083735011172599,0.0,0.0,0.0,303.8851876622928,0.46754996390892817,30840.650345163067,229.7889832427778,-0.0,0.14176017813741965,-1.271974849181915,0.0,0.0,0.0,0.180277313249,701.6156210790471
5.7,6387122.27276064,2654.9123794397037,0.0,-55.6089861984168,465.785276585064,0.0,0.0,0.0520095771717984,55.4153701033536,8985.82453441608,1.586144856761213e-08,0.0,9.786557646931387,0.0,0.0,-0.0004156664164480408,0.0,0.0,0.0,303.908729836392,0.46785836148930754,30865.77477097766,229.82458841166667,-0.0,0.14431718178582453,-1.318113544582478,0.0,0.0,0.0,0.183423476501,726.9099142404401
5.8,6387116.66337384,2701.490936376384,0.0,-56.578450261212005,465.78586387980005,0.0,0.0,0.05381866148768401,56.3814367153872,8980.23469142256,1.6689857922810143e-08,0.0,9.786574804517338,0.0,0.0,-0.0004229593598576787,0.0,0.0,0.0,303.9326842732176,0.46817234388051077,30891.358176188747,229.86081991833333,-0.0,0.14687766094454147,-1.365110356276548,0.0,0.0,0.0,0.186568520064,752.6746761883684
5.9,6387110.95709112,2748.069552563136,0.0,-57.547591074768,465.7864615926,0.0,0.0,0.0556591863606528,57.3471800431296,8974.548257857681,1.7546838087794e-08,0.0,9.786592258645824,0.0,0.0,-0.00043025233183835644,0.0,0.0,0.0,303.95705074051205,0.46849191772474,30917.40131538922,229.8976775577778,-0.0,0.1494416394315732,-1.4129674578031015,0.0,0.0,0.0,0.189712378845,778.9110968478162
6.0,6387105.153882001,2794.648229042376,0.0,-58.516402766503205,465.787069747848,0.0,0.0,0.057531163878768,58.31259421308481,8968.765266396,1.8432881471118745e-08,0.0,9.786610009194934,0.0,0.0,-0.00043754533288225693,0.0,0.0,0.0,303.9818290017504,0.46881708977964237,30943.90495619538,229.93516112222224,-0.0,0.15200914264448587,-1.4616870586872268,0.0,0.0,0.0,0.192854989943,805.6203860140748
6.1,6387099.25380744,2841.226966859568,0.0,-59.4848794482912,465.78768836992805,0.0,0.0,0.0594346060889448,59.2776733365168,8962.88575019976,1.9348480673290727e-08,0.0,9.786628056073248,0.0,0.0,-0.00044483836347981756,0.0,0.0,0.0,304.007018815836,0.4691478669152174,30970.869879773658,229.97327040000002,-0.0,0.1545801974216245,-1.5112714043956446,0.0,0.0,0.0,0.195996292469,832.8037732857116
6.2,6387093.256897921,2887.805767066272,0.0,-60.4530152164608,465.78831748322403,0.0,0.0,0.06136952500639921,60.2424115094496,8956.90974307128,2.0294128485406253e-08,0.0,9.786646399158853,0.0,0.0,-0.00045213142412845733,0.0,0.0,0.0,304.032619938624,0.46948425611794053,30998.29688040967,230.01200517555557,-0.0,0.15715483191267,-1.5617227762521877,0.0,0.0,0.0,0.199136227388,860.4625080310518
6.3,6387087.1632143995,2934.384630707952,0.0,-61.420804151796,465.78895711212004,0.0,0.0,0.06333593262013441,61.20680281144801,8950.83727945296,2.127031788967519e-08,0.0,9.786665038390808,0.0,0.0,-0.0004594245153186137,0.0,0.0,0.0,304.058632120788,0.4698262644856087,31026.186765747625,230.05136522944443,-0.0,0.15973307546609894,-1.613043491384427,0.0,0.0,0.0,0.202274737369,888.597859325936
6.4,6387080.972756881,2980.963558839216,0.0,-62.38824031892641,465.789607284048,0.0,0.0,0.0653338409026944,62.1708413068368,8944.66839427488,2.2277542058199206e-08,0.0,9.786683973616729,0.0,0.0,-0.0004667176375424694,0.0,0.0,0.0,304.085055109344,0.47017389923249464,31054.540356694557,230.09135033833334,-0.0,0.16231495852198144,-1.6652359026258066,0.0,0.0,0.0,0.205411766656,917.2111159202028
6.5,6387074.685586321,3027.54255251772,0.0,-63.3553177657176,465.79026802034406,0.0,0.0,0.0673632618141264,63.134521042872,8938.403123137681,2.3316294353495423e-08,0.0,9.786703204775664,0.0,0.0,-0.0004740107912939528,0.0,0.0,0.0,304.1118886476504,0.470527167685739,31083.358487563986,230.131960275,-0.0,0.164900512517679,-1.7183023984444747,0.0,0.0,0.0,0.208547260945,946.303586165869
6.6,6387068.30170272,3074.12161280112,0.0,-64.3220305247952,465.790939345392,0.0,0.0,0.06942420730868641,64.0978360515696,8932.04150222112,2.438706832832182e-08,0.0,9.786722731715235,0.0,0.0,-0.00048130397706873726,0.0,0.0,0.0,304.139132473884,0.47088607728586573,31112.642005788613,230.1731948088889,-0.0,0.16748976979843505,-1.7722454028543186,0.0,0.0,0.0,0.211681167277,975.876597969249
6.7,6387061.821197521,3120.70074073488,0.0,-65.2883726108016,465.791621289672,0.0,0.0,0.07151668934124,65.0607803469624,8925.58356828408,2.549035772515368e-08,0.0,9.786742554374493,0.0,0.0,-0.0004885971953572603,0.0,0.0,0.0,304.1667863234784,0.47125063558781305,31142.391772399136,230.21505370555556,-0.0,0.1700827635404209,-1.8270673753348956,0.0,0.0,0.0,0.214813433935,1005.9314987478632
6.8,6387055.2440402405,3167.27993740104,0.0,-66.25433802192,465.79231387452006,0.0,0.0,0.0736407198697008,66.02334792662401,8919.02935872552,2.6626656476881714e-08,0.0,9.786762672570582,0.0,0.0,-0.000495890446656941,0.0,0.0,0.0,304.1948499266856,0.4716208502599023,31172.608661497565,230.25753672666667,-0.0,0.17267952767422617,-1.8827708107291263,0.0,0.0,0.0,0.217944010354,1036.4696553634046
6.9,6387048.57032232,3213.8592038664005,0.0,-67.2199207392648,465.79301712736805,0.0,0.0,0.075796310860212,66.9855327707544,8912.37891146256,2.779645870628844e-08,0.0,9.786783086273026,0.0,0.0,-0.0005031837314582165,0.0,0.0,0.0,304.2233230101,0.47199672908435364,31203.293560736016,230.30064362944444,-0.0,0.1752800968194701,-1.9393582391498794,0.0,0.0,0.0,0.221072847038,1067.492454054707
7.0,6387041.80007424,3260.43854119776,0.0,-68.18511472596721,465.79373107260005,0.0,0.0,0.0779834742898896,67.94732884248481,8905.63226511336,2.9000258726920877e-08,0.0,9.786803795298967,0.0,0.0,-0.000510477050258506,0.0,0.0,0.0,304.2522052966584,0.4723782799562552,31234.447370885802,230.3443741677778,-0.0,0.1778845062216366,-1.9968322258776636,0.0,0.0,0.0,0.224199895484,1099.0013003994416
7.1,6387034.933326481,3307.01795043144,0.0,-69.1499139280896,465.79445574069604,0.0,0.0,0.0802022221516992,68.90873008665841,8898.78945884472,3.023855104361412e-08,0.0,9.786824799587462,0.0,0.0,-0.0005177704035517374,0.0,0.0,0.0,304.28149650411603,0.47276551088510915,31266.071006364113,230.38872809222224,-0.0,0.18049279169647167,-2.055195371267216,0.0,0.0,0.0,0.227325108108,1130.9976192470826
7.2,6387027.9701095205,3353.5974326952005,0.0,-70.1143122734064,465.79519115299206,0.0,0.0,0.08245256645598001,69.8697304301352,8891.85053246352,3.151183035092056e-08,0.0,9.786846098955646,0.0,0.0,-0.0005250637918300937,0.0,0.0,0.0,304.31119634748484,0.4731584299932858,31298.16539465944,230.4337051488889,-0.0,0.18310498957615984,-2.1144503106318466,0.0,0.0,0.0,0.230448438186,1163.4828546470894
7.3,6387020.9104843205,3400.1769890253604,0.0,-71.0783036710992,465.795937339968,0.0,0.0,0.0847345192322736,70.8303237827064,8884.815526325281,3.282059153572787e-08,0.0,9.786867693342577,0.0,0.0,-0.0005323572155909936,0.0,0.0,0.0,304.3413045362904,0.4735570455149923,31330.7314768104,230.47930507944443,-0.0,0.18572113666039367,-2.1745997141500264,0.0,0.0,0.0,0.23356983979,1196.458469796236
7.4,6387013.75445088,3446.7566205192,0.0,-72.04188201267121,465.796694329056,0.0,0.0,0.087048092533896,71.7905040340464,8877.68448148656,3.4165329676211804e-08,0.0,9.78688958259587,0.0,0.0,-0.0005396506753301108,0.0,0.0,0.0,304.3718207770104,0.47396136579936565,31363.770207166315,230.5255276227778,-0.0,0.18834127017411578,-2.2356462867319413,0.0,0.0,0.0,0.236689267737,1229.9259469715798
7.5,6387006.50210064,3493.3363282435203,0.0,-73.005041170728,465.79746214464006,0.0,0.0,0.08939329843702319,72.7502650567608,8870.4574394916,3.554654004323248e-08,0.0,9.786911766593626,0.0,0.0,-0.000546944171539628,0.0,0.0,0.0,304.40274477124564,0.47437139930841066,31397.28255348297,230.57237251333333,-0.0,0.19096542772125727,-2.2975927679171817,0.0,0.0,0.0,0.239806677537,1263.8867874634293
7.6,6386999.153464081,3539.91611332608,0.0,-73.9677749986728,465.7982408172,0.0,0.0,0.0917701490437392,73.70960070333841,8863.13444264664,3.696471809946168e-08,0.0,9.78693424518346,0.0,0.0,-0.0005542377047187093,0.0,0.0,0.0,304.434076217244,0.4747871546159693,31431.269496874756,230.61983948111114,-0.0,0.19359364725093112,-2.36044193175909,0.0,0.0,0.0,0.242922025347,1298.3425115083114
7.7,6386991.70857168,3586.49597677272,0.0,-74.9300773307064,465.79903037112,0.0,0.0,0.0941786564832552,74.6685048076752,8855.7155337456,3.8420359501651817e-08,0.0,9.786957018273949,0.0,0.0,-0.000561531275359538,0.0,0.0,0.0,304.4658148086816,0.4752086404097824,31465.7320319583,230.66792825277778,-0.0,0.19622596701739847,-2.424196586691314,0.0,0.0,0.0,0.24603526793,1333.2946582267268
7.8,6386984.1674539205,3633.07591974168,0.0,-75.8919419824368,465.79983083992806,0.0,0.0,0.09661883291221442,75.62697118416,8848.20075628344,3.991396009889058e-08,0.0,9.786980085743194,0.0,0.0,-0.0005688248839595323,0.0,0.0,0.0,304.49796023527205,0.47563586548942777,31500.671166613047,230.71663855111112,-0.0,0.19886242554982045,-2.4888595754210483,0.0,0.0,0.0,0.249146362611,1368.7447855321784
7.9,6386976.53020224,3679.6559433302405,0.0,-76.8533627493552,465.80064224800805,0.0,0.0,0.0990906905159112,76.5849936279792,8840.59015430376,4.144601593539345e-08,0.0,9.787003447438808,0.0,0.0,-0.0005761185310161115,0.0,0.0,0.0,304.5305121821568,0.47606883876786676,31536.087922220682,230.765970095,-0.0,0.20150306161756218,-2.5544337747777948,0.0,0.0,0.0,0.252255267246,1404.6944700880779
8.0,6386968.7968166405,3726.2360485747204,0.0,-77.8143334065312,465.801464622792,0.0,0.0,0.10159424150920561,77.5425659138976,8832.8837725512,4.3017023248932976e-08,0.0,9.787027103208414,0.0,0.0,-0.0005834122170232035,0.0,0.0,0.0,304.56347033112485,0.4765075692693824,31571.983333521486,230.8159225988889,-0.0,0.20414791420394832,-2.6209220956066086,0.0,0.0,0.0,0.255361940185,1441.1453072071986
8.1,6386960.96735808,3772.81623660288,0.0,-78.774847709832,465.802297997808,0.0,0.0,0.10412949813621841,78.499681796868,8825.08165634952,4.4627478472758516e-08,0.0,9.787051052960592,0.0,0.0,-0.0005907059424782273,0.0,0.0,0.0,304.5968343593928,0.4769520661321566,31608.35844885372,230.86649577333333,-0.0,0.20679702247779425,-2.688327482616853,0.0,0.0,0.0,0.258466340241,1478.0989108085816
8.2,6386953.0418570405,3819.39650854248,0.0,-79.7348993947032,465.803142400488,0.0,0.0,0.1066964726709408,79.4563350114216,8817.183851601601,4.627787823559636e-08,0.0,9.787075296512477,0.0,0.0,-0.0005979997078786016,0.0,0.0,0.0,304.6306039402152,0.4774023386062084,31645.214329722738,230.917689325,-0.0,0.2094504257680514,-2.756652914257654,0.0,0.0,0.0,0.261568426662,1515.556913297837
8.3,6386945.02037448,3865.9768654603204,0.0,-80.6944821755592,465.80399785826404,0.0,0.0,0.1092951774166248,80.412519271668,8809.190404972322,4.79687193619987e-08,0.0,9.787099833742168,0.0,0.0,-0.0006052935137200003,0.0,0.0,0.0,304.6647787425792,0.4778583960523632,31682.55205132762,230.96950295722223,-0.0,0.21210816353845224,-2.8259014025577622,0.0,0.0,0.0,0.264668159102,1553.5209655288375
8.4,6386936.902971361,3912.5573084841603,0.0,-81.65358974639281,465.80486440161604,0.0,0.0,0.1119256247063928,81.3682282709904,8801.10136361424,4.970049887356541e-08,0.0,9.787124664527767,0.0,0.0,-0.0006125873604980963,0.0,0.0,0.0,304.6993584312048,0.4783202479448298,31720.372702130306,231.02193636833334,-0.0,0.21477027536704865,-2.8960759930098994,0.0,0.0,0.0,0.267765497597,1591.9927366983836
8.5,6386928.68967816,3959.13783871128,0.0,-82.6122157804704,465.805742061024,0.0,0.0,0.114587826902628,82.3234556817408,8792.91677535048,5.14737139880714e-08,0.0,9.787149788686412,0.0,0.0,-0.0006198812487137995,0.0,0.0,0.0,304.7343426668496,0.47878790386913894,31758.6773842386,231.07498925222225,-0.0,0.21743680092308101,-2.9671797644017257,0.0,0.0,0.0,0.270860402544,1630.9739142839596
8.6,6386920.38055584,4005.7184572694405,0.0,-83.5703539291128,465.806630866968,0.0,0.0,0.1172817963957552,83.2781951549352,8784.63668873568,5.3288862121560945e-08,0.0,9.787175206096203,0.0,0.0,-0.0006271751788627833,0.0,0.0,0.0,304.7697311066136,0.4792613735231737,31797.467213071,231.1286613005556,-0.0,0.22010777994785086,-3.03921582866905,0.0,0.0,0.0,0.273952834675,1670.4662039336065
8.7,6386911.97563488,4052.2991652559203,0.0,-84.5279978226096,465.80753084992807,0.0,0.0,0.12000754560424082,84.2324403202536,8776.26115281216,5.514644088747508e-08,0.0,9.787200916635243,0.0,0.0,-0.0006344691514407212,0.0,0.0,0.0,304.80552340272004,0.47974066671613924,31836.74331759615,231.1829521988889,-0.0,0.22278325223559356,-3.1121873307579326,0.0,0.0,0.0,0.277042755037,1710.471329413256
8.8,6386903.474976241,4098.87996379848,0.0,-85.48514106991439,465.8084420434321,0.0,0.0,0.1227650869745928,85.18618478573521,8767.79021735376,5.7046948098222375e-08,0.0,9.787226920090188,0.0,0.0,-0.0006417631669485228,0.0,0.0,0.0,304.841719204344,0.480225793368047,31876.506840237013,231.23786163,-0.0,0.225463257614351,-3.1860974484423097,0.0,0.0,0.0,0.280130124979,1750.9910324966056
8.9,6386894.8786104,4145.46085402488,0.0,-86.44177725742561,465.809364474912,0.0,0.0,0.1255544329786176,86.13942213686401,8759.22393274392,5.8990881765178926e-08,0.0,9.787253216369619,0.0,0.0,-0.0006490572258818614,0.0,0.0,0.0,304.87831815273603,0.4807167635112611,31916.75893691881,231.2933892722222,-0.0,0.22814783593218205,-3.260949392190546,0.0,0.0,0.0,0.283214906127,1792.0270728789328
9.0,6386886.186628801,4192.04183706288,0.0,-87.3978999499008,465.810298174848,0.0,0.0,0.1283755961140296,87.0921459383976,8750.56235003664,6.09787400988629e-08,0.0,9.78727980529068,0.0,0.0,-0.0006563513287399014,0.0,0.0,0.0,304.91531989432804,0.4812135872889519,31957.50077702111,231.34953480000001,-0.0,0.23083702703625597,-3.3367464049786104,0.0,0.0,0.0,0.286297060371,1833.581228100488
9.1,6386877.39906192,4238.62291404024,0.0,-88.35350268954241,465.811243176768,0.0,0.0,0.1312285889020128,88.04434973131922,8741.805520895521,6.301102150963265e-08,0.0,9.787306686700992,0.0,0.0,-0.0006636454760218066,0.0,0.0,0.0,304.952724057264,0.4817162749556119,31998.73354352146,231.40629788277778,-0.0,0.23353087076173173,-3.4134917621388357,0.0,0.0,0.0,0.289376549851,1875.6552934363708
9.2,6386868.515940241,4285.20408608472,0.0,-89.30857899569281,465.8121995142001,0.0,0.0,0.13411342388752562,88.9960270349712,8732.95349765472,6.508822460890849e-08,0.0,9.787333860448172,0.0,0.0,-0.0006709396682249964,0.0,0.0,0.0,304.990530278832,0.48222483687602447,32040.458432899657,231.46367818722223,-0.0,0.23622940691529984,-3.491188771181989,0.0,0.0,0.0,0.292453336938,1918.2510818199182
9.3,6386859.5373552,4331.78535432408,0.0,-90.263122365444,465.813167217624,0.0,0.0,0.1370301136356432,89.9471713452264,8724.006333258001,6.72108482067292e-08,0.0,9.787361326379845,0.0,0.0,-0.0006782339058486345,0.0,0.0,0.0,305.02873818412803,0.4827392835268102,32082.676654946215,231.52167537444444,-0.0,0.23893267525961323,-3.5698407716193454,0.0,0.0,0.0,0.295527384224,1961.3704237325835
9.4,6386850.46333728,4378.36671991656,0.0,-91.21712627272319,465.81414632056806,0.0,0.0,0.1399786707315576,90.89777613570722,8714.96408138064,6.937939131628982e-08,0.0,9.787389084343632,0.0,0.0,-0.0006855281893918852,0.0,0.0,0.0,305.067347398248,0.48325962549385004,32125.389433289016,231.58028910222225,-0.0,0.24164071550394634,-3.6494511348069967,0.0,0.0,0.0,0.298598654511,2005.0151671081737
9.5,6386841.293947441,4424.948183989921,0.0,-92.1705841682928,465.815136853512,0.0,0.0,0.142959107779968,91.84783485626161,8705.826796246562,7.159435315097475e-08,0.0,9.787417134126192,0.0,0.0,-0.0006928225193539128,0.0,0.0,0.0,305.106357540192,0.4837858734753775,32168.598004866682,231.6395190238889,-0.0,0.24435356728773633,-3.730023263727891,0.0,0.0,0.0,0.301667110794,2049.1871772370905
9.6,6386832.029246639,4471.529747671921,0.0,-93.123489478836,465.81613884998404,0.0,0.0,0.1459714374008136,92.797340933268,8696.594532811201,7.385623312662652e-08,0.0,9.787445475636114,0.0,0.0,-0.0007001168962338814,0.0,0.0,0.0,305.14576822591204,0.48431803827785563,32212.303620263694,231.6993647888889,-0.0,0.24707127016901814,-3.811560592836146,0.0,0.0,0.0,0.304732716254,2093.8883366657797
9.7,6386822.66926536,4518.1114121208,0.0,-94.075835608176,465.817152343512,0.0,0.0,0.14901567223018802,93.7462877696352,8687.26734670056,7.616553085980056e-08,0.0,9.787474108629572,0.0,0.0,-0.000707411320530955,0.0,0.0,0.0,305.185579065264,0.4848561308201,32256.507543471005,231.75982604222224,-0.0,0.24979386361508285,-3.894066587861323,0.0,0.0,0.0,0.307795434245,2139.120545091397
9.8,6386813.21409504,4564.69317852528,0.0,-95.0276159360568,465.81817737067206,0.0,0.0,0.15209182491546241,94.6946687444976,8677.845294119761,7.852274616985951e-08,0.0,9.787503032984674,0.0,0.0,-0.0007147057927460431,0.0,0.0,0.0,305.225789665056,0.4854001621286405,32301.211052269085,231.82090242444445,-0.0,0.25252138698779864,-3.977544745612709,0.0,0.0,0.0,0.310855228286,2184.8857192516825
9.9,6386803.663766161,4611.27504798264,0.0,-95.97882381814321,465.81921396194406,0.0,0.0,0.1551999081171144,95.6424772126056,8668.32843203592,8.092837907949693e-08,0.0,9.787532248549045,0.0,0.0,-0.0007220003133783102,0.0,0.0,0.0,305.266399629048,0.4859501433423595,32346.41543774913,231.88259357222222,-0.0,0.2552538795351594,-4.061998593779146,0.0,0.0,0.0,0.313912062052,2231.185792819622
10.0,6386794.0183396805,4657.857021681601,0.0,-96.9294525854112,465.820262150856,0.0,0.0,0.158339934502632,96.58970650493521,8658.71681799528,8.338292981246825e-08,0.0,9.787561755078864,0.0,0.0,-0.0007292948829304108,0.0,0.0,0.0,305.30740855490404,0.48650608570733817,32392.122004696066,231.94489911722223,-0.0,0.2579913803792741,-4.147431690737754,0.0,0.0,0.0,0.316965899362,2278.0227162981146
10.1,6386784.27787656,4704.4391008108805,0.0,-97.8794955447576,465.821321973984,0.0,0.0,0.1615119167480376,97.536349927164,8649.01051024512,8.58868987967325e-08,0.0,9.787591552482713,0.0,0.0,-0.0007365895018980184,0.0,0.0,0.0,305.34881603724,0.4870680005809796,32438.332071444947,232.00781868833334,-0.0,0.26073392850702604,-4.233847625344874,0.0,0.0,0.0,0.320016704175,2325.398456890692
10.2,6386774.442468241,4751.021286467761,0.0,-98.82894597839041,465.82239346485596,0.0,0.0,0.1647158675330112,98.48240076119521,8639.209567764241,8.84407866627068e-08,0.0,9.787621640516779,0.0,0.0,-0.0007438841707872788,0.0,0.0,0.0,305.390621664576,0.4876358994294316,32485.046969976698,232.07135190833336,-0.0,0.2634815627607311,-4.321250016731434,0.0,0.0,0.0,0.32306444058,2373.314998420125
10.3,6386764.51211472,4797.60357990192,0.0,-99.7777971432192,465.823476657,0.0,0.0,0.1679517995396712,99.42785226302401,8629.31405008008,9.104509424309201e-08,0.0,9.787652019059166,0.0,0.0,-0.0007511788900938653,0.0,0.0,0.0,305.43282502848,0.4882097938275871,32532.268045630834,232.13549839722222,-0.0,0.2662343218261279,-4.409642514085004,0.0,0.0,0.0,0.326109072791,2421.7743411704173
10.4,6386754.486937921,4844.18598221064,0.0,-100.72604227116,465.8245715900401,0.0,0.0,0.1712197254510504,100.37269766426161,8619.324017512561,9.370032257461794e-08,0.0,9.787682687866058,0.0,0.0,-0.0007584736603221779,0.0,0.0,0.0,305.47542570528003,0.4887896954595993,32579.99665758427,232.20025777,-0.0,0.26899224422615003,-4.499028796427372,0.0,0.0,0.0,0.329150565135,2470.778501805408
10.5,6386744.36693784,4890.76849461312,0.0,-101.67367456944001,465.82567829445605,0.0,0.0,0.1745196579474384,101.316930170916,8609.2395309912,9.640697289769437e-08,0.0,9.787713646815556,0.0,0.0,-0.0007657684819731262,0.0,0.0,0.0,305.518423274352,0.48937561611939717,32628.234178516148,232.2656296366667,-0.0,0.2717553683111403,-4.589412572445516,0.0,0.0,0.0,0.332188882052,2520.329513220345
10.6,6386734.152205921,4937.3511182676,0.0,-102.6206872187688,465.826796809872,0.0,0.0,0.1778516097039432,102.260542963392,8599.06065211608,9.916554665449109e-08,0.0,9.787744895663849,0.0,0.0,-0.0007730633555458746,0.0,0.0,0.0,305.561817308976,0.4899675677075928,32676.981994703605,232.33161360444444,-0.0,0.2745237322477296,-4.680797580162437,0.0,0.0,0.0,0.335223988084,2570.4294244413354
10.7,6386723.842803121,4983.9338543628,0.0,-103.5670733745576,465.827927166768,0.0,0.0,0.1812155933880528,103.20352919679601,8588.78744327976,1.0197654549015971e-07,0.0,9.787776434258555,0.0,0.0,-0.000780358281544823,0.0,0.0,0.0,305.605607382432,0.4905655622345743,32726.241505926017,232.39820927444444,-0.0,0.27729737401349974,-4.773187586821504,0.0,0.0,0.0,0.338255847872,2621.0803004817053
10.8,6386713.438820881,5030.51670408744,0.0,-104.5128261666144,465.829069407816,0.0,0.0,0.18461162165841602,104.14588199941201,8578.419967392962,1.0484047125457893e-07,0.0,9.78780826244731,0.0,0.0,-0.000787653260470881,0.0,0.0,0.0,305.64979305276,0.4911696118184438,32776.01412575226,232.46541624444447,-0.0,0.28007633138719684,-4.8665863886240075,0.0,0.0,0.0,0.34128442615,2672.284222217509
10.9,6386702.9402592005,5077.099668630241,0.0,-105.4579386979248,465.830223566544,0.0,0.0,0.1880397071599656,105.0875944742256,8567.95828821984,1.0775782599868944e-07,0.0,9.787840379955806,0.0,0.0,-0.0007949482928267034,0.0,0.0,0.0,305.694373887144,0.4917797286860483,32826.301281301356,232.5332341077778,-0.0,0.28286064193983523,-4.960997810373302,0.0,0.0,0.0,0.344309687739,2724.0432862678317
11.0,6386692.347240001,5123.6827492104,0.0,-106.4024040458712,465.83138967648006,0.0,0.0,0.19149986252208961,106.0286596977048,8557.4024700732,1.1072911197658819e-07,0.0,9.787872786631679,0.0,0.0,-0.0008022433791114544,0.0,0.0,0.0,305.739349440576,0.49239592517091835,32877.10441319451,232.6016624527778,-0.0,0.2856503430289144,-5.05642570547481,0.0,0.0,0.0,0.347331597542,2776.359604855934
11.1,6386681.65982424,5170.26594695568,0.0,-107.3462152607088,465.832567780296,0.0,0.0,0.1949921003568024,106.9690707198,8546.7525780888,1.1375483164587756e-07,0.0,9.787905482292073,0.0,0.0,-0.0008095385198312793,0.0,0.0,0.0,305.78471926500004,0.49301821371429866,32928.42497584248,232.67070086444446,-0.0,0.2884454717877436,-5.152873955357747,0.0,0.0,0.0,0.350350120543,2829.235305665612
11.2,6386670.878042401,5216.84926314624,0.0,-108.28936536648,465.83375791152,0.0,0.0,0.1985164332544776,107.9088205633344,8536.008677981521,1.1683548766504732e-07,0.0,9.78793846675413,0.0,0.0,-0.0008168337154870879,0.0,0.0,0.0,305.830482909312,0.4936466068661788,32980.264437206126,232.74034892166668,-0.0,0.2912460651205486,-5.250346469653057,0.0,0.0,0.0,0.353365221797,2882.6725317262853
11.3,6386660.00195544,5263.432698940321,0.0,-109.23184735979521,465.834960106728,0.0,0.0,0.2020728737814096,108.84790222461359,8525.17083622824,1.199715828950454e-07,0.0,9.787971739774036,0.0,0.0,-0.00082412896658328,0.0,0.0,0.0,305.876639916312,0.49428111728168556,33032.62427889219,232.8106062,-0.0,0.294052159692241,-5.348847185526172,0.0,0.0,0.0,0.35637686643,2936.6734412406277
11.4,6386649.031685281,5310.0162555876,0.0,-110.17365421074722,465.836174408592,0.0,0.0,0.20566143447676563,109.786308672816,8514.23912003736,1.2316362039735814e-07,0.0,9.78800530113846,0.0,0.0,-0.0008314242736207654,0.0,0.0,0.0,305.92318982575205,0.4949217577246908,33085.50599610538,232.88147227055555,-0.0,0.29686379192352486,-5.44838006767702,0.0,0.0,0.0,0.359385019633,2991.24020747923
11.5,6386637.9672624,5356.59993424632,0.0,-111.114778861692,465.83740085064005,0.0,0.0,0.20928212784953762,110.72403284999281,8503.213597257361,1.2641210343645356e-07,0.0,9.788039150695031,0.0,0.0,-0.0008387196371039442,0.0,0.0,0.0,305.970132177384,0.4955685410647191,33138.91109779208,232.9529466988889,-0.0,0.2996809979824453,-5.548949107895194,0.0,0.0,0.0,0.362389646659,3046.375018603444
11.6,6386626.808747761,5403.18373616616,0.0,-112.0552142278584,465.838639472496,0.0,0.0,0.2129349663757992,111.6610676701536,8492.09433646824,1.297175354761164e-07,0.0,9.78807328823041,0.0,0.0,-0.0008460150575354709,0.0,0.0,0.0,306.017466501816,0.4962214802779782,33192.84110640087,233.0250290477778,-0.0,0.30250381377638164,-5.650558325015478,0.0,0.0,0.0,0.365390712822,3102.080077536105
11.7,6386615.556232801,5449.76766253584,0.0,-112.9949531964336,465.839890310736,0.0,0.0,0.216619962495048,112.59740602048561,8480.88140692056,1.330804201808442e-07,0.0,9.78810771350079,0.0,0.0,-0.0008533105354197462,0.0,0.0,0.0,306.06519232356004,0.4968805884473594,33247.29755816986,233.09771887333335,-0.0,0.30533227494670956,-5.753211764428538,0.0,0.0,0.0,0.368388183488,3158.357601813103
11.8,6386604.20977848,5496.35171463552,0.0,-113.9339886271728,465.841153408032,0.0,0.0,0.22033712860715762,113.53304075952481,8469.574878687841,1.3650126141392746e-07,0.0,9.788142426323311,0.0,0.0,-0.0008606060712611698,0.0,0.0,0.0,306.113309167128,0.49754587876140666,33302.28200293516,233.1710157288889,-0.0,0.3081664168603496,-5.856913497902991,0.0,0.0,0.0,0.371382024077,3215.209823415803
11.9,6386592.76944576,5542.93589362344,0.0,-114.8723133514848,465.842428797912,0.0,0.0,0.2240864770690248,114.4679647183752,8458.174822483681,1.399805632390206e-07,0.0,9.78817742648465,0.0,0.0,-0.0008679016655623968,0.0,0.0,0.0,306.161816550936,0.4982173645148321,33357.79600413086,233.24491916222223,-0.0,0.3110062746039841,-5.9616676233185215,0.0,0.0,0.0,0.374372200058,3272.6389886321913
12.0,6386581.23535656,5589.520200810241,0.0,-115.8099201730416,465.843716526096,0.0,0.0,0.227868020190912,115.4021706997944,8446.681309692241,1.4351882991630197e-07,0.0,9.788212713740986,0.0,0.0,-0.0008751973188295725,0.0,0.0,0.0,306.210713990352,0.49889505910645404,33413.84113888482,233.3194287166667,-0.0,0.31385188297516114,-6.067478264354495,0.0,0.0,0.0,0.377358676947,3330.6473578797177
12.1,6386569.60751088,5636.10463735416,0.0,-116.74680186655921,465.84501662611206,0.0,0.0,0.231681770233704,116.3356514778888,8435.09441252064,1.4711656590439393e-07,0.0,9.78824828793995,0.0,0.0,-0.0008824930315653519,0.0,0.0,0.0,306.260000997696,0.4995789760417745,33470.41899797075,233.39454393111112,-0.0,0.31670327647873575,-6.174349570134105,0.0,0.0,0.0,0.380341420302,3389.2372055712326
12.2,6386557.88600016,5682.689204535361,0.0,-117.68295117840721,465.84632914063206,0.0,0.0,0.23552773940586,117.26839979872321,8423.41420381608,1.5077427586001377e-07,0.0,9.788284148776773,0.0,0.0,-0.0008897888042758804,0.0,0.0,0.0,306.309677076144,0.5002691289319481,33527.53118590402,233.47026434000003,-0.0,0.31956048931708403,-6.282285715046443,0.0,0.0,0.0,0.383320395724,3448.4108199282523
12.3,6386546.070946321,5729.27390360352,0.0,-118.6183608269136,465.84765410928003,0.0,0.0,0.23940593985853684,118.2004083794064,8411.640757218242,1.544924646344829e-07,0.0,9.78832029609908,0.0,0.0,-0.0008970846374638127,0.0,0.0,0.0,306.35974173192,0.5009655314906897,33585.17932079798,233.5465894716667,-0.0,0.3224235553856547,-6.391290898390645,0.0,0.0,0.0,0.386295568852,3508.1705028229567
12.4,6386534.162349361,5775.858735777841,0.0,-119.553023500536,465.848991568632,0.0,0.0,0.2433163836828456,119.13166990778642,8399.77414703736,1.582716372745996e-07,0.0,9.788356729663063,0.0,0.0,-0.0009043805316370397,0.0,0.0,0.0,306.410194459056,0.5016681975383979,33643.36503445974,233.62351885222225,-0.0,0.32529250826451744,-6.501369343975543,0.0,0.0,0.0,0.389266905361,3568.5185696201797
12.5,6386522.16036168,5822.44370233848,0.0,-120.48693185908081,465.850341564408,0.0,0.0,0.2472590829058896,120.0621770433648,8387.81444837616,1.621122990215919e-07,0.0,9.788393449224909,0.0,0.0,-0.0009116764872982164,0.0,0.0,0.0,306.461034751584,0.5023771409985465,33702.08997229439,233.70105200111112,-0.0,0.3281673812130253,-6.612525299986228,0.0,0.0,0.0,0.39223437096,3629.4573489763184
12.6,6386510.06501376,5869.02880450464,0.0,-121.4200785333984,465.85170413623206,0.0,0.0,0.2512340494883256,120.99192241577282,8375.76173700792,1.6601495531007024e-07,0.0,9.788430454571285,0.0,0.0,-0.0009189725049552333,0.0,0.0,0.0,306.512262100488,0.503092375898201,33761.35579344867,233.7791884338889,-0.0,0.33104820716314215,-6.724763038494738,0.0,0.0,0.0,0.395197931392,3690.989182700474
12.7,6386497.87636656,5915.614043586961,0.0,-122.3524561244688,465.8530793206801,0.0,0.0,0.2552412953185728,121.9208986259904,8363.61608952888,1.6998011176663136e-07,0.0,9.788467745458385,0.0,0.0,-0.0009262685851124909,0.0,0.0,0.0,306.563875990656,0.5038139163695641,33821.164170667296,233.85792766055556,-0.0,0.3339350187123258,-6.8380868552821354,0.0,0.0,0.0,0.39815755243,3753.116425548572
12.8,6386485.594542,5962.19942080464,0.0,-123.28405720431601,465.854467163472,0.0,0.0,0.2592808322106792,122.8490982448224,8351.377583175361,1.7400827420863638e-07,0.0,9.788505321703356,0.0,0.0,-0.0009335647282743889,0.0,0.0,0.0,306.61587590392804,0.504541776646883,33881.51679048454,233.9372691877778,-0.0,0.3368278481172999,-6.952501069304715,0.0,0.0,0.0,0.401113199872,3815.841445065354
12.9,6386473.21957056,6008.78493743784,0.0,-124.2148743147888,465.855867701184,0.0,0.0,0.2633526719003592,123.776513813508,8339.04629600664,1.780999486440365e-07,0.0,9.788543183001426,0.0,0.0,-0.0009408609349488185,0.0,0.0,0.0,306.668261313,0.5052759710679969,33942.41535293685,234.01721251611113,-0.0,0.33972672728827197,-7.068010022694004,0.0,0.0,0.0,0.404064839547,3879.1666213689186
13.0,6386460.7515741605,6055.37059476672,0.0,-125.14489996786561,465.85728097953603,0.0,0.0,0.267456826039812,124.703137843416,8326.62230681352,1.822556412696274e-07,0.0,9.78858132916975,0.0,0.0,-0.0009481572056419252,0.0,0.0,0.0,306.721031696664,0.5060165140733045,34003.8615718981,234.09775714166668,-0.0,0.34263168778181574,-7.184618080045055,0.0,0.0,0.0,0.407012437307,3943.094347011865
13.1,6386448.190613761,6101.956394040961,0.0,-126.07412664595921,465.85870703815203,0.0,0.0,0.2715933061965024,125.62896281665441,8314.10569508784,1.864758584698278e-07,0.0,9.788619759934036,0.0,0.0,-0.0009554535408581089,0.0,0.0,0.0,306.77418651847205,0.5067634202062808,34065.85717479228,234.17890255666666,-0.0,0.345542760794644,-7.302329628371951,0.0,0.0,0.0,0.409955959027,4007.6270267371106
13.2,6386435.5367808,6148.54233660168,0.0,-127.00254680100241,465.86014591970405,0.0,0.0,0.27576212384584564,126.553981183632,8301.49654111392,1.9076110681598113e-07,0.0,9.788658475080952,0.0,0.0,-0.0009627499411070059,0.0,0.0,0.0,306.827725241976,0.5075167041124458,34128.40390278501,234.26064824722224,-0.0,0.3484599771569358,-7.4211490764405825,0.0,0.0,0.0,0.412895370604,4072.76707733903
13.3,6386422.79013624,6195.12842366808,0.0,-127.9301528547528,465.86159766686404,0.0,0.0,0.2799632903696832,127.4781853661064,8288.794925968561,1.9511189305919965e-07,0.0,9.78869747433621,0.0,0.0,-0.0009700464068930163,0.0,0.0,0.0,306.881647330728,0.5082763805388487,34191.50351068777,234.342993695,-0.0,0.35138336732655423,-7.541080854813124,0.0,0.0,0.0,0.415830637957,4138.516927424059
13.4,6386409.950771521,6241.714656550801,0.0,-128.8569371981832,465.863062319256,0.0,0.0,0.2841968170514064,128.401567754136,8276.000931460081,1.9952872414083658e-07,0.0,9.788736757486484,0.0,0.0,-0.000977342938724031,0.0,0.0,0.0,306.935952236088,0.5090424643340691,34255.157766957935,234.42593837722222,-0.0,0.35431296138281865,-7.662129415136325,0.0,0.0,0.0,0.418761727023,4204.879017238326
13.5,6386397.01877808,6288.3010365604805,0.0,-129.7828921920912,465.864539919552,0.0,0.0,0.2884627150716888,129.3241207079088,8263.11464006736,2.0401210717852345e-07,0.0,9.788776324257483,0.0,0.0,-0.0009846395371079404,0.0,0.0,0.0,306.990639412464,0.5098149704492458,34319.36845369875,234.50948176555556,-0.0,0.35724878901849805,-7.784299229919086,0.0,0.0,0.0,0.421688603754,4271.8557984474
13.6,6386383.99424736,6334.88756497728,0.0,-130.7080101661848,465.866030513472,0.0,0.0,0.29276099550421925,130.24583655652322,8250.136135214161,2.085625494731513e-07,0.0,9.7888161744054,0.0,0.0,-0.0009919362025491453,0.0,0.0,0.0,307.04570830512006,0.5105939139349872,34384.13736675507,234.59362332666666,-0.0,0.3601908795358074,-7.907594792176616,0.0,0.0,0.0,0.424611234124,4339.449733949557
13.7,6386370.87720984,6381.47424311184,0.0,-131.632283419692,465.86753414064003,0.0,0.0,0.29709166931265363,131.1667075982928,8237.06550093384,2.1318055850538003e-07,0.0,9.788856307686423,0.0,0.0,-0.000999232935559027,0.0,0.0,0.0,307.10115835932,0.5113793099423992,34449.46631552191,234.6783625238889,-0.0,0.3631392618384012,-8.032020615030085,0.0,0.0,0.0,0.427529584119,4407.663297655536
13.8,6386357.6678179195,6428.061072244321,0.0,-132.5557042207512,465.869050846776,0.0,0.0,0.301454747344824,132.0867261004416,8223.902822113201,2.1786664192691188e-07,0.0,9.788896723856748,0.0,0.0,-0.0010065297366419852,0.0,0.0,0.0,307.156989008136,0.5121711737241184,34515.357123183734,234.7636988127778,-0.0,0.36609396442559045,-8.157581231261798,0.0,0.0,0.0,0.430443619738,4476.498974277858
13.9,6386344.36610208,6474.64805371584,0.0,-133.47826480580162,465.870580674552,0.0,0.0,0.30585024032877606,133.0058842994088,8210.64818437056,2.2262130756921802e-07,0.0,9.788937422611605,0.0,0.0,-0.0010138266063076564,0.0,0.0,0.0,307.213199690736,0.5129695206322484,34581.811626427305,234.84963164722225,-0.0,0.3690550153865602,-8.28428119300383,0.0,0.0,0.0,0.433353306997,4545.959259115375
14.0,6386330.97218424,6521.2351888065605,0.0,-134.3999573804976,465.87212366664005,0.0,0.0,0.310278158869416,133.9241743996296,8197.301674177681,2.2744506343655715e-07,0.0,9.788978403737667,0.0,0.0,-0.0010211235450639316,0.0,0.0,0.0,307.269789837144,0.5137743661178469,34648.83167568099,234.93616047277777,-0.0,0.3720224423928076,-8.412125071337677,0.0,0.0,0.0,0.436258611921,4616.046657852162
14.1,6386317.48612536,6567.82247888808,0.0,-135.3207741190992,465.87367986571206,0.0,0.0,0.31473851344272,134.8415885747544,8183.86337870736,2.3233841770073961e-07,0.0,9.789019666960648,0.0,0.0,-0.0010284205534169559,0.0,0.0,0.0,307.32675886824,0.5145857257314385,34716.41913506689,235.0232847327778,-0.0,0.37499627269280356,-8.541117455760471,0.0,0.0,0.0,0.439159500549,4686.763686308547
14.2,6386303.90804736,6614.40992524056,0.0,-136.2407071638624,465.87524931444005,0.0,0.0,0.319231314396648,135.7581189667344,8170.3333859248805,2.373018787081087e-07,0.0,9.789061211975778,0.0,0.0,-0.0010357176318781108,0.0,0.0,0.0,307.384106211,0.5154036151219856,34784.57588225727,235.11100386333334,-0.0,0.37797653310532126,-8.671262954007057,0.0,0.0,0.0,0.442055938928,4758.112870225648
14.3,6386290.2380112,6660.9975291746405,0.0,-137.15974862625842,465.87683206159204,0.0,0.0,0.323756571932856,136.6737576858216,8156.71178461848,2.4233595496732324e-07,0.0,9.789103038600208,0.0,0.0,-0.0010430147809552873,0.0,0.0,0.0,307.44183127716,0.5162280500425575,34853.30380852234,235.19931729722222,-0.0,0.38096325001231807,-8.80256619138275,0.0,0.0,0.0,0.444947893117,4830.096745040335
14.4,6386276.4761388,6707.585292092401,0.0,-138.07789058514481,465.87842814984,0.0,0.0,0.32831429611888796,137.588496810264,8142.998664368881,2.474411551545938e-07,0.0,9.789145146468218,0.0,0.0,-0.001050312001154631,0.0,0.0,0.0,307.499933484552,0.5170590463333219,34922.60481896973,235.2882244616667,-0.0,0.38395644935493295,-8.935031810496453,0.0,0.0,0.0,0.447835329181,4902.717855717649
14.5,6386262.62249112,6754.1732152740005,0.0,-138.9951250879848,465.88003762185605,0.0,0.0,0.332904496875984,138.5023283869152,8129.194115518801,2.526179881084465e-07,0.0,9.789187535366477,0.0,0.0,-0.001057609292987523,0.0,0.0,0.0,307.558412238816,0.5178966199400995,34992.48083206566,235.3777247777778,-0.0,0.3869561566241446,-9.068664470860302,0.0,0.0,0.0,0.450718213196,4975.978756300729
14.6,6386248.67712912,6800.761300060561,0.0,-139.911444149628,465.88166052336004,0.0,0.0,0.33752718396688797,139.41524443032,8115.29822920344,2.5786696282623226e-07,0.0,9.789230205020703,0.0,0.0,-0.0010649066569635999,0.0,0.0,0.0,307.617266945592,0.5187407869066327,35062.93378006586,235.46781766222225,-0.0,0.38996239685587886,-9.20346884831142,0.0,0.0,0.0,0.453596511243,5049.882010011359
14.7,6386234.640205201,6847.34954782368,0.0,-140.8268397538344,465.883296897024,0.0,0.0,0.342182367011088,140.3272369227144,8101.311097411441,2.6318858846587265e-07,0.0,9.789273155156604,0.0,0.0,-0.0010722040935890065,0.0,0.0,0.0,307.676497004424,0.5195915633694328,35133.96560882405,235.55850252722223,-0.0,0.39297519462478075,-9.339449634700514,0.0,0.0,0.0,0.456470189413,5124.43018864189
14.8,6386220.511810801,6893.937959874001,0.0,-141.741303850836,465.884946788568,0.0,0.0,0.34687005545433597,141.2382978140256,8087.2328128934405,2.6858337434062323e-07,0.0,9.78931638543894,0.0,0.0,-0.001079501603375125,0.0,0.0,0.0,307.73610180876,0.5204489655680858,35205.578277744076,235.6497787788889,-0.0,0.3959945740370977,-9.47661153731363,0.0,0.0,0.0,0.459339213799,5199.625872603118
14.9,6386206.291976401,6940.526537613599,0.0,-142.6548283594704,465.886610243712,0.0,0.0,0.35159025858998405,142.1484190227864,8073.06346916208,2.74051829913838e-07,0.0,9.789359895654382,0.0,0.0,-0.0010867991868298457,0.0,0.0,0.0,307.796080752048,0.5213130098246394,35277.77375987564,235.74164581833335,-0.0,0.3990205587257864,-9.614959278560761,0.0,0.0,0.0,0.462203550503,5275.471650589127
15.0,6386191.980884881,6987.1152823836,0.0,-143.56740516596162,465.8882873081761,0.0,0.0,0.35634298553460003,143.0575924340016,8058.803160674881,2.7959446480245993e-07,0.0,9.789403685498161,0.0,0.0,-0.0010940968444645505,0.0,0.0,0.0,307.85643322164003,0.5221837125745237,35350.55404181858,235.83410304166668,-0.0,0.4020531718411713,-9.754497595442073,0.0,0.0,0.0,0.46506316563,5351.970119146361
