time,gePosition_m_X,gePosition_m_Y,gePosition_m_Z,feVelocity_m_s_X,feVelocity_m_s_Y,feVelocity_m_s_Z,altitudeMsl_m,longitude_rad,latitude_rad,localGravity_m_s2,eulerAngle_rad_Yaw,eulerAngle_rad_Pitch,eulerAngle_rad_Roll,bodyAngularRateWrtEi_rad_s_Roll,bodyAngularRateWrtEi_rad_s_Pitch,bodyAngularRateWrtEi_rad_s_Yaw,altitudeRateWrtMsl_m_s,speedOfSound_m_s,airDensity_kg_m3,ambientPressure_Pa,ambientTemperature_K,aero_bodyForce_N_X,aero_bodyForce_N_Y,aero_bodyForce_N_Z,aero_bodyMoment_Nm_L,aero_bodyMoment_Nm_M,aero_bodyMoment_Nm_N,mach,dynamicPressure_Pa,trueAirspeed_m_s
0.0,6387280.999951441,0.0,0.0,0.0,0.0,0.0,9144.0,0.0,0.0,9.78607229664024,0.0,-0.0,0.0,0.17453292519874922,0.34906585039849847,0.5235987755972477,0.0,303.2314967110032,0.45935725912772696,30180.552554021,228.79957777777778,0.0,0.0,-0.0,0.0,-0.0,0.0,0.0,0.0,0.0
0.1,6387280.95136632,2.370449814058632e-07,0.0,0.0,7.087644931575361e-06,0.975210801168096,9143.95140198696,3.711203299353818e-14,0.0,9.786072436817761,0.052501002355324566,0.034824631258549954,0.017884811334274303,0.16497125539576296,0.3566255597664876,0.5200047084552528,-0.975210801168096,303.231706656024,0.4593598618995028,30180.76153692701,228.79989272000003,0.0,0.0,0.0,0.0,-0.0,0.0,0.00321606954163,0.21843564222323142,0.9752142541607779
0.2,6387280.80506232,1.896359851965624e-06,0.0,0.0,2.8421693845662963e-05,1.95042163124952,9143.80512035928,2.968962708608564e-13,0.0,9.7860728758212,0.10536201040384861,0.06942342126170024,0.036647371898347346,0.1552772062537769,0.3637082707354774,0.5165441568782578,-1.9504216312495202,303.2323385972544,0.459367696329075,30181.39058251489,228.80084070611113,0.0,0.0,0.0,0.0,-0.0,0.0,0.00643212568852,0.8737574733599915,1.9504285113310558
0.3,6387280.561283281,6.40021452086616e-06,0.0,0.0,6.39784439070168e-05,2.925632520007992,9143.561317666801,1.002024955607615e-12,0.0,9.78607361410776,0.158698706683772,0.103702030183851,0.05629227948221912,0.145463489833791,0.3703160619204679,0.5132326517192626,-2.925632520007992,303.23339183274004,0.4593807537122107,30182.43899187591,228.8024206827778,0.0,0.0,0.0,0.0,-0.0,0.0,0.00964815514105,1.9660102455227,2.925642803324078
0.4,6387280.219937759,1.517087894101608e-05,0.0,0.0,0.00011375789774907841,3.90084349722552,9143.21999387904,2.3751704040945506e-12,0.0,9.786074651738401,0.2126252357166945,0.13756383544280235,0.0768294212131896,0.13554206285580525,0.3764514871354591,0.510084747414267,-3.90084349722552,303.23486636217604,0.4593990340494253,30183.90676501007,228.80463265111112,0.0,0.0,0.0,0.0,-0.0,0.0,0.0128641446006,3.4952685716984586,3.900857162128
0.5,6387279.7811172,2.96306231271036e-05,0.0,0.0,0.00017776005911457842,4.87605459267192,9142.781148965521,4.6390050448010935e-12,0.0,9.78607598865216,0.267253732436616,0.1709095128977544,0.09827308311655879,0.12552413916181965,0.382117458471451,0.5071140023052714,-4.87605459267192,303.236762186172,0.45942253734123417,30185.793901965237,228.80747660944445,0.0,0.0,0.0,0.0,-0.0,0.0,0.0160800807696,5.4616369261320905,4.876071619890456
0.6,6387279.244730161,5.1201717179292e-05,0.0,0.0,0.00025598493285440885,5.851265836098721,9142.24478295672,8.016201455643509e-12,0.0,9.78607762487952,0.32269365324153637,0.20363667347270742,0.12064084781682667,0.11542021068783416,0.3873171354364435,0.5043329655362754,-5.851265836098721,303.2390793044232,0.45945126358763727,30188.10040278931,228.81095255944444,0.0,0.0,0.0,0.0,-0.0,0.0,0.0192959503516,7.8652496445942734,5.851286208867112
0.7,6387278.6108376,8.13064313063448e-05,0.0,0.0,0.00034843252499690405,6.82647725734584,9141.61089579168,1.2729432401482023e-11,0.0,9.78607956042048,0.3790508684894554,0.23563957303966146,0.14395225069979317,0.1052400761388488,0.39205382083843665,0.501753169505279,-6.826477257345839,303.2418177172344,0.4594852127906962,30190.826267578035,228.81506050055557,0.0,0.0,0.0,0.0,-0.0,0.0,0.0225117400516,10.706270924807674,6.826500961473111
0.8,6387277.879439521,0.0001213670358462912,0.0,0.0,0.000455102842683528,7.80168888613128,9140.8794874704,1.9001370871504034e-11,0.0,9.78608179530552,0.43642647696037296,0.26680891780561666,0.16822716361675827,0.09499287655156352,0.39633086397043055,0.4993851269102825,-7.801688886131281,303.2449774243008,0.459524384950411,30193.9714963793,228.81980043222222,0.0,0.0,0.0,0.0,-0.0,0.0,0.0257274365757,13.984894826490038,7.801715910185334
0.9,6387277.050505441,0.0001728058012857504,0.0,0.0,0.000575995893811344,8.776900752234,9140.050557992881,2.7054690115806206e-11,0.0,9.786084329473681,0.49491530748928897,0.2970317920305732,0.19348387753672197,0.08468713696317834,0.4001515715074251,0.49723833144828566,-8.776900752234,303.248558426232,0.45956878006832763,30197.536089336743,228.82517235611112,0.0,0.0,0.0,0.0,-0.0,0.0,0.0289430266319,17.701345271727654,8.776931087568112
1.0,6387276.12406584,0.0002370449982862968,0.0,0.0,0.00071111168787792,9.75211288546344,9139.12410732864,3.7112063684454944e-11,0.0,9.786087162955441,0.5546040820472032,0.32619173954953135,0.21973686288968428,0.07433081345339321,0.40351912643342025,0.49532126129028836,-9.75211288546344,303.2525607224184,0.4596183981454769,30201.520046546124,228.83117627111113,0.0,0.0,0.0,0.0,-0.0,0.0,0.0321584969297,21.855876045166884,9.75214652618578
1.1,6387275.10009024,0.000315506897704272,0.0,0.0,0.0008604502349294641,10.72732531556808,9138.10013541672,4.9396165463352905e-11,0.0,9.786090295750801,0.6155692298211156,0.35416903449049114,0.24699420012364512,0.06393134483970814,0.40643651521041607,0.4936413844982907,-10.72732531556808,303.2569843137744,0.45967323918443576,30205.923368103206,228.8378121777778,0.0,0.0,0.0,0.0,-0.0,0.0,0.0353738341804,26.448770793966276,10.727362258757001
1.2,6387273.9786091205,0.00040961377060572,0.0,0.0,0.0010240115464721761,11.702538072326881,9136.978642257121,6.412966971190321e-11,0.0,9.786093727859761,0.677874364774026,0.3808411791734528,0.2752546949026045,0.05349570837342313,0.40890646332841246,0.49220516565229283,-11.70253807232688,303.26182919999525,0.4597333031857196,30210.746054151627,228.84508007666668,0.0,0.0,0.0,0.0,-0.0,0.0,0.0385890250973,31.480343028371127,11.702578317949001
1.3,6387272.759592,0.000520787888304792,0.0,0.0,0.001201795635048576,12.677751185518801,9135.75962778888,8.153525110105763e-11,0.0,9.78609745928232,0.7415674711069347,0.40608366728741657,0.3045047234415625,0.043030478816838184,0.4109313793294096,0.4910180730072945,-12.677751185518801,303.2670953810808,0.4597985901513899,30215.988104882912,228.85297996777777,0.0,0.0,0.0,0.0,-0.0,0.0,0.0418040563958,36.95093612137832,12.67779473653189
1.4,6387271.443038881,0.000650451522359784,0.0,0.0,0.0013938025139662322,13.652964684922802,9134.443092012001,1.0183558474996844e-10,0.0,9.78610149001848,0.8066778823268409,0.4297710469273825,0.33471489419551903,0.03254189033035325,0.41251330733440733,0.4900845855882958,-13.652964684922802,303.27278285764083,0.4598691000840236,30221.649520344934,228.86151185111112,0.0,0.0,0.0,0.0,-0.0,0.0,0.0450189147937,42.86092330926301,13.65301154727578
1.5,6387270.028980241,0.000800026944624648,0.0,0.0,0.001600032198126816,14.628178600317842,9133.02903483504,1.2525334626438575e-10,0.0,9.786105820068242,0.8732131890737453,0.4517783095903509,0.3658366610334744,0.022035900636468337,0.4136538880894056,0.4894081997272968,-14.62817860031784,303.27889162967523,0.45994483298516675,30227.730300824987,228.87067572722222,0.0,0.0,0.0,0.0,-0.0,0.0,0.0482335870109,49.21070769153076,14.62822878284789
1.6,6387268.51741608,0.00097093642725204,0.0,0.0,0.001820484703258008,15.603392961482882,9131.517456258001,1.5201121177313486e-10,0.0,9.7861104494316,0.9411562649306477,0.47198261661032187,0.3977990768284284,0.01151825696628345,0.4143543285244046,0.4889914346222974,-15.603392961482882,303.285421697184,0.4600257888573963,30234.230446466696,228.8804715961111,0.0,0.0,0.0,0.0,-0.0,0.0,0.0514480597701,56.000722230821744,15.603446476069779
1.7,6387266.90831592,0.0011646022427146561,0.0,0.0,0.002055160045995792,16.578607798166402,9129.908356219921,1.823318579654663e-10,0.0,9.78611537813904,1.010462651888548,0.4902653530662956,0.4305059285763815,0.0009945633235735698,0.41461537979140434,0.48883583659129765,-16.578607798166402,303.292373060472,0.46011196770328916,30241.149957461603,228.89089945833334,0.0,0.0,0.0,0.0,-0.0,0.0,0.0546623197967,63.23142975319806,16.57866465966011
1.8,6387265.201679761,0.001382446663835712,0.0,0.0,0.002304058244430048,17.55382314017784,9128.201734690321,2.164379621289294e-10,0.0,9.7861206061296,1.0810585884484467,0.5065144711062722,0.46383353632933355,-0.009529651373656307,0.41443732378540454,0.4889419817922975,-17.55382314017784,303.299745719844,0.4602033695254222,30248.488834049087,228.90195931388888,0.0,0.0,0.0,0.0,-0.0,-0.0,0.0578763538189,70.90332294886191,17.553883366337555
1.9,6387263.39753808,0.001625891963798088,0.0,0.0,0.0025671793173364563,18.52903901729616,9126.397591577761,2.5455220218742055e-10,0.0,9.78612613346424,1.1528399822283435,0.520627051414252,0.49762951692428503,-0.020048864697771195,0.41381996811940547,0.48930947725229695,-18.529039017296164,303.3075396756048,0.46029999432585694,30256.247076372805,228.91365116333333,0.0,0.0,0.0,0.0,-0.0,-0.0,0.061090148568,79.01692437095862,18.52910262871789
2.0,6387261.49589088,0.001896360416187,0.0,0.0,0.0028445232848165764,19.50425545923936,9124.49592688224,2.968972567362644e-10,0.0,9.786131960112481,1.225672612928239,0.5325119763592349,0.5317127975532361,-0.030557492077356096,0.41276264954940695,0.48993696016429605,-19.50425545923936,303.31575492744963,0.4604018421087163,30264.42468476791,228.9259750072222,0.0,0.0,0.0,0.0,-0.0,-0.0,0.0643036907783,87.57278643653424,19.504322479571222
2.1,6387259.496707681,0.0021952742949900004,0.0,0.0,0.00313609016835576,20.47947249587784,9122.49674048184,3.436958050828798e-10,0.0,9.78613808607432,1.299393791998133,0.5420925759082211,0.565875104581187,-0.04104981853784102,0.41126424586140903,0.49082209548029476,-20.47947249587784,303.3243914762928,0.460508912876062,30273.021659425933,228.93893084555557,0.0,0.0,0.0,0.0,-0.0,-0.0,0.0675169671877,96.57149142605671,20.479542951359
2.2,6387257.39998848,0.002524055874624408,0.0,0.0,0.0034418799898660803,21.45469015689912,9120.40003234608,3.951705272799413e-10,0.0,9.78614451138024,1.3738155991180263,0.5493090836262108,0.5998840466191381,-0.051519931238125975,0.4093231962224119,0.4919615719292932,-21.454690156899122,303.3334493221344,0.460621206632017,30282.03800063414,228.95251867944447,0.0,0.0,0.0,0.0,-0.0,-0.0,0.0707299645374,106.0136514834159,21.454764076748447
2.3,6387255.20576376,0.0028841274299769362,0.0,0.0,0.00376189277281104,22.429908472143122,9118.205802414,4.515441041672669e-10,0.0,9.786151235969282,1.4487296689779183,0.5541207307832039,0.6334877646700898,-0.06196165324071098,0.4069375300174153,0.49335109668529115,-22.429908472143122,303.3429284652792,0.4607387233796735,30291.47370867983,228.96673850833335,0.0,0.0,0.0,0.0,-0.0,-0.0,0.0739426695722,115.89990861735997,22.42998588804667
2.4,6387252.914003041,0.00327691123640064,0.0,0.0,0.00409612854145272,23.40512747132784,9115.91405062464,5.130392174102153e-10,0.0,9.786158259932881,1.5239133338678106,0.5565073164672003,0.6664209535990424,-0.07236847897359602,0.4041049041994194,0.4949853889842888,-23.405127471327837,303.352828906032,0.4608614631221238,30301.32878380239,228.98159033277778,0.0,0.0,0.0,0.0,-0.0,-0.0,0.0771550690408,126.23093469958027,23.405208417766556
2.5,6387250.524736799,0.0037038295697301602,0.0,0.0,0.004444587321455281,24.3803471842932,9113.52477691704,5.798785495258659e-10,0.0,9.7861655831796,1.599136762997702,0.5564701221352005,0.6984118951169965,-0.08273351187348113,0.400822649147424,0.4968581730972862,-24.3803471842932,303.3631506446976,0.4609894258640064,30311.603226289117,228.9970741538889,0.0,0.0,0.0,0.0,-0.0,-0.0,0.0803671496954,137.00743146423235,24.380431698060892
2.6,6387248.03793456,0.00416630470635792,0.0,0.0,0.0048072691393668005,25.35556764078768,9111.03798116928,6.522847839353788e-10,0.0,9.786173205770401,1.6741706102675942,0.5540320881602041,0.7291900128379523,-0.09304940473466632,0.3970878230374295,0.49896217114428315,-25.355567640787683,303.373893681276,0.4611226116084134,30322.29703657092,229.01318997222222,0.0,0.0,0.0,0.0,-0.0,-0.0,0.0835788982927,148.23013051033018,25.35565576113389
2.7,6387245.4536268,0.0046657589231853605,0.0,0.0,0.005184174022924081,26.330788870559765,9108.453663350881,7.304806049936649e-10,0.0,9.786181127674801,1.7487936129174873,0.5492372314062108,0.7584933911039102,-0.10330830332885156,0.39289727470043545,0.5012890963222798,-26.33078887055976,303.38505801637683,0.46126102035998334,30333.41021483933,229.02993778722222,0.0,0.0,0.0,0.0,-0.0,-0.0,0.0867903015933,159.89979329935193,26.330880638932555
2.8,6387242.771783041,0.00520361449772352,0.0,0.0,0.00557530200074784,27.306010903418883,9105.771823370402,8.146886980260383e-10,0.0,9.78618934892328,1.8227995902773813,0.5421493477282211,0.7860757055458706,-0.11350179390283692,0.3882477148704422,0.503829647196276,-27.306010903418883,303.39664365060963,0.46140465212232384,30344.942761525257,229.0473176,0.0,0.0,0.0,0.0,-0.0,-0.0,0.0900013463619,172.01721115524018,27.306106363352445
2.9,6387239.99240328,0.00578129370797112,0.0,0.0,0.00598065310279992,28.281233769174484,9102.9924611364,9.051317493683592e-10,0.0,9.78619786951584,1.896003371487276,0.5328501018532342,0.8117120935148338,-0.12362085520482238,0.3831357957204495,0.5065735038002721,-28.281233769174484,303.4086505836696,0.4615535069005887,30356.894676916,229.06532941166668,0.0,0.0,0.0,0.0,-0.0,-0.0,0.0932120193677,184.58320526583822,28.281332965980447
3.0,6387237.115518,0.006400218832627921,0.0,0.0,0.0064002273598956,29.25645749751408,9100.11557658792,1.0020324464036847e-09,0.0,9.786206689422,1.968245318767172,0.5214366508352508,0.8352036296477999,-0.13365581574880797,0.37755819846845756,0.5095093263512679,-29.25645749751408,303.421078816776,0.46170758469890094,30369.265961394583,229.08397322166667,0.0,0.0,0.0,0.0,-0.0,-0.0,0.0964223073845,197.59862667905955,29.256560478352
3.1,6387234.141127201,0.007061812151003281,0.0,0.0,0.006834024804130321,30.231682118308083,9097.14116960304,1.1056134775971765e-09,0.0,9.78621580864176,2.03939427911707,0.5080189712592701,0.8563802386857695,-0.1435963170297937,0.3715117287584663,0.5126247574352635,-30.231682118308083,303.4339283493192,0.461866885521899,30382.056615391946,229.10324903111112,0.0,0.0,0.0,0.0,-0.0,-0.0,0.0996321971903,211.06435630576078,30.231788931591
3.2,6387231.0692004,0.00776749594301616,0.0,0.0,0.00728204546863584,31.206907661244,9094.069240120802,1.2160975325414784e-09,0.0,9.78622522723608,2.109348964316969,0.4927170634902921,0.8751020440667426,-0.15343128349377955,0.3649934194404756,0.5159064286202587,-31.206907661244,303.44719918251843,0.4620314093747366,30395.266639243244,229.12315684111113,0.0,0.0,0.0,0.0,-0.0,-0.0,0.102841675568,224.9813049178266,31.207018356718446
3.3,6387227.8997376,0.00851869248931704,0.0,0.0,0.0077442893876412,32.1821341561008,9090.89978804976,1.3337073019811523e-09,0.0,9.786234945144,2.1780378992568705,0.4756581912033166,0.8912592913767193,-0.1631489000447656,0.3580006402014857,0.5193399724312537,-32.1821341561008,303.4608913163736,0.4622011562620522,30408.89603337939,229.1436966511111,0.0,0.0,0.0,0.0,-0.0,-0.0,0.106050729305,239.35041314721173,32.18224878439522
3.4,6387224.63276928,0.009316824071166002,0.0,0.0,0.0082207565961984,33.1573616330232,9087.632813268001,1.458665477861546e-09,0.0,9.786244962396,2.2454181777067737,0.4569742863943434,0.9047710845547,-0.17273659790875182,0.35053121340149634,0.5229100407062487,-33.15736163302321,303.4750047514944,0.46237612618899954,30422.94479813556,229.1648684627778,0.0,0.0,0.0,0.0,-0.0,-0.0,0.109259345194,254.17265148546258,33.157480244973556
3.5,6387221.2682649605,0.010163312970646082,0.0,0.0,0.0087114471309444,34.132590121272,9084.268315684081,1.5911947533637008e-09,0.0,9.786255278992082,2.311473316536679,0.4367996152953724,0.9155832247306845,-0.18218104967973825,0.3425835352905077,0.5266003303202433,-34.132590121272,303.48953948788085,0.46255631916176326,30437.412934086315,229.1866722761111,0.0,0.0,0.0,0.0,-0.0,-0.0,0.112467510032,269.44902028275936,34.132712768394114
3.6,6387217.80625512,0.0110595814704804,0.0,0.0,0.009216361029095281,35.1078196507176,9080.806295206561,1.7315178229340215e-09,0.0,9.78626589490176,2.3762105087965866,0.4152687646894033,0.9236654509996729,-0.19146817434172492,0.3341567015995198,0.530393617272238,-35.1078196507176,303.504495526752,0.4627417351844663,30452.30044151893,229.2091080922222,0.0,0.0,0.0,0.0,-0.0,-0.0,0.115675210621,285.1805497479161,35.107946384288894
3.7,6387214.24670928,0.012007051854215042,0.0,0.0,0.009735498329208241,36.083050251230404,9077.246751713521,1.879857382329655e-09,0.0,9.786276810186001,2.4396575525864947,0.392514975571436,0.9290083591146652,-0.20058315302971177,0.3252506363505327,0.5342718000782324,-36.083050251230404,303.5198728678032,0.4629323742638086,30467.607321007978,229.2321759116667,0.0,0.0,0.0,0.0,-0.0,-0.0,0.118882433769,301.36829994598685,36.08318112198123
3.8,6387210.589627441,0.0130071464061276,0.0,0.0,0.010268859071151121,37.0582819526808,9073.58968511352,2.036436128656888e-09,0.0,9.78628802481432,2.5018596889164053,0.3686688245444703,0.9316202302226614,-0.20951045623469897,0.3158662225035462,0.5382159533452266,-37.0582819526808,303.5356715119488,0.46312823640545936,30483.333572984375,229.255875735,0.0,0.0,0.0,0.0,-0.0,-0.0,0.122089166289,318.0133607982654,37.05841701012567
3.9,6387206.835040079,0.014061287411349122,0.0,0.0,0.01081644329546232,38.0335147849392,9069.83509531512,2.2014767604165253e-09,0.0,9.78629953878672,2.5628765281263175,0.3438572338305059,0.9315239486476615,-0.21823388305868643,0.30600543288756027,0.542206392317221,-38.0335147849392,303.5518914594936,0.4633293216150878,30499.479197879045,229.28020756277778,0.0,0.0,0.0,0.0,-0.0,-0.0,0.125295394997,335.1168520822855,38.03365407711956
4.0,6387202.982947201,0.01517089715580312,0.0,0.0,0.011378251043808001,39.008748777266405,9065.98298213544,2.375201977502145e-09,0.0,9.786311352103201,2.6227791908862312,0.3182027782205428,0.9287541342606656,-0.2267366130066742,0.29567145968157516,0.5462227490392152,-39.008748777266405,303.56853271074243,0.4635356298988783,30516.044196218667,229.30517139611112,0.0,0.0,0.0,0.0,-0.0,-0.0,0.128501106717,352.6799234275115,39.00889235084578
4.1,6387199.03328784,0.01633739792623608,0.0,0.0,0.011954282359134481,39.9839839601424,9062.03334551352,2.5578344812908527e-09,0.0,9.786323464763761,2.6816477414061466,0.29182325067458065,0.9233545670626733,-0.23500127066766235,0.2848688405105907,0.5502440606232094,-39.98398396014241,303.5855952669144,0.46374716126301546,30533.028568529935,229.33076723611111,0.0,0.0,0.0,0.0,-0.0,-0.0,0.131706288278,370.7037543182111,39.98413185862133
4.2,6387194.98615344,0.01756221201030888,0.0,0.0,0.01254453728554632,40.959220362828006,9057.98618529696,2.7495969746432874e-09,0.0,9.78633587679888,2.739568950726064,0.2648314462976195,0.9153759423086848,-0.24301000343465085,0.2736035790926069,0.5542488699132037,-40.959220362828,303.6030791277048,0.4639639157147147,30550.43231533952,229.35699508222223,0.0,0.0,0.0,0.0,-0.0,-0.0,0.134910926514,389.1895540901042,40.95937262735167
4.3,6387190.84145256,0.018846761696566322,0.0,0.0,0.01314901586797104,41.9344580154984,9053.84150139432,2.9507121619385215e-09,0.0,9.7863485881476,2.7966343973459815,0.237335125750659,0.9048739648176999,-0.25074457221963975,0.26188325822562375,0.5582153385991979,-41.93445801549841,303.620984294028,0.4641858932596451,30568.255437078362,229.3838549366667,0.0,0.0,0.0,0.0,-0.0,-0.0,0.138115008265,408.1385619298831,41.93461468327345
4.4,6387186.59924616,0.02019246927440664,0.0,0.0,0.0137677181524944,42.9096969474144,9049.5992936532,3.1614027491787857e-09,0.0,9.78636159890136,2.8529388912759006,0.20943712252769908,0.8919077704377186,-0.25818645487762903,0.24971714280364124,0.5621213725801925,-42.9096969474144,303.6393107664936,0.464413093905022,30586.497934416762,229.41134680000002,0.0,0.0,0.0,0.0,-0.0,-0.0,0.141318520378,427.55204687569267,42.90985805236612
4.5,6387182.25950376,0.02160075703423392,0.0,0.0,0.01440064418645184,43.8849371887512,9045.25956195168,3.381891443919652e-09,0.0,9.786374908999202,2.908579193135821,0.1812355629487396,0.8765386497647407,-0.26531696177961883,0.23711627053465933,0.5659447590821869,-43.884937188751195,303.65805854540645,0.46464551765806067,30605.159807881424,229.43947067222223,0.0,0.0,0.0,0.0,-0.0,-0.0,0.144521449704,447.4313078152138,43.88510275983745
4.6,6387177.8222558405,0.023073047267366642,0.0,0.0,0.015047794018215122,44.8601787690744,9040.82230616784,3.61240095539221e-09,0.0,9.78638851844112,2.963652992425742,0.15282417246278043,0.858829042484766,-0.27211736271060905,0.22409352798267804,0.5696633147261816,-44.8601787690744,303.6772276316808,0.46488316452494566,30624.241057999017,229.46822655444447,0.0,0.0,0.0,0.0,-0.0,-0.0,0.147723783102,467.7776734856644,44.86034883058656
4.7,6387173.28747192,0.024610762266068162,0.0,0.0,0.015709167696918002,45.8354217185592,9036.28752614928,3.853153994485611e-09,0.0,9.7864024272576,3.0182581048856636,0.12429264645482142,0.8388417685927948,-0.2785690239455998,0.21066370966869732,0.5732550434281763,-45.8354217185592,303.6968180256216,0.465126034513923,30643.741685344114,229.49761444833334,0.0,0.0,0.0,0.0,-0.0,-0.0,0.150925507438,488.5925024723624,45.83559628894667
4.8,6387168.65518248,0.02621532432369912,0.0,0.0,0.0163847652734316,46.8106660664664,9031.655221774081,4.104373273816883e-09,0.0,9.78641663544864,3.072491848615585,0.09572706777526246,0.8166394638708266,-0.284653554094591,0.19684355806671716,0.5766983026571714,-46.8106660664664,303.71682972783844,0.4653741276316927,30663.66169053916,229.52763435444447,0.0,0.0,0.0,0.0,-0.0,-0.0,0.154126609583,509.87718321590813,46.810845158942335
4.9,6387163.92535704,0.027888155734565042,0.0,0.0,0.01707458679877944,47.785911842971196,9026.92539288984,4.366281507800743e-09,0.0,9.78643114301424,3.126450559525508,0.06721035662980343,0.7922841901618616,-0.29035295696558283,0.18265178253473754,0.5799719762931667,-47.7859118429712,303.7372627392456,0.46562744388650074,30684.001074206586,229.55828627333335,0.0,0.0,0.0,0.0,-0.0,-0.0,0.157327076418,531.6331339997352,47.78609546403222
5.0,6387159.097995601,0.029630678793977284,0.0,0.0,0.0177786323260272,48.7611590776392,9022.098039374641,4.639101412597237e-09,0.0,9.78644594992392,-3.1029560981755417,0.03882274109914422,0.7658371954188996,-0.2956497894495752,0.16810905548875846,0.5830556519741622,-48.761159077639206,303.75811706014804,0.4658859832850471,30704.75983696885,229.58957020611112,0.0,0.0,0.0,0.0,-0.0,-0.0,0.160526894831,553.861802963517,48.761347227520666
5.1,6387154.17312864,0.031444315798466405,0.0,0.0,0.01849690190872824,49.7364078003408,9017.1731610456,4.923055706216458e-09,0.0,9.78646105623864,-3.0492642178656184,0.01064223847218471,0.7373588035479405,-0.3005273221575682,0.15323798448177983,0.5859298005871582,-49.73640780034081,303.7793926911552,0.46614974583660856,30725.937979448387,229.62148615388892,0.0,0.0,0.0,0.0,-0.0,-0.0,0.163726051715,576.564668095506,49.736600472351896
5.2,6387149.15072568,0.033330489045264006,0.0,0.0,0.01922939560174656,50.7116580406416,9012.15075775032,5.218367108536007e-09,0.0,9.78647646189744,-2.995567771925696,-0.01725486125437521,0.7069084191419842,-0.3049697003375619,0.13806305922480164,0.5885759552701544,-50.71165804064161,303.8010896331816,0.46641873154788505,30747.53550226764,229.65403411722224,0.0,0.0,-0.0,0.0,-0.0,-0.0,0.166924533976,599.7432372421101,50.71185522126434
5.3,6387144.03078672,0.035290620833400003,0.0,0.0,0.019976113461165363,51.6869098287168,9007.03082936688,5.525258341335888e-09,0.0,9.786492166961281,-2.941777654405773,-0.04479351780443565,0.6745446372410308,-0.3089621024105561,0.12261057310482382,0.590976887160151,-51.68690982871681,303.8232078868368,0.4666929404281534,30769.552406096944,229.68721409722224,0.0,0.0,-0.0,0.0,-0.0,-0.0,0.170122328525,623.3990480983157,51.68711149720223
5.4,6387138.81334224,0.037326133462392004,0.0,0.0,0.02073705554379936,52.662163194132006,9001.81337574288,5.8439521283508765e-09,0.0,9.78650817139968,-2.887807278675851,-0.0718994771203967,0.64032545266408,-0.312490893381551,0.1069085191998464,0.5931167749511478,-52.662163194132006,303.8457474524256,0.4669723724851443,30791.98869165449,229.72102609555557,0.0,0.0,-0.0,0.0,-0.0,-0.0,0.173319422286,647.5336682268406,52.662369321772225
5.5,6387133.498361761,0.0394384492329768,0.0,0.0,0.021512221907652004,53.637418166452804,8996.49839669544,6.174671195322876e-09,0.0,9.78652447521264,-2.8335729110559287,-0.09849883059055849,0.6043085673761317,-0.31554377031754666,0.09098646141116927,0.5949813653101451,-53.6374181664528,303.8684986141368,0.46727508642875,30816.77447296546,229.75547594833333,0.0,0.0,-0.0,0.0,-0.0,-0.0,0.176515924012,672.1746724622303,53.6376287189989
5.6,6387128.08584528,0.0416289904474152,0.0,0.0,0.022301612612067843,54.6126747758544,8991.085892041681,6.5176382699485595e-09,0.0,9.78654107843064,-2.778994068886007,-0.12451760659082109,0.566551797328186,-0.31810989713354293,0.07487538183979242,0.5965581212181429,-54.6126747758544,303.8915566420872,0.4675928785939748,30843.03294232338,229.79056100666668,0.0,0.0,-0.0,0.0,-0.0,-0.0,0.179711770897,697.3143138246134,54.61288971100334
5.7,6387122.57582328,0.043899179408882404,0.0,0.0,0.02310522771715344,55.587933052207205,8985.57586169016,6.873076082036447e-09,0.0,9.7865579810232,-2.7239940014460866,-0.14988140513978468,0.5271135821352426,-0.32018002603754,0.05860750614381579,0.597836355405141,-55.587933052207205,303.9150301432224,0.46791639692812564,30869.764552500663,229.8262782477778,0.0,0.0,-0.0,0.0,-0.0,-0.0,0.182906888119,722.9414406090771,55.588152320421116
5.8,6387116.968265281,0.0462504384217728,0.0,0.0,0.02392306728438696,56.563193024772,8979.96830539704,7.2412073634545485e-09,0.0,9.786575182990319,-2.6685002688561656,-0.17451508783074926,0.4860536016883017,-0.32174660316453774,0.04221610912823934,0.5988073462881397,-56.563193024772005,303.93891911845685,0.4682456414415101,30896.969304311275,229.86262767388888,0.0,0.0,-0.0,0.0,-0.0,-0.0,0.186101262822,749.057902010264,56.56341657143111
5.9,6387111.263171281,0.048684189792004805,0.0,0.0,0.02475513137622192,57.538454723724,8974.26322300992,7.622254848252534e-09,0.0,9.786592684392959,-2.6124454296862467,-0.19834253664571497,0.4434335029423629,-0.3228038562125361,0.025735303348063024,0.5994644340431386,-57.538454723723994,303.9632235687048,0.4685806121439203,30924.647198569175,229.89960928555558,0.0,0.0,-0.0,0.0,-0.0,-0.0,0.189294882161,775.6655799729415,57.538682487697784
6.0,6387105.46057176,0.0512018558264112,0.0,0.0,0.0256014200559348,58.5137181786288,8968.460614376401,8.016441272591925e-09,0.0,9.786610485170161,-2.555767842706328,-0.22128649646668205,0.3993177375294263,-0.32334786221653544,0.009199813937206782,0.5998030948661381,-58.5137181786288,303.9879434942712,0.468921309045664,30952.798236088336,229.9372230838889,0.0,0.0,-0.0,0.0,-0.0,-0.0,0.1924877333,802.7663891967908,58.5139500934
6.1,6387099.56043624,0.0538048588333488,0.0,0.0,0.026461933388448003,59.488983419356806,8962.5604793136,8.423989374868261e-09,0.0,9.786628585352402,-2.4984125812964106,-0.24326851706365046,0.35377450633549173,-0.32337659401553537,-0.007355256746229432,0.5998209918471381,-59.488983419356806,304.0130788960704,0.4692677321575639,30981.42241777848,229.9754690705556,0.0,0.0,-0.0,0.0,0.0,-0.0,0.19567980342,830.3622771220413,59.48921941323111
6.2,6387093.56276472,0.0564946211220888,0.0,0.0,0.027336671439049682,60.4642504757784,8956.562817638642,8.845121895711102e-09,0.0,9.78664698493968,-2.4403324505664936,-0.2642090106306204,0.30687680045955906,-0.3228899443805361,-0.023894670793365668,0.5995180013861386,-60.46425047577841,304.03862977501683,0.4696198814894124,31010.519744453577,230.01434724666666,0.0,0.0,-0.0,0.0,0.0,-0.0,0.19887107971,858.4552239629886,60.46449047291333
6.3,6387087.467587681,0.05927256500373121,0.0,0.0,0.028225634274795842,61.439519377459206,8950.467629168641,9.280061578053845e-09,0.0,9.786665683932,-2.381489086986578,-0.28402744042259187,0.25870351918462825,-0.32188972729753745,-0.04038329869804197,0.5988962145971396,-61.439519377459206,304.0645961320248,0.4699777570525478,31040.090217071225,230.0538576127778,0.0,0.0,-0.0,0.0,0.0,-0.0,0.202061549376,887.0472426888412,61.439763299197786
6.4,6387081.274874641,0.06214011279029041,0.0,0.0,0.029128821963443522,62.4147901545744,8944.27491369024,9.729031167133728e-09,0.0,9.78668468235984,-2.321854108516664,-0.3026426544145651,0.20934063479369922,-0.3203796563615397,-0.0567863614859184,0.597959913657141,-62.414790154574405,304.0909779673992,0.47034135885779293,31070.133836493278,230.09400017055555,0.0,0.0,-0.0,0.0,0.0,-0.0,0.205251199635,916.1403790285086,62.41503791883556
6.5,6387074.9846256,0.06509868679560961,0.0,0.0,0.03004623457393848,63.39006283638481,8937.98467108152,1.0192253410544168e-08,0.0,9.786703980162239,-2.2614102702767505,-0.31997337479654026,0.15888236186277171,-0.31836530076154257,-0.07306966696989502,0.5967155236131427,-63.39006283638481,304.1177752820544,0.47071068691545553,31100.65060367733,230.13477492111113,0.0,0.0,-0.0,0.0,0.0,-0.0,0.208440017719,945.7367114993305,63.39031435960667
6.6,6387068.5968405595,0.0681497093341416,0.0,0.0,0.030977872176415202,64.3653374533704,8931.59690106816,1.0669951058269699e-08,0.0,9.78672357740016,-2.200152567536839,-0.33593884949051733,0.10743227583784563,-0.3158540198175462,-0.08919983623817182,0.5951715406611447,-64.3653374533704,304.14498807720963,0.47108574123790464,31131.640519485245,230.17618186555555,0.0,0.0,-0.0,0.0,0.0,-0.0,0.211627990874,975.8383513783468,64.36559265083444
6.7,6387062.1115500005,0.0712946027230824,0.0,0.0,0.0319237348418616,65.3406140344872,8925.111603528241,1.116234686272085e-08,0.0,9.786743474073601,-2.1380892155669278,-0.3504596654154965,0.05510431359442083,-0.31285487746955054,-0.10514451675484893,0.5933384384091476,-65.3406140344872,304.17261635316964,0.47146652183647847,31163.103584874607,230.21822100555556,0.0,0.0,-0.0,0.0,0.0,-0.0,0.214815106359,1006.4474427214517,65.34087282132778
6.8,6387055.528723441,0.07453478927932321,0.0,0.0,0.0328838226424848,66.3158926102152,8918.528778187441,1.166966357880398e-08,0.0,9.78676367015208,-2.0752424259470184,-0.3634587151454778,0.0020235789414170917,-0.3093785385475555,-0.12087257880682634,0.5912285540511505,-66.3158926102152,304.2006601111536,0.47185302872200013,31195.039800898798,230.26089234222223,0.0,0.0,-0.0,0.0,0.0,-0.0,0.218001351449,1037.5661623633926,66.31615490195334
6.9,6387048.848391361,0.07787169132280321,0.0,0.0,0.0338581356517416,67.2911732098152,8911.84842492384,1.219212396390381e-08,0.0,9.78678416566608,-2.0116488940571093,-0.37486229904646146,-0.05167312930632576,-0.3054371489705611,-0.13635429247280406,0.588855956751154,-67.2911732098152,304.22911935207605,0.47224526190683874,31227.449168419655,230.30419587666668,0.0,0.0,-0.0,0.0,0.0,-0.0,0.221186713433,1069.1967199321336,67.29143892460668
7.0,6387042.0704928,0.0813067311740712,0.0,0.0,0.034846673944003204,68.2664558634624,8905.0705434936,1.2729950777953247e-08,0.0,9.78680496058512,-1.9473599134672022,-0.3846013345744474,-0.10583714805884795,-0.3010442023215675,-0.15156148279478224,0.5862363008251578,-68.26645586346241,304.25799407624163,0.47264322140336323,31260.33168849055,230.34813161055555,0.0,0.0,-0.0,0.0,0.0,-0.0,0.224371179613,1101.3413578201291,68.26672492066889
7.1,6387035.19508872,0.0848413311552,0.0,0.0,0.0358494375945552,69.2417406010272,8898.19513368336,1.328336678346828e-08,0.0,9.786826054970161,-1.882441042687295,-0.3926126339624359,-0.16030821166776962,-0.2962143954205744,-0.16646766136476082,0.5833866665351618,-69.2417406010272,304.2872842851744,0.4730469072223966,31293.687362069097,230.39269954444444,0.0,0.0,-0.0,0.0,0.0,-0.0,0.227554737309,1134.0023512226269,69.24201292306445
7.2,6387028.22214864,0.08847691359009122,0.0,0.0,0.0368664266799024,70.2170274517704,8891.222195310242,1.3852594745600345e-08,0.0,9.78684744879072,-1.8169712684873893,-0.39884020202142695,-0.21491519847969123,-0.29096347566558195,-0.18104813311373985,0.5803253913921662,-70.2170274517704,304.31698997948405,0.4734563193778542,31327.51619020864,230.43789968055557,0.0,0.0,-0.0,0.0,0.0,-0.0,0.230737373851,1167.1820081089393,70.21730296523224
7.3,6387021.15167256,0.0922149008038656,0.0,0.0,0.0378976412777688,71.1923164458672,8884.1517281304,1.4437857432136328e-08,0.0,9.786869142016322,-1.7510416378474842,-0.40323649860742067,-0.2694773886946128,-0.28530808292059007,-0.19528007765471941,0.5770718949641709,-71.1923164458672,304.3471111600848,0.4738714578810742,31361.818173962565,230.48373202000002,0.0,0.0,-0.0,0.0,0.0,-0.0,0.233919076587,1200.882669251173,71.19259508215445
7.4,6387013.98369096,0.0960567151237776,0.0,0.0,0.0389430814670976,72.167607613188,8876.98373193048,1.5039377613550924e-08,0.0,9.7868911347384,-1.6847533660275793,-0.40576360647441695,-0.32380622509253476,-0.2792655887395988,-0.20914260508769952,0.5736465000821759,-72.167607613188,304.377647828196,0.4742923227454566,31396.59331433635,230.53019656444445,0.0,0.0,-0.0,0.0,0.0,-0.0,0.23709983288,1235.1067081907115,72.1678893082989
7.5,6387006.71817336,0.1000037788776912,0.0,0.0,0.040002747327136795,73.14290098299361,8869.7182065276,1.5657378063076446e-08,0.0,9.786913426865521,-1.6182154679176748,-0.4063942458204161,-0.37770752896145726,-0.27285393556960796,-0.22261678667268014,0.5700702532831808,-73.14290098299361,304.4085999841224,0.47471891398285493,31431.841612383363,230.57729331444446,0.0,0.0,-0.0,0.0,0.0,-0.0,0.240279630104,1269.8565312717324,73.14318567916223
7.6,6386999.35511976,0.1040575143959088,0.0,0.0,0.041076638939267995,74.118196585764,8862.35515167792,1.629208155668537e-08,0.0,9.78693601845864,-1.5515419997677709,-0.4051125823604179,-0.4309840841843808,-0.2660914784376177,-0.23568566127966137,0.5663647470951862,-74.11819658576401,304.43996762938804,0.47515123160770006,31467.563069204854,230.62502227222225,0.0,0.0,-0.0,0.0,0.0,-0.0,0.243458455651,1305.1345776220542,74.11848423024112
7.7,6386991.89453016,0.1082193440102568,0.0,0.0,0.04216475638548241,75.0934944510648,8854.8945671376,1.694371087317761e-08,0.0,9.786958909517761,-1.4848490331078665,-0.4019147860994226,-0.4834384681513054,-0.25899683142862784,-0.24833421891964316,0.5625519465711918,-75.09349445106481,304.4717507646024,0.47558927563184544,31503.757685902063,230.67338343944445,0.0,0.0,-0.0,0.0,0.0,-0.0,0.246636296925,1340.9433191435608,75.09378499806111
7.8,6386984.33640456,0.112490690053476,0.0,0.0,0.0432670997486856,76.06879460815681,8847.33645269328,1.7612488794215423e-08,0.0,9.78698210004288,-1.4182515076479623,-0.39680931237542993,-0.5348759835162316,-0.2515887209646385,-0.26054936300262566,0.5586540222031973,-76.06879460815681,304.50394939068,0.4760330460697218,31540.425463576245,230.72237681666667,0.0,0.0,-0.0,0.0,0.0,-0.0,0.249813141346,1377.2852605457176,76.06908801914778
7.9,6386976.680773441,0.1168729748613552,0.0,0.0,0.0443836691130024,77.04409708752,8839.6808081316,1.829863810423613e-08,0.0,9.787005590034,-1.3518601215980577,-0.3898168939174399,-0.5851075336281594,-0.24388584767964958,-0.2723198532596088,0.554693191012203,-77.04409708752,304.53656350914486,0.4764825429342136,31577.56640332864,230.7720024061111,0.0,0.0,-0.0,0.0,0.0,-0.0,0.252988976347,1414.162939312056,77.04439333002667
8.0,6386968.92757584,0.121367620769988,0.0,0.0,0.045514464563472,78.01940191872,8831.927633208721,1.90023815908012e-08,0.0,9.78702937946064,-1.2857784142981525,-0.38097025071345264,-0.6339522884180891,-0.23590675831966104,-0.2836362314765925,0.5506915673202087,-78.01940191872,304.56959312030165,0.47693776623923606,31615.1805062605,230.8222602088889,0.0,0.0,-0.0,0.0,0.0,-0.0,0.256163789374,1451.5789257097483,78.01970096773779
8.1,6386961.07687272,0.1259760501182112,0.0,0.0,0.046659486186962404,78.9947091316272,8824.0769276808,1.972394204414245e-08,0.0,9.78705346838376,-1.220100177688247,-0.37031354156146806,-0.6812400059450212,-0.22766972886667286,-0.2944907323025769,0.5466710243712145,-78.99470913162722,304.6030382256744,0.4773987159987045,31653.267773616713,230.87315022666667,0.0,0.0,-0.0,0.0,0.0,-0.0,0.25933756789,1489.535822794396,78.99501096983556
8.2,6386953.1286336,0.1306996852454712,0.0,0.0,0.04781873407064641,79.9700187555024,8816.128691304,2.0463542257633293e-08,0.0,9.787077856772882,-1.1549073034083406,-0.3579015955484857,-0.7268129051969557,-0.2191926597236851,-0.30487718147856196,0.5426530676252203,-79.9700187555024,304.6368988261776,0.47786539222653396,31691.828206450642,230.9246724611111,0.0,0.0,-0.0,0.0,0.0,-0.0,0.26251029937,1528.036266405242,79.97032337284557
8.3,6386945.08288896,0.13553994849456721,0.0,0.0,0.048992208302916,80.9453308208256,8808.08292383448,2.1221405027788734e-08,0.0,9.787102544658481,-1.0902681344584335,-0.34379897205850607,-0.7705270235518928,-0.21049298356769755,-0.3147908838505477,0.5386587202622262,-80.9453308208256,304.6711749224208,0.4783377949376706,31730.861806007175,230.9768269138889,0.0,0.0,-0.0,0.0,0.0,-0.0,0.265681971304,1567.0829251508076,80.94563821380778
8.4,6386936.93957784,0.14049826220829842,0.0,0.0,0.0501799089733824,81.9206453571624,8799.93962505888,2.1997753154265376e-08,0.0,9.78712753201008,-1.0262363505685257,-0.32807890358252867,-0.812253032769833,-0.20158758617371034,-0.32422850346853416,0.5347084211312318,-81.9206453571624,304.70586651623285,0.4788159241455141,31770.368573483323,231.0296135861111,0.0,0.0,-0.0,0.0,0.0,-0.0,0.268852571194,1606.6785004424062,81.92095553027667
8.5,6386928.6987612005,0.145576048732512,0.0,0.0,0.051381836172876005,82.89596239438322,8791.698794702881,2.2792809439163266e-08,0.0,9.78715281885816,-0.9628503782546165,-0.3108221766225534,-0.851876525515776,-0.19249274028672345,-0.33318793798352137,0.5308219351142373,-82.8959623943832,304.7409736079184,0.47929977986501066,31810.34851002821,231.08303247944446,0.0,0.0,-0.0,0.0,0.0,-0.0,0.27202208656,1646.8257264510528,82.89627535877779
8.6,6386920.360378081,0.15077473041427442,0.0,0.0,0.052597989992836804,83.87128196174879,8783.36043249216,2.3606796688596727e-08,0.0,9.78717840520272,-0.9001332852067067,-0.29211600283058026,-0.8892978165867222,-0.1832240524027367,-0.34166818945350913,0.5270182756292429,-83.87128196174879,304.7764961990016,0.47978936211110607,31850.8016169346,231.13708359666668,0.0,0.0,-0.0,0.0,0.0,-0.0,0.275190504932,1687.5273701361932,83.8715977363511
8.7,6386911.92448944,0.15609572960309043,0.0,0.0,0.0538283705265336,84.8466040897392,8774.92453821336,2.4439937711472602e-08,0.0,9.78720429104376,-0.838093095124796,-0.2720529262026091,-0.924431326764672,-0.17379642214275032,-0.34966923348349754,0.523315638824248,-84.8466040897392,304.81243429161606,0.4802846708987464,31891.727895351632,231.19176693777777,0.0,0.0,-0.0,0.0,0.0,-0.0,0.278357813856,1728.7862312457007,84.84692269952222
8.8,6386903.3910648,0.1615404686499888,0.0,0.0,0.05507297786754001,85.82192880792,8766.39111159216,2.529245531966479e-08,0.0,9.787230476381282,-0.776723445347884,-0.25072980372963977,-0.9572046318086248,-0.16422401373476406,-0.35719188845948674,0.5197313488142532,-85.82192880792,304.84878788210403,0.480785706243393,31933.127346619945,231.24708250555557,0.0,0.0,-0.0,0.0,0.0,-0.0,0.281524000892,1770.6051422871512,85.82225028430223
8.9,6386894.76010416,0.16711036990721762,0.0,0.0,0.0563318121109536,86.7972561458568,8757.76015238472,2.6164572328712393e-08,0.0,9.787256961215279,-0.7160045046029713,-0.22824688758567205,-0.987557264862581,-0.15452023900277798,-0.3642376864724767,0.5162818131952581,-86.7972561458568,304.88555697900006,0.4812924681594765,31974.999971936548,231.30303030111114,0.0,0.0,-0.0,0.0,0.0,-0.0,0.284689053615,1812.9869685661254,86.79758052773111
9.0,6386886.031607521,0.17280685573007282,0.0,0.0,0.057604873353091196,87.7725861337248,8749.03166028624,2.7056511557296085e-08,0.0,9.78728374557624,-0.6559040706200576,-0.20470702754670586,-1.0154393591585409,-0.14469775119479208,-0.37080874729746727,0.5129824879672629,-87.7725861337248,304.922741576208,0.4818049566629737,32017.34577264209,231.35961032666668,0.0,0.0,-0.0,0.0,0.0,-0.0,0.287852959613,1855.9346081574815,87.77291346582
9.1,6386877.205574881,0.1786313484750696,0.0,0.0,0.058892161691184004,88.7479188010896,8740.20563505288,2.796849582741268e-08,0.0,9.78731082943368,-0.5963787755081431,-0.18021500374974106,-1.0408102109685045,-0.1347684488568064,-0.3769076566444584,0.5098478509272675,-88.7479188010896,304.960341682872,0.48232317176986117,32060.16474993358,231.41682258333333,0.0,0.0,-0.0,0.0,0.0,-0.0,0.291015706491,1899.4509919149311,88.74824913355111
9.2,6386868.282036721,0.18458527050116164,0.0,0.0,0.060193677223072804,89.72325417751681,8731.2820764408,2.890074796437513e-08,0.0,9.787338212818081,-0.5373753384272278,-0.1548769924757775,-1.0636368326684718,-0.12474348898982077,-0.38253734967445036,0.5068913825432717,-89.72325417751682,304.998357289848,0.4828471134950851,32103.456905199546,231.47466707333334,0.0,0.0,-0.0,0.0,0.0,-0.0,0.294177281865,1943.5390834758277,89.72358756693555
9.3,6386859.26093208,0.19067004416852162,0.0,0.0,0.06150942004873201,90.6985922934864,8722.2609841452,2.985349079698701e-08,0.0,9.78736589572944,-0.478831818619312,-0.12880016158981494,-1.0838925538684425,-0.1146333086478353,-0.38770100064244295,0.5041255533112757,-90.6985922934864,305.03678840932804,0.4833767818556528,32147.222239780636,231.53314379833336,0.0,0.0,-0.0,0.0,0.0,-0.0,0.29733767337,1988.201879256377,90.69892880198445
9.4,6386850.14232192,0.19688709184037043,0.0,0.0,0.06283939026783121,91.67393317795441,8713.14235789176,3.082694715754259e-08,0.0,9.78739387816776,-0.4206788356833956,-0.10209238768485332,-1.101555717148417,-0.10444765417684992,-0.3924019193284362,0.5015618165992793,-91.67393317795442,305.075635032168,0.4839121768665104,32191.46075492174,231.59225276,0.0,0.0,-0.0,0.0,0.0,-0.0,0.300496868653,2033.4424084564273,91.67427287213667
9.5,6386840.92614528,0.20323783588084324,0.0,0.0,0.0641835879824784,92.64927686140079,8703.926197406161,3.182133988165224e-08,0.0,9.787422160163521,-0.3628407371364787,-0.07486208361759245,-1.1166085038983957,-0.09419561727586465,-0.39664345480543006,0.49921060601428285,-92.64927686140079,305.114897167512,0.48445329854518066,32236.17245201138,231.65199396055556,0.0,0.0,-0.0,0.0,0.0,-0.0,0.303654855378,2079.26373305468,92.64961981391778
9.6,6386831.61246312,0.2097236986568184,0.0,0.0,0.06554201329539121,93.6246233733912,8694.61250241408,3.2836891808417006e-08,0.0,9.78745074165576,-0.30523670509356143,-0.04721812283173216,-1.129035916988378,-0.08388567711097947,-0.40042890695042466,0.4970813363412858,-93.6246233733912,305.154574812312,0.48500014690764043,32281.357332438096,231.71236740111112,0.0,0.0,-0.0,0.0,0.0,-0.0,0.306811621223,2125.668947813477,93.62496966128111
9.7,6386822.20121448,0.2163461025370032,0.0,0.0,0.06691466631020161,94.59997274349121,8685.2012726412,3.387382578077765e-08,0.0,9.78747962270544,-0.24778180400764402,-0.019269845376772315,-1.1388249397383639,-0.07352574774169435,-0.40376144600541986,0.4951824071992885,-94.59997274349121,305.19466796961603,0.48555272197089716,32327.015397590403,231.7733730838889,0.0,0.0,-0.0,0.0,0.0,-0.0,0.309967153882,2172.661180283591,94.60032244869444
9.8,6386812.692460321,0.22310646989254324,0.0,0.0,0.068301547131456,95.57532500187601,8675.69250778272,3.493236464499106e-08,0.0,9.78750880331256,-0.19038797979372643,0.008872870426887251,-1.1459638857783534,-0.0631232301502093,-0.40664404038941565,0.49352120857729087,-95.575325001876,305.235176642472,0.486111023751443,32373.14664880896,231.83501101055555,0.0,0.0,0.0,0.0,0.0,-0.0,0.313121441067,2220.243590794647,95.5756782101111
9.9,6386803.08617016,0.2300062230958032,0.0,0.0,0.0697026558652248,96.5506801781112,8666.086207533841,3.601273125115385e-08,0.0,9.787538283477119,-0.13296502724680895,0.037099487406846696,-1.150441950788347,-0.052685068220424305,-0.40907939290441225,0.4921041275312929,-96.55068017811121,305.276100824784,0.4866750522662854,32419.75108757805,231.89728118333335,0.0,0.0,0.0,0.0,0.0,-0.0,0.316274470502,2268.4193724647007,96.55103697948445
10.0,6386793.38231352,0.2370467845225008,0.0,0.0,0.0711179926184928,97.52603830206719,8656.38237165072,3.711514845285328e-08,0.0,9.78756806316864,-0.07542154770649163,0.06529865734720618,-1.1522489754883445,-0.04221780805383934,-0.4110698854204094,0.4909365553462946,-97.5260383020672,305.31744052569604,0.48724480753294724,32466.82871523833,231.96018360444444,0.0,0.0,0.0,0.0,0.0,-0.0,0.31942622993,2317.191751200235,97.52639879128223
10.1,6386783.58095136,0.24422957654926802,0.0,0.0,0.072547557499464,98.5013994036144,8646.5809997676,3.823983910734182e-08,0.0,9.78759814244808,-0.01766592234147462,0.09335805514426587,-1.1513754282783455,-0.03172766005095441,-0.4126175320574071,0.4900228946122959,-98.5013994036144,305.35919574216,0.4878202895684361,32514.379533274077,232.023718275,0.0,0.0,0.0,0.0,0.0,-0.0,0.322576707109,2366.5639856961648,98.50176367894335
10.2,6386773.6820532,0.2515560215557848,0.0,0.0,0.0739913506166472,99.4767635123184,8636.68209167112,3.938702607588621e-08,0.0,9.787628521284962,0.04039267157834196,0.12116421808682591,-1.1478126154183508,-0.021220563231269512,-0.4137239409004056,0.4893665656972969,-99.4767635123184,305.40136647722403,0.4884014983907902,32562.40354312171,232.0878851966667,0.0,0.0,0.0,0.0,0.0,-0.0,0.325725889814,2416.5393674310453,99.47713167590668
10.3,6386763.68558856,0.2590275419238648,0.0,0.0,0.0754493720812944,100.45213065804961,8626.685646965041,4.055693222341833e-08,0.0,9.787659199709761,0.09884317374185798,0.14860241007878647,-1.14155312633836,-0.010702251298184624,-0.4143902842044046,0.4889700122152974,-100.45213065804961,305.443952733936,0.4889884340175324,32610.900746265514,232.1526843727778,0.0,0.0,0.0,0.0,0.0,-0.0,0.328873765837,2467.1212206862247,100.45250281509666
10.4,6386753.5916184,0.2666455600368456,0.0,0.0,0.076921622004048,101.42750087098321,8616.591665436,4.174978041836076e-08,0.0,9.787690177692001,0.15777145694777334,0.17555653183074776,-1.1325915205083728,-0.00017831998653174377,-0.4146172771054043,0.48883470516929767,-101.42750087098321,305.48695450924805,0.489581096466701,32659.871144141896,232.21811580444447,0.0,0.0,0.0,0.0,0.0,-0.0,0.332020322985,2518.312902517117,101.42787712943779
10.5,6386743.400112241,0.27441149828111283,0.0,0.0,0.0784081004973792,102.40287418038001,8606.40014671824,4.2965793533673935e-08,0.0,9.78772145526216,0.21725902370668784,0.2019090994007099,-1.1209252593483896,0.010345704745785137,-0.41440516478540457,0.48896114554129744,-102.40287418038,305.530371806208,0.4901794857563342,32709.314738283032,232.28417949333334,0.0,0.0,0.0,0.0,0.0,0.0,0.335165549085,2570.11780278193,102.4032546523689
10.6,6386733.111039601,0.28232677904457604,0.0,0.0,0.0799088076749784,103.3782506164152,8596.11109047648,4.420519444545987e-08,0.0,9.787753032450722,0.2773815668116015,0.22754131463967306,-1.10655588245841,0.02086429810427002,-0.4137537181104055,0.48934886519429693,-103.37825061641522,305.574204627864,0.4907836019044703,32759.231530221088,232.35087544222225,0.0,0.0,0.0,0.0,0.0,0.0,0.338309431977,2622.5393441320894,103.37863541630001
10.7,6386722.72446144,0.290392824717888,0.0,0.0,0.0814237436514504,104.35363020895922,8585.72449646688,4.5468206034009366e-08,0.0,9.787784909196722,0.33820738666551403,0.25233325202763746,-1.0894904194784345,0.03137186783845493,-0.41266223770740706,0.489996426025296,-104.3536302089592,305.61845297116804,0.4913934449296629,32809.62152144035,232.41820365277778,0.0,0.0,0.0,0.0,0.0,0.0,0.341451959522,2675.5809819978726,104.35401945415556
10.8,6386712.2403168,0.29861105769414004,0.0,0.0,0.08295290854231441,105.3290129872728,8575.24036435416,4.67550511841511e-08,0.0,9.787817085561121,0.3997956708544255,0.2761641864376032,-1.069743018098463,0.041862686028339854,-0.4111295665104093,0.49090141743929466,-105.32901298727282,305.663116845264,0.49200901485098103,32860.48471347299,232.48616412722225,0.0,0.0,0.0,0.0,0.0,0.0,0.344593119595,2729.2462046219275,105.32940679731668
10.9,6386701.65863616,0.30698290036977605,0.0,0.0,0.0844963024646136,106.304398981836,8564.65869377256,4.806595278368079e-08,0.0,9.787849561513442,0.46219465806333593,0.29891308532557054,-1.0473367539784952,0.05233082170162482,-0.40915411076241215,0.492060452249293,-106.304398981836,305.708196244056,0.492630311686463,32911.82110794695,232.55475686722224,0.0,0.0,0.0,0.0,0.0,0.0,0.347732900091,2783.5385330257564,106.30479747870778
11.0,6386690.97945,0.31550977513819206,0.0,0.0,0.08605392553569599,107.27978822190961,8553.97948444776,4.9401133725455615e-08,0.0,9.78788233708416,0.525439728665245,0.3204592859985395,-1.0223055696385313,0.06277007471740982,-0.40673386952341556,0.49346916124829093,-107.27978822190961,305.75369117059205,0.4932573354556931,32963.630706298616,232.62398187555556,0.0,0.0,0.0,0.0,0.0,0.0,0.350871288921,2838.4615210240777,107.28019152919556
11.1,6386680.20269736,0.324193104401928,0.0,0.0,0.0876257778750432,108.25518073766881,8543.202736014002,5.076081690564888e-08,0.0,9.787915412273282,0.589551487656153,0.3406833734755105,-0.9946962676725708,0.07317391137999486,-0.40386647266741976,0.4951221867662886,-108.25518073766881,305.79960162792,0.49389008617774044,33015.913510251696,232.69383915333336,0.0,0.0,0.0,0.0,0.0,0.0,0.354008274014,2894.0187552248276,108.25558898067557
11.2,6386669.328408721,0.33303431056504806,0.0,0.0,0.08921185960213682,109.2305765586792,8532.32844819696,5.214522522479722e-08,0.0,9.7879487870808,0.6545339305520596,0.35946826658048353,-0.9645704601906141,0.08353540227227997,-0.4005492274094244,0.4970131756102859,-109.2305765586792,305.845927619088,0.4945285638711586,33068.66952129047,232.7643287038889,0.0,0.0,0.0,0.0,0.0,0.0,0.357143843316,2950.2138550243726,109.2309898645289
11.3,6386658.3565840805,0.342034816031616,0.0,0.0,0.09081217083889681,110.205975715116,8521.356620600402,5.355458158780058e-08,0.0,9.78798246150672,0.7203728069739649,0.37670050893145873,-0.9320063531756609,0.09384716283806516,-0.3967791733344299,0.49913477188828276,-110.20597571511601,305.89266914104803,0.4951727685565629,33121.89874109076,232.83545052833335,0.0,0.0,0.0,0.0,0.0,0.0,0.360277984791,3007.050472607507,110.20639421110778
11.4,6386647.28719296,0.35119604320569603,0.0,0.0,0.09242671170663361,111.18137823624001,8510.287252919521,5.49891089037477e-08,0.0,9.788016435581522,0.7870343165288692,0.3922717475174364,-0.8971002260587109,0.10410129727985043,-0.39255314590443596,0.5014786102912795,-111.18137823624002,305.939826196848,0.4958227002530221,33175.6011712326,232.90720462944444,0.0,0.0,0.0,0.0,0.0,0.0,0.36341068642,3064.5322929474555,111.18180205076445
11.5,6386636.120296321,0.360519414500496,0.0,0.0,0.09405548232940081,112.15678415222641,8499.12034484952,5.644903008539251e-08,0.0,9.78805070927472,0.8544642830727723,0.4060803650644166,-0.8599674559687644,0.11428934638283579,-0.38786784836444277,0.5040353105072758,-112.1567841522264,305.98739878953603,0.4964783589806361,33229.77681339181,232.97959100888892,0.0,0.0,0.0,0.0,0.0,0.0,0.366541936203,3122.6630338058735,112.15721341385112
11.6,6386624.85586368,0.370006352323128,0.0,0.0,0.0956984828309472,113.13219349264081,8487.85589599416,5.7934568050375885e-08,0.0,9.7880852826168,0.9225879519566745,0.41803321456639936,-0.8207429384348207,0.12440223992582126,-0.38271993190445003,0.5067944734872718,-113.13219349264081,306.03538691911206,0.4971397447589893,33284.42566924421,233.05260967,0.0,0.0,0.0,0.0,0.0,0.0,0.369671722156,3181.446445718479,113.13262832917667
11.7,6386613.4938645605,0.379658279092896,0.0,0.0,0.0973557133371552,114.1076062873536,8476.49390601816,5.9445945720527446e-08,0.0,9.788120155638241,0.9913105366975757,0.4280473868643849,-0.7795807751598799,0.13443025437480685,-0.3771060838804582,0.5097446803942676,-114.1076062873536,306.083790588624,0.49780685760869686,33339.547740369824,233.12626061333333,0.0,0.0,0.0,0.0,0.0,0.0,0.372800032314,3240.886312009421,114.1080468265789
11.8,6386602.03432944,0.38947661722605603,0.0,0.0,0.0990271739745168,115.08302256654001,8465.03437461672,6.09833860216911e-08,0.0,9.788155328278082,1.060518604318476,0.4360519273743735,-0.7366531371579417,0.1443629765967926,-0.37102312379146685,0.512873495111263,-115.08302256654,306.132609798072,0.49847969754985844,33395.14302854025,233.2005438427778,0.0,0.0,0.0,0.0,0.0,0.0,0.375926854728,3300.9864487817026,115.08346893332335
11.9,6386590.47725832,0.39946278914191197,0.0,0.0,0.1007128648704384,116.0584423597656,8453.477301393601,6.254711188459768e-08,0.0,9.788190800597281,1.1300823331183765,0.44198940840636497,-0.6921482674420054,0.15418927438677849,-0.3644681066034763,0.5161674712202584,-116.0584423597656,306.181844550504,0.49915826460308943,33451.211535431285,233.27545935944445,0.0,0.0,0.0,0.0,0.0,0.0,0.379052177469,3361.750704902815,116.05889467821889
12.0,6386578.822651201,0.409618217259768,0.0,0.0,0.10241278615385041,117.03386569659601,8441.822686044,6.413734624381774e-08,0.0,9.78822657256536,1.199858606938276,0.4458172613593594,-0.6462676575120714,0.16389727459076453,-0.35743843289148647,0.5196121644452535,-117.033865696596,306.231494842872,0.49984255878900474,33507.75326271873,233.35100716611112,0.0,0.0,0.0,0.0,0.0,0.0,0.382175988623,3423.1829620191033,117.03432408801667
12.1,6386567.0704776,0.419944324008072,0.0,0.0,0.1041269379545976,118.0092926072064,8430.0705281412,6.575431203880873e-08,0.0,9.788262644212802,1.2696948336881757,0.44750878001335703,-0.599222508309139,0.17347434965375075,-0.34993196512549724,0.5231921515422483,-118.0092926072064,306.281560681272,0.5005325801292504,33564.76821217418,233.42718726555557,0.0,0.0,0.0,0.0,0.0,0.0,0.385298276295,3485.2871345414005,118.00975718895333
12.2,6386555.220768,0.430442531812224,0.0,0.0,0.105855320403744,118.98472312116242,8418.2208273804,6.739823221339146e-08,0.0,9.78829901557008,1.3394333037180755,0.4470537225633577,-0.5512296588752079,0.18290711341173718,-0.34194714926050873,0.5268910566352429,-118.98472312116242,306.332042068752,0.5012283286439261,33622.25638547343,233.5039996588889,0.0,0.0,0.0,0.0,0.0,0.0,0.388419028607,3548.0671696593963,118.98519400675112
12.3,6386543.273552881,0.44111426310372,0.0,0.0,0.1075979336329632,119.96015726833441,8406.273583395841,6.906932971592459e-08,0.0,9.788335686576241,1.4089158460079756,0.4444584648713614,-0.502507223347278,0.19218142691872386,-0.33348314062452084,0.5306915859952375,-119.9601572683344,306.382938999216,0.5019298043546779,33680.217784483815,233.58144434944444,0.0,0.0,0.0,0.0,0.0,0.0,0.391538233699,3611.527047298538,119.96063456558889
12.4,6386531.2287408,0.45196094031405604,0.0,0.0,0.10935477777545281,120.9355950788976,8394.22879582176,7.076782749913006e-08,0.0,9.788372657292241,1.4779885077078765,0.43974568809836817,-0.45327020977734866,0.2012824150727108,-0.3245399329225337,0.534575572187232,-120.9355950788976,306.434251481808,0.5026370072826363,33738.65241088115,233.6595213388889,0.0,0.0,0.0,0.0,0.0,0.0,0.394655879729,3675.670780163128,120.93607889067445
12.5,6386519.086423201,0.462983985877776,0.0,0.0,0.1111258529656296,121.911036581808,8382.086464261922,7.249394852096585e-08,0.0,9.7884099276876,1.546505979867778,0.43295361676737787,-0.4037263966914199,0.210194494734698,-0.3151184889595473,0.5385240284722262,-121.91103658180802,306.485979516528,0.5033499374499624,33797.560266436994,233.73823063055556,0.0,0.0,0.0,0.0,0.0,0.0,0.397771954872,3740.5024137123814,121.91152700361445
12.6,6386506.846539121,0.47418482223552005,0.0,0.0,0.1129111593382152,122.8864818078504,8369.84658838104,7.424791574305511e-08,0.0,9.788447497823281,1.6143355206176806,0.4241348543233906,-0.3540727149734913,0.21890141493568546,-0.30522087153256144,0.5425172142332205,-122.8864818078504,306.538123103376,0.5040685948783024,33856.941353018694,233.81757222611114,0.0,0.0,0.0,0.0,0.0,0.0,0.400886447321,3806.0260261412755,122.88697892755889
12.7,6386494.509119041,0.48556487182488006,0.0,0.0,0.11471069702976001,123.86193078628561,8357.50916778288,7.602995213260606e-08,0.0,9.788485367638321,1.6813601812275842,0.41335488867040615,-0.30449232850056246,0.2273863096656733,-0.29485037270857634,0.5465347120592148,-123.86193078628561,306.59068224235205,0.5047929795893019,33916.79567244568,233.8975461277778,0.0,0.0,0.0,0.0,0.0,0.0,0.403999345286,3872.245728418851,123.86243468360001
12.8,6386482.074162961,0.49712555708954403,0.0,0.0,0.1165244661780336,124.83738354698401,8345.074202101681,7.784028066101568e-08,0.0,9.7885235371632,1.7474812114174891,0.4006903573314242,-0.2551525359776334,0.23563176355866144,-0.2840116395845919,0.550555516969209,-124.83738354698401,306.64365693650404,0.5055230916051223,33977.123226489544,233.97815233888892,0.0,0.0,0.0,0.0,0.0,0.0,0.407110636996,3939.1656642499115,124.83789429231557
12.9,6386469.5416404,0.5088683004762481,0.0,0.0,0.11835246692141521,125.812840119816,8332.541690941202,7.967912430456788e-08,0.0,9.7885620064284,1.8126195965073957,0.38622716953644504,-0.20620353988470375,0.24361989062164996,-0.2727107944136081,0.5545581380442031,-125.812840119816,306.69704719192805,0.5062589309479251,34037.92401696973,234.05939086111113,0.0,0.0,0.0,0.0,0.0,0.0,0.410220310697,4006.790010089385,125.81335777274002
13.0,6386456.91158184,0.520794524434776,0.0,0.0,0.12019469939950321,126.78830053465201,8319.91163393568,8.154670604443352e-08,0.0,9.78860077543392,1.8767167510873035,0.3700585809764683,-0.15777805674377335,0.2513324259566389,-0.26095554690262507,0.5585207124951975,-126.788300534652,306.750853002528,0.5070004976403867,34099.198045849334,234.14126169722223,0.0,0.0,0.0,0.0,0.0,0.0,0.413328354656,4075.122975147112,126.78882514339334
13.1,6386444.183987279,0.5329056514179601,0.0,0.0,0.1220511637525056,127.76376482136241,8307.18403071936,8.344324886667035e-08,0.0,9.788639844179759,1.939734451877213,0.3522833077864938,-0.10999168448484196,0.25875083014362826,-0.2487552963666426,0.5624211319671919,-127.76376482136241,306.8050743744,0.5077477917056992,34160.945314899924,234.22376485,0.0,0.0,0.0,0.0,0.0,0.0,0.416434757156,4144.168801378272,127.76429642228112
13.2,6386431.3588262405,0.545203103875584,0.0,0.0,0.12392186012306881,128.73923300951282,8294.35888086552,8.536897576169944e-08,0.0,9.78867921263544,2.0016541332071243,0.33300375170752156,-0.06294390212690956,0.26585640572761804,-0.23612122138066075,0.5662371805361864,-128.7392330095128,306.859711310592,0.5085008131655087,34223.16582608459,234.30690032111113,0.0,0.0,0.0,0.0,0.0,0.0,0.419539506499,4213.931763507321,128.73977162689445
13.3,6386418.4361292,0.557688304269624,0.0,0.0,0.1258067886535344,129.7147051289736,8281.436183977921,8.732410972552695e-08,0.0,9.78871888086192,2.0624756899870365,0.31232439096655124,-0.016719555439575973,0.27263042495260825,-0.2230663545956795,0.5699466835821811,-129.7147051289736,306.914763811104,0.5092595620440378,34285.85958122278,234.3906681138889,0.0,0.0,0.0,0.0,0.0,0.0,0.422642591008,4284.416168999263,129.71525077266668
13.4,6386405.41589616,0.5703626750590081,0.0,0.0,0.1277059494880728,130.69018120992,8268.4159396908,8.930887375869689e-08,0.0,9.78875884882872,2.122215937266951,0.2903503735245828,0.028609322010958893,0.279054267568599,-0.20960564043369886,0.573527666398176,-130.69018120992,306.970231872888,0.5100240383634478,34349.0265822776,234.47506823111112,0.0,0.0,0.0,0.0,0.0,0.0,0.425743999026,4355.62635809317,130.69073387554556
13.5,6386392.29809664,0.58322763870876,0.0,0.0,0.129619342771464,131.6656612816128,8255.29814760792,9.132349086681467e-08,0.0,9.78879911656632,2.1809068663968665,0.26718633271461606,0.07298149382689514,0.28510956729059034,-0.19575597351371876,0.576958521022171,-131.6656612816128,307.026115505088,0.5107942421474463,34412.66683116425,234.56010067444444,0.0,0.0,0.0,0.0,0.0,0.0,0.428843718915,4427.566703797387,131.6662209514789
