time,eiPosition_m_X,eiPosition_m_Y,eiPosition_m_Z,gePosition_m_X,gePosition_m_Y,gePosition_m_Z,eiVelocity_m_s_X,eiVelocity_m_s_Y,eiVelocity_m_s_Z,feVelocity_m_s_X,feVelocity_m_s_Y,feVelocity_m_s_Z,altitudeMsl_m,longitude_rad,latitude_rad,localGravity_m_s2,eulerAngle_rad_Yaw,eulerAngle_rad_Pitch,eulerAngle_rad_Roll,bodyAngularRateWrtEi_rad_s_Roll,bodyAngularRateWrtEi_rad_s_Pitch,bodyAngularRateWrtEi_rad_s_Yaw,altitudeRateWrtMsl_m_s,speedOfSound_m_s,airDensity_kg_m3,ambientPressure_Pa,ambientTemperature_K,aero_bodyForce_N_X,aero_bodyForce_N_Y,aero_bodyForce_N_Z,aero_bodyMoment_Nm_L,aero_bodyMoment_Nm_M,aero_bodyMoment_Nm_N,mach,dynamicPressure_Pa,trueAirspeed_m_s
0.0,6387281.000000211,0.0,0.0,6387281.000000211,0.0,0.0,0.0,465.7678758931653,0.0,0.0,0.0,0.0,9144.000000001135,0.0,0.0,9.786072158121431,0.0,2.220446049250313e-16,0.0,0.0,0.0,1.6191747942405682e-20,-0.0,303.22998396963123,0.459050104915564,30149.23809906436,228.79937386033285,0.0,0.0,-0.0,0.0,0.0,0.0,0.0,0.0,0.0
0.1,6387280.95107166,46.576852127311916,-6.095871259167769e-23,6387280.951241481,6.489396252812443e-05,-6.095871259167769e-23,-0.9785773653606907,465.7691721708052,-1.8291756648205333e-21,-1.8291756741351407e-21,0.001306956707312427,0.9751809182356229,9143.951241273326,1.0159872882296047e-11,7.138411599396982e-28,9.786072307771288,0.0,2.220446049309254e-16,-7.292125159872868e-06,0.0,0.0,1.6191747942405682e-20,-0.9751809182356229,303.23019338297576,0.45905280330569237,30149.45696536131,228.79968988223817,1.402052068374931e-18,0.19077114845290347,-0.008718564275285825,0.0,0.0,0.0,0.070431064540892,104.6902024395515,21.35654829436613
0.2000000000000001,6387280.804287546,93.15383428216174,-4.881228231587517e-22,6387280.804966835,0.0002619512423960621,-4.881228231587517e-22,-1.9570948690786698,465.7704703851891,-7.327771060374674e-21,-7.327771209438867e-21,0.002637207348734703,1.950301946101574,9143.80496662732,4.101138659699528e-11,5.716035451907724e-27,9.786072756716159,0.0,2.220446049485693e-16,-1.4584271011386624e-05,0.0,0.0,1.6191747942405682e-20,-1.9503019461015738,303.2308216155576,0.4590608984640482,30150.11356509025,228.8006379380186,2.8125917265083437e-18,0.19133880800955597,-0.017489908043231948,0.0,0.0,0.0,0.0706450251286679,105.32953337951615,21.421471144133346
0.3000000000000002,6387280.559654699,139.73094614077812,-1.6499170962430656e-21,6387280.561183106,0.0005929836888113427,-1.6499170962430656e-21,-2.9355519950225664,465.7717666912957,-1.6529238511407342e-20,-1.6529239267029718e-20,0.003986905144748454,2.925362567220118,9143.561182897505,9.283820917700672e-11,1.9320925323270086e-26,9.786073504935136,0.0,2.2204460497790545e-16,-2.1876437838207705e-05,0.0,0.0,1.6191747942405682e-20,-2.925362567220118,303.2318686354789,0.45907439023155483,30151.20789078964,228.80221798346534,4.240273130151901e-18,0.19229622827162818,-0.02636784657566069,0.0,0.0,0.0,0.0710029850574303,106.40351377915698,21.530088560046053
0.4000000000000003,6387280.21717919,186.30818764523826,-3.9192374774254076e-21,6387280.219896369,0.0010600688199330095,-3.9192374774254076e-21,-3.913947861246813,465.7730637402889,-2.948944269815862e-20,-2.9489445091471985e-20,0.005358699532210357,3.900361899302635,9143.219896158636,1.659656040502025e-10,4.589521182483838e-26,9.786074552409668,0.0,2.220446050188754e-16,-2.9168625965603742e-05,0.0,0.0,1.6191747942405682e-20,-3.9003618993026357,303.2333344124076,0.4590932786372452,30152.739953882578,228.80442997935106,5.6935755567176615e-18,0.1936373391687177,-0.035405107675478185,0.0,0.0,0.0,0.0715027401314414,107.91211204826922,21.681733065008117
0.5000000000000003,6387279.7768672025,232.88555900040726,-7.675663000690794e-21,6387279.781112803,0.0016655467599862694,-7.675663000690794e-21,-4.89228122961665,465.77436413431906,-4.628607094535827e-20,-4.6286076804076113e-20,0.006755190888961056,4.875298703776635,9142.781112595609,2.607599505678929e-10,8.988385657717093e-26,9.786075899120922,0.0,2.2204460507141973e-16,-3.6460835759949955e-05,0.0,0.0,1.6191747942405682e-20,-4.875298703776635,303.23521891384274,0.45911756385010877,30154.709780771183,228.8072738857925,7.180726184320918e-18,0.19535393938321155,-0.0446528514834663,0.0,0.0,0.0,0.0721412994753905,109.85532543403997,21.87549898104116
0.6000000000000004,6387279.2387250755,279.46306066833,-1.3307602099974819e-20,6387279.244838757,0.0024120146288561417,-1.3307602099974819e-20,-5.870550518021971,465.77567041267673,-6.701788489594041e-20,-6.701789708450818e-20,0.008178916672370464,5.850171398002401,9142.24483854888,3.776278656996544e-10,1.5583521559408548e-25,9.786077545049624,0.0,2.220446051354776e-16,-4.375306762786443e-05,0.0,0.0,1.6191747942405682e-20,-5.850171398002402,303.23752210492006,0.4591472461765626,30157.117412631796,228.8107496619564,8.709632858152341e-18,0.19743592461458023,-0.05416025239059753,0.0,0.0,0.0,0.0729149696803116,112.23317938680606,22.11026792679897
0.7000000000000005,6387278.602759295,326.0406933613248,-2.1214355816047982e-20,6387278.611080721,0.0033023196260940258,-2.1214355816047982e-20,-6.8487538152062495,465.7769850396495,-9.180381196262159e-20,-9.180383463081528e-20,0.00963233926431137,6.824978070105349,9141.61108051106,5.170151213327586e-10,2.4842519993062726e-25,9.786079490176073,0.0,2.2204460521098653e-16,-5.10453220151217e-05,0.0,0.0,1.6191747942405682e-20,-6.824978070105349,303.24024394842684,0.45918232606062587,30159.962905429795,228.81485726608122,1.028782883530882e-17,0.19987155479345325,-0.06397415543756862,0.0,0.0,0.0,0.0738194533465672,115.04572695174109,22.384738677240193
0.8000000000000006,6387277.86897658,372.6184580339537,-3.180808349710415e-20,6387277.879845415,0.004339550992282344,-3.180808349710415e-20,-7.8268888976738475,465.77831039430004,-1.2078190943917365e-19,-1.207819482810311e-19,0.011117835733552734,7.79971649588723,9140.879845205256,6.79405385817877e-10,3.7248029450890176e-25,9.786081734479902,0.0,2.220446052978821e-16,-5.833759940538568e-05,0.0,0.0,1.6191747942405682e-20,-7.799716495887231,303.24338440446627,0.45922280407957355,30163.246329567995,228.81959665496964,1.1922430589174456e-17,0.202647744690775,-0.07413881392424759,0.0,0.0,0.0,0.0748499562852464,118.29304819027242,22.697459646291005
0.9000000000000007,6387277.037383879,419.19635587407356,-4.551565998138547e-20,6387277.051139786,0.005527031054323169,-4.551565998138547e-20,-8.804953248112087,465.7796487622721,-1.5410823580235325e-19,-1.541082983283452e-19,0.012637689631100743,8.774384157252511,9140.05113957713,8.653188221007102e-10,5.32999306172501e-25,9.786084277940098,0.0,2.2204460539609733e-16,-6.562990031882206e-05,0.0,0.0,1.6191747942405682e-20,-8.774384157252511,303.24694343049197,0.45926868094437073,30166.967769923034,228.82496778403984,1.3620108867723866e-17,0.20575036270729286,-0.08469570943772574,0.0,0.0,0.0,0.076001297761751,121.9752496336454,23.046862290550646
1.0000000000000009,6387276.107988387,465.77438829317003,-6.278041669335607e-20,6387276.1249710405,0.006868305542767477,-6.278041669335607e-20,-9.782944074773273,465.78100232963317,-1.9195566319984917e-19,-1.919557590224558e-19,0.014194084822196583,9.74897826159497,9139.124970831226,1.0753105718908684e-09,7.351737523407152e-25,9.786087120534907,0.0,2.220446055055628e-16,-7.292222531057123e-05,0.0,0.0,1.6191747942405682e-20,-9.74897826159497,303.250920981153,0.45931995749765436,30171.12732568321,228.83097060709008,1.538707242582651e-17,0.2091645242054103,-0.09568345069277229,0.0,0.0,0.0,0.077268018747163,126.09246377080044,23.431293908359134
1.0999999999999897,6387275.080797619,512.3525569161742,-8.406376238052471e-20,6387275.10134669,0.008367133398776778,-8.406376238052471e-20,-10.76085833129996,465.78237317867325,-2.3451266277855577e-19,-2.345128039118076e-19,0.015789101272576513,10.72349576162766,9138.101346479809,1.3099691599337382e-09,9.84406840225846e-25,9.786090262241656,0.0,2.2204460562620633e-16,-8.02145749691582e-05,0.0,0.0,1.6191747942405682e-20,-10.723495761627662,303.2553170080847,0.4593766347110283,30175.72511013074,228.8376050759821,1.7229063249861065e-17,0.21287486817600332,-0.10713774383642621,0.0,0.0,0.0,0.0786444840376087,130.6448485732984,23.849048579749137
1.1999999999999786,6387273.955819388,558.9308635709504,-1.0984668220942578e-19,6387273.980274555,0.010027476251659001,-1.0984668220942578e-19,-11.738692736536533,465.78376328551917,-2.819820908513493e-19,-2.8198229202934675e-19,0.01742471265556725,11.697933375199254,9136.980274346253,1.5699148467133669e-09,1.2863310216070597e-24,9.786093703036771,0.0,2.2204460575795266e-16,-8.750694991484505e-05,0.0,0.0,1.6191747942405682e-20,-11.697933375199254,303.2601314598949,0.4594387136848745,30180.761250628482,228.84487114061923,1.9151361688799277e-17,0.2168658088873057,-0.11909142435528926,0.0,0.0,0.0,0.0801249751564973,135.63258705406727,24.298395312464397
1.2999999999999676,6387272.733061849,605.5093102776299,-1.406311165209563e-19,6387272.761762796,0.011853487737902232,-1.406311165209563e-19,-12.716443793942767,465.78517451937137,-3.3457999944678584e-19,-3.3458027845703723e-19,0.019102785580316226,12.672287604712345,9135.76176258663,1.8557979563457482e-09,1.6468241383864083e-24,9.786097442895692,0.0,2.22044605900723e-16,-9.47993507979537e-05,0.0,0.0,1.6191747942405682e-20,-12.672287604712345,303.2653642820726,0.45950619564715706,30186.235888525163,228.85276874880662,2.1158799696282692e-17,0.22112175709839058,-0.1315745394204684,0.0,0.0,0.0,0.0817037720356131,141.05588686324506,24.777602786842472
1.3999999999999566,6387271.412533524,652.0878992379377,-1.7694122266185225e-19,6387271.445819931,0.013849502813253175,-1.7694122266185225e-19,-13.694107810303061,465.7866086431429,-3.925344900111473e-19,-3.9253486804953275e-19,0.0208250802226607,13.646554755837261,9134.445819722629,2.1682972033882827e-09,2.0720241989383652e-24,9.786101481792779,0.0,2.2204460605443563e-16,-0.0001020917782972008,0.0,0.0,1.6191747942405682e-20,-13.64655475583726,303.2710154168468,0.4595790819516025,30192.14917901025,228.86129784603716,2.3255780346168238e-17,0.22562730809561027,-0.14461446924365204,0.0,0.0,0.0,0.0833752224605218,146.91497991776038,25.284960392259922
1.4999999999999456,6387269.9942433145,698.6666328246492,-2.1932452494883916e-19,6387270.032454872,0.016020027191945514,-2.1932452494883916e-19,-14.67168091350175,465.788067315273,-4.560846243272718e-19,-4.560851263698499e-19,0.022593252132298822,14.620730955291865,9133.032454663136,2.508118039560703e-09,2.5683428444661276e-24,9.786105819701238,0.0,2.2204460621900453e-16,-0.00010938423311803621,0.0,0.0,1.6191747942405682e-20,-14.620730955291865,303.27708480309576,0.45965737407650814,30198.50129102002,228.8704583753525,2.5446301872689266e-17,0.230367396077457,-0.15823607656919725,0.0,0.0,0.0,0.0851337991019443,153.21012206303746,25.818795501258172
1.5999999999999346,6387268.478200506,745.2455135712704,-2.6835295900711676e-19,6387268.521676905,0.018369727015155133,-2.6835295900711676e-19,-15.649159069205995,465.78955209248414,-5.254794023656835e-19,-5.254800575612554e-19,0.024408854985485957,15.594812167528648,9131.521676696288,2.875991036358118e-09,3.142477578455999e-24,9.78611045659317,0.0,2.220446063943403e-16,-0.00011667671599103207,0.0,0.0,1.6191747942405682e-20,-15.59481216752865,303.2835723763816,0.45974107362518557,30205.29240727657,228.88025027739405,2.773398466398113e-17,0.23532741616698977,-0.17246187453150982,0.0,0.0,0.0,0.0869741446017625,159.94159276663055,26.377487123540355
1.6999999999999236,6387266.864414803,791.8245441620365,-3.246238175008094e-19,6387266.913495744,0.02090341883095639,-3.246238175008094e-19,-16.626538096359862,465.7910644332718,-6.009768129713802e-19,-6.009776550571766e-19,0.026273344068486314,16.568794210232852,9129.913495534873,3.2726703164367973e-09,3.8014228414080264e-24,9.78611539243939,0.0,2.220446065803494e-16,-0.000123969227670312,0.0,0.0,1.6191747942405682e-20,-16.568794210232856,303.29047806875684,0.45983018232345213,30212.522724087474,228.89067349010858,3.012209986509094e-17,0.24049331655436854,-0.18731220452089223,0.0,0.0,0.0,0.0888911056362731,167.10969483949043,26.959476219549977
1.7999999999999126,6387265.1528963335,838.4037274222865,-3.887606046986302e-19,6387265.2079215115,0.02362605995168248,-3.887606046986302e-19,-17.603813681445125,465.7926057019343,-6.828429601025146e-19,-6.828440278368852e-19,0.02818808030348579,17.542672768587003,9128.207921302735,3.6989320440900675e-09,4.5524800180051015e-24,9.786120627209511,0.0,2.2204460677693415e-16,-0.0001312617689320396,0.0,0.0,1.6191747942405682e-20,-17.542672768587003,303.29780180882403,0.45992470202039,30220.192451410894,228.90172794883665,3.261359849368833e-17,0.24585166403637781,-0.20280541723758638,0.0,0.0,0.0,0.0908797571592809,174.71475418506216,27.563273038241537
1.899999999999901,6387263.343655658,884.983066309264,-4.614138074570715e-19,6387263.404964781,0.026542739238906952,-4.614138074570715e-19,-18.5809813915063,465.7941771729677,-7.713512647913643e-19,-7.713526024126652e-19,0.030154334639278482,18.516443408299473,9126.40496457222,4.155572982676031e-09,5.403266465511216e-24,9.786126160871804,0.0,2.2204460698399283e-16,-0.0001385543405729769,0.0,0.0,1.6191747942405682e-20,-18.51644340829947,303.30554352157645,0.46002463468628035,30228.301812691607,228.91341358606954,3.5211140212413095e-17,0.2513896865751827,-0.2189580516106367,0.0,0.0,0.0,0.0929354181621897,182.75711957131102,28.187461884332148
1.9999999999998903,6387261.436703807,931.5625639033605,-5.432615901186752e-19,6387261.504636582,0.029658668326449433,-5.432615901186752e-19,-19.558036685968528,465.7957800356875,-8.6678174105809845e-19,-8.667833987673544e-19,0.032173292669170094,19.490101587425567,9124.50463637327,4.643409120625465e-09,6.3617236511970605e-24,9.786131993393179,0.0,2.220446072014191e-16,-0.0001458469434091159,0.0,0.0,1.6191747942405682e-20,-19.490101587425567,303.3137031283604,0.4601299824121046,30236.85104482452,228.92573033139078,3.791712112351851e-17,0.25709529656687946,-0.23578500763696647,0.0,0.0,0.0,0.0950536603110653,191.23716242583382,28.83070372728496
2.09999999999988,6387259.432052227,978.1422233998378,-6.350104205718419e-19,6387259.506948371,0.03297917333148075,-6.350104205718419e-19,-20.534974927300137,465.7974153989517,-9.694203426085441e-19,-9.694223770684999e-19,0.03424605935386347,20.463642667033113,9122.506948162758,5.163274373869487e-09,7.436124483650675e-24,9.786138124739274,0.0,2.2204460742910257e-16,-0.00015313957827436798,0.0,0.0,1.6191747942405682e-20,-20.463642667033117,303.3222805470081,0.4602407474112561,30245.84039829769,228.9386781116742,4.0733700142885135e-17,0.2629570983476219,-0.2532997103863682,0.0,0.0,0.0,0.0972303107630678,200.15527664999723,29.49173704678262
2.1999999999998687,6387257.329712875,1024.7220481010193,-7.373956343512429e-19,6387257.411912105,0.036509687017706356,-7.373956343512429e-19,-21.511791390587025,465.7990842958905,-1.0795583762060238e-18,-1.0795608510708692e-18,0.03637366374379791,21.437061920779566,9120.411911896035,5.7160193590470515e-09,8.635079918528735e-24,9.78614455487423,0.0,2.220446076669279e-16,-0.0001604322460193525,0.0,0.0,1.6191747942405682e-20,-21.437061920779566,303.33127569153265,0.46035693201558114,30255.27013687551,228.9522568506207,4.366282366989848e-17,0.26896438318263577,-0.2715142634094373,0.0,0.0,0.0,0.0994614503590097,209.51187845254142,30.16937727735053
2.2999999999998577,6387255.129698169,1071.3020414089478,-8.511819432157788e-19,6387255.219540209,0.04025574144259417,-8.511819432157788e-19,-22.48848127209505,465.80078768856896,-1.1974919770405277e-18,-1.1974949635014539e-18,0.03855706364351764,22.41035454347693,9118.219539999669,6.302510242496939e-09,9.967544914126533e-24,9.786151283760798,0.0,2.220446079147755e-16,-0.00016772494751023621,0.0,0.0,1.6191747942405682e-20,-22.41035454347693,303.3406884722464,0.4604785386769014,30265.14053772683,228.96646646893478,4.670624839708371e-17,0.2751071145977477,-0.29043959057771745,0.0,0.0,0.0,0.1017434082487476,219.30740619679096,30.8625151724695
2.3999999999998467,6387252.832021005,1117.8822068185111,-9.771638941575634e-19,6387252.929845583,0.04422296106107636,-9.771638941575634e-19,-23.46503969690131,465.802526472521,-1.3235216411446204e-18,-1.32352521850854e-18,0.040797150142074794,23.383515658725337,9115.929845373712,6.923627660717283e-09,1.1442823806483376e-23,9.786158311360316,0.0,2.2204460817252085e-16,-0.0001750176836276529,0.0,0.0,1.6191747942405682e-20,-23.383515658725337,303.35051879575315,0.46060556996689866,30275.45189142048,228.98130688430962,4.986556220137495e-17,0.28137590653533684,-0.3100855659946206,0.0,0.0,0.0,0.1040727538636615,229.54232026458544,31.570114365200727
2.499999999999836,6387250.436694783,1164.462547911005,-1.1161662842960822e-18,6387250.54284163,0.048417056269900824,-1.1161662842960822e-18,-24.441461725676064,465.80430148111753,-1.4579518098520283e-18,-1.457956066134916e-18,0.04309475197887276,24.35654032569706,9113.542841421237,7.580265709815189e-09,1.3070575167892826e-23,9.78616563763259,0.0,2.2204460844003497e-16,-0.00018231045526570166,0.0,0.0,1.6191747942405682e-20,-24.356540325697065,303.3607665648229,0.4607380285754885,30286.204501798333,228.99677801123576,5.314220313041861e-17,0.2877619964032019,-0.3304611320604463,0.0,0.0,0.0,0.1064462870017092,240.21710293115257,32.29120835730082
2.5999999999998247,6387247.943733376,1211.043068348129,-1.2690445366155627e-18,6387248.058542237,0.052843817386640964,-1.2690445366155627e-18,-25.417742360695115,465.80611348973355,-1.6010905014023485e-18,-1.6010955339555944e-18,0.04545063971096262,25.329423545150835,9111.058542027893,8.273331003008132e-09,1.486081620687748e-23,9.786173262536035,0.0,2.2204460871718374e-16,-0.00018960326333099543,0.0,0.0,1.6191747942405682e-20,-25.329423545150835,303.37143167848205,0.46087591731196637,30297.398686073684,229.01287976113383,5.653747654909677e-17,0.29425721472513605,-0.35157440609685686,0.0,0.0,0.0,0.1088610266548822,251.33225825179878,33.024897127717814
2.6999999999998137,6387245.353151186,1257.6237718663865,-1.4366850410239607e-18,6387245.4769618,0.05750910902673396,-1.4366850410239607e-18,-26.393876551159007,465.80796321970524,-1.7532489850108428e-18,-1.7532549011635665e-18,0.047865529666591716,26.302160264752796,9108.476961591412,9.003741790442214e-09,1.6823926762071593e-23,9.786181186027495,0.0,2.220446090038286e-16,-0.00019689610874178162,0.0,0.0,1.6191747942405682e-20,-26.3021602647528,303.3825140318881,0.4610192391033801,30309.03477470465,229.02961204216268,6.005257054443895e-17,0.30085395276707694,-0.37343277614126247,0.0,0.0,0.0,0.1113141990864903,262.888311958951,33.77034351418207
2.799999999999802,6387242.664963117,1304.2046622718685,-1.620005464757756e-18,6387242.798115235,0.06241886486841077,-1.620005464757756e-18,-27.369859197890925,465.80985134205696,-1.914741493008867e-18,-1.914748410741126e-18,0.05034008767119264,27.27474538377594,9105.798115026177,9.772427139740091e-09,1.8970652937135782e-23,9.786189408062288,0.0,2.220446092998257e-16,-0.00020418899242713042,0.0,0.0,1.6191747942405682e-20,-27.27474538377594,303.3940135163128,0.4611679969942928,30321.113111380648,229.04697475919008,6.368856970784557e-17,0.30754512921476446,-0.3960429866506269,0.0,0.0,0.0,0.1138032255564866,274.8858113667488,34.52676948857919
2.899999999999792,6387239.879184572,1350.7857434354007,-1.8199550357334106e-18,6387240.02201795,0.06757908278383509,-1.8199550357334106e-18,-28.345685157479565,465.81177848099964,-2.085884966986644e-18,-2.0858930156255293e-18,0.05287493254621079,28.247173757244507,9103.02201774163,1.058032617388387e-08,2.13121104188706e-23,9.786197928594238,0.0,2.2204460960502643e-16,-0.00021148191532616335,0.0,0.0,1.6191747942405682e-20,-28.247173757244507,303.40593001923645,0.46132219414799114,30333.63405312651,229.06496781393272,6.74464674241875e-17,0.31432415673913777,-0.41941121492038996,0.0,0.0,0.0,0.1163257100027239,287.3253252843824,35.29345241938874
2.9999999999997806,6387236.995831483,1397.3670192880218,-2.0375148020564973e-18,6387237.148685884,0.07299582029544827,-2.0375148020564973e-18,-29.321349245927934,465.81374521720375,-2.2669988342120797e-18,-2.2670081551499707e-18,0.055470639379439225,29.219440199584056,9100.148685674072,1.1428387360013167e-08,2.3859787516130768e-23,9.78620674757561,0.0,2.2204460991927736e-16,-0.00021877487838734992,0.0,0.0,1.6191747942405682e-20,-29.219440199584056,303.4182634242141,0.461481833844735,30346.597970166582,229.08359110474993,7.132717679961472e-17,0.3211849090729731,-0.44354313903828946,0.0,0.0,0.0,0.1188794269093208,300.20744393536563,36.06972139118064
3.0999999999997696,6387234.014920293,1443.9484938167964,-2.273697870544215e-18,6387234.178135483,0.07867519036909305,-2.273697870544215e-18,-30.296846241862955,465.815752090848,-2.4584048109438883e-18,-2.458415558387288e-18,0.05812774257370934,30.191539487832284,9097.17813527417,1.2317567850950375e-08,2.662554795298105e-23,9.786215864957123,0.0,2.2204461024241973e-16,-0.00022606788256784093,0.0,0.0,1.6191747942405682e-20,-30.191539487832287,303.43101361093096,0.4616469194824652,30360.00524598857,229.1028445267245,7.533154035884268e-17,0.3281216890535428,-0.4684439981862728,0.0,0.0,0.0,0.121462309529804,313.53277888313215,36.85495363199917
3.1999999999997586,6387230.936467979,1490.5301710608958,-2.529549626795527e-18,6387231.110383733,0.08462335747394244,-2.529549626795527e-18,-31.272170889356186,465.8177996044541,-2.660426729590041e-18,-2.6604390713288134e-18,0.06084673867940145,31.163466364460877,9094.11038352399,1.3248832868497604e-08,2.9621633445770476e-23,9.786225280687907,0.0,2.2204461057428977e-16,-0.00023336092883285753,0.0,0.0,1.6191747942405682e-20,-31.163466364460877,303.44418045513237,0.4618174545758704,30373.856277274474,229.12272797155245,7.946033863631627e-17,0.33512919795023766,-0.49411864606405614,0.0,0.0,0.0,0.124072438583192,327.3019629614335,37.64857108438111
3.299999999999748,6387227.76049204,1537.1120551079705,-2.806147939054318e-18,6387227.945448137,0.09084653393723634,-2.806147939054318e-18,-32.24731790039966,465.81988822551466,-2.873390386979305e-18,-2.873404505180509e-18,0.06362808902234075,32.13521553985233,9090.945447929049,1.4223155132889564e-08,3.2860666090418787e-23,9.786234994715521,0.0,2.22044610914719e-16,-0.0002406540181551206,0.0,0.0,1.6191747942405682e-20,-32.13521553985233,303.4577638286597,0.4619934427568435,30388.151473944494,229.14324132759418,8.371429777867091e-17,0.3422025062864853,-0.5205715981645074,0.0,0.0,0.0,0.1267080315003411,341.51565020952074,38.45003714343991
3.399999999999737,6387224.487010503,1583.6941500907762,-3.1046033478525847e-18,6387224.683346732,0.0973509765411554,-3.1046033478525847e-18,-33.22228195707709,465.82201838892956,-3.0976234113074483e-18,-3.097639503339484e-18,0.06647222213975269,33.106781694472105,9087.68334652286,1.5241514330156018e-08,3.635565058318377e-23,9.786245006985954,0.0,2.220446112635333e-16,-0.00024794715151432007,0.0,0.0,1.6191747942405682e-20,-33.10678169447211,303.47176359943427,0.4621748877742444,30402.891259144875,229.16438447984544,8.8094096266483e-17,0.34933702628015173,-0.5478070735723858,0.0,0.0,0.0,0.1293674322670969,356.1745158103926,39.25885357607621
3.4999999999997256,6387221.116041938,1630.2764601840186,-3.4260592431906086e-18,6387221.32409809,0.10414298336272983,-3.4260592431906086e-18,-34.19705771346552,465.82419049925727,-3.3334551455906176e-18,-3.3334734248676974e-18,0.06937953602933151,34.07815948077108,9084.324097880548,1.6304896617534296e-08,4.0119976295483624e-23,9.786255317443565,0.0,2.2204461162055377e-16,-0.00025524032989660895,0.0,0.0,1.6191747942405682e-20,-34.07815948077108,303.4861796314006,0.46236179349315804,30418.076069194936,229.18615730984868,9.260037085448482e-17,0.35652848596723735,-0.5758290319031637,0.0,0.0,0.0,0.1320491018870905,371.27925603353907,40.0745576282128
3.5999999999997145,6387217.647605421,1676.85898960143,-3.771692030806812e-18,6387217.867721297,0.11122889083930187,-3.771692030806812e-18,-35.171639797299086,465.82640493279536,-3.581216545704712e-18,-3.581237242561101e-18,0.07235040023213773,35.049343524850144,9080.867721089342,1.7414294164195134e-08,4.416741922095687e-23,9.786265926031183,0.0,2.220446119855962e-16,-0.00026253355429415795,0.0,0.0,1.6191747942405682e-20,-35.049343524850144,303.50101178465667,0.4625541638965503,30433.70635372916,229.2085596958841,9.72337218198469e-17,0.3637729050131107,-0.6046412059391036,0.0,0.0,0.0,0.1347516094677388,386.8305881795552,40.896719321138626
3.699999999999704,6387214.081720605,1723.4417425930428,-4.142711288909152e-18,6387214.314236013,0.1186150709866933,-4.142711288909152e-18,-36.14602281142225,465.8286620394979,-3.8412400913101835e-18,-3.84126345389332e-18,0.07538515774433026,36.02032842791409,9077.314235805336,1.8570704715875976e-08,4.851214381082457e-23,9.786276832689936,0.0,2.2204461235847117e-16,-0.0002698268257047125,0.0,0.0,1.6191747942405682e-20,-36.02032842791409,303.5162599152125,0.4627520030821272,30449.78257544976,229.23159151260222,1.0199471759848786e-16,0.3710665721971202,-0.634247130459838,0.0,0.0,0.0,0.1374736239221959,402.8292505275461,41.72493893467091
3.799999999999693,6387210.418407667,1770.0247234426392,-4.540359916579944e-18,6387210.6636624215,0.1263079288524043,-4.540359916579944e-18,-37.12020133505728,465.8309621447522,-4.113859708162093e-18,-4.113886003356614e-18,0.07848412679660863,36.99110876753979,9073.663662213754,1.977513119631151e-08,5.316870471174658e-23,9.786288037359357,0.0,2.220446127389841e-16,-0.00027712014513119466,0.0,0.0,1.6191747942405682e-20,-36.99110876753979,303.531923875164,0.46295531526456013,30466.305210315455,229.25525263128088,1.0688389888233286e-16,0.37840602451058736,-0.6646501677208838,0.0,0.0,0.0,0.1402139062672149,419.27600228476996,42.558844671144115
3.8999999999996815,6387206.65768733,1816.6079364653842,-4.965914274925171e-18,6387206.916021253,0.13431390012386163,-4.965914274925171e-18,-38.09416992490761,465.83330555100804,-4.399410700481972e-18,-4.3994402148608564e-18,0.08164760248223478,37.96167909878021,9069.91602104484,2.1028581332938726e-08,5.815204841871363e-23,9.78629953997737,0.0,2.2204461312693514e-16,-0.000284413513581333,0.0,0.0,1.6191747942405682e-20,-37.96167909878021,303.5480035126275,0.4631641047746176,30483.274747479114,229.27954291972245,1.1190178224059436e-16,0.38578802780771043,-0.6958535299723294,0.0,0.0,0.0,0.1429713024935746,436.1716235375435,43.39809049304902
3.9999999999996714,6387202.799580855,1863.1913860055986,-5.4206843219148554e-18,6387203.071333776,0.142639448880683,-5.4206843219148554e-18,-39.06792311611588,465.83569253928493,-4.698229692225534e-18,-4.698262733020714e-18,0.0848758582637778,38.93203395512289,9066.071333568194,2.2332067305149425e-08,6.347751485406069e-23,9.786311340480257,0.0,2.2204461352211925e-16,-0.00029170693206730867,0.0,0.0,1.6191747942405682e-20,-38.93203395512289,303.5644986717672,0.4633783760594986,30500.691689323274,229.3044622422904,1.1704886332237863e-16,0.3932095589297023,-0.7278602993740244,0.0,0.0,0.0,0.1457447369796463,453.5169152044978,44.24235412543088
4.099999999999704,6387198.84411006,1909.7750764346958,-5.906013741751654e-18,6387199.129621817,0.15129106551085306,-5.906013741751654e-18,-40.04145542309346,465.83812337056185,-5.010654576218461e-18,-5.01069147232062e-18,0.088169147360867,39.90216784932005,9062.129621609787,2.368660541820479e-08,6.916083888240409e-23,9.786323438802643,0.0,2.2204461392432585e-16,-0.00029900040160542335,0.0,0.0,1.6191747942405682e-20,-39.90216784932005,303.58140919272535,0.46359813368189845,30518.55655139284,229.3300104597989,1.2232561969020432e-16,0.400667789215942,-0.7606734456156171,0.0,0.0,0.0,0.1485332064169048,471.3126989901036,45.09133521355286
4.199999999999737,6387194.791297313,1956.3590121492389,-6.423280069508307e-18,6387195.090907752,0.1602752647442047,-6.423280069508307e-18,-41.014761340236646,465.84059828705534,-5.337024470257397e-18,-5.337065573242224e-18,0.09152770402865396,40.87207527410537,9058.090907545165,2.509321579551538e-08,7.521815177017604e-23,9.786335834877516,0.0,2.220446143333396e-16,-0.0003062939232158027,0.0,0.0,1.6191747942405682e-20,-40.87207527410537,303.59873491165473,0.4638233823204063,30536.869862436273,229.35618742955697,1.277325133290824e-16,0.40816006931374144,-0.7942958415190968,0.0,0.0,0.0,0.1513357742146624,489.55981733961477,45.944753625922516
4.299999999999771,6387190.641165523,2002.9431975691218,-6.973894811689904e-18,6387190.955214496,0.1695985838218916,-6.973894811689904e-18,-41.987835342541636,465.8431175134016,-5.67767967937976e-18,-5.6777253645586e-18,0.09495174473952488,41.84175070280925,9053.955214289215,2.6552922092211988e-08,8.166598259743781e-23,9.786348528636239,0.0,2.220446147489392e-16,-0.0003135874979221017,0.0,0.0,1.6191747942405682e-20,-41.84175070280924,303.6164756607657,0.4640541267700927,30555.632164462368,229.38299300543457,1.3326999286991985e-16,0.41568391519962106,-0.8287302768648768,0.0,0.0,0.0,0.1541515653516165,508.2591333953013,46.8023478928363
4.399999999999804,6387186.393738161,2049.52763713587,-7.559303563301977e-18,6387186.722565529,0.17926758076634375,-7.559303563301977e-18,-42.960671886130896,465.84568125774337,-6.032961663602219e-18,-6.033012331098455e-18,0.09844146926847909,42.81118858988565,9049.722565322292,2.806675122444794e-08,8.852125962877499e-23,9.786361520008478,0.0,2.2204461517089844e-16,-0.0003208811267512371,0.0,0.0,1.6191747942405682e-20,-42.81118858988565,303.63463126821756,0.4642903719410663,30574.84401263229,229.41042703769335,1.389384955608517e-16,0.42323699532477327,-0.8639794706503863,0.0,0.0,0.0,0.156979761642333,527.4115309519937,47.663873770744935
4.4999999999998375,6387182.049039242,2096.1123353110406,-8.180986121939867e-18,6387182.392984876,0.18928883276771913,-8.180986121939867e-18,-43.93326540869961,465.848289712733,-6.4032130105106584e-18,-6.4032690863654335e-18,0.10199706169637839,43.78038337135903,9045.392984672044,2.9635733116940163e-08,9.580131164931158e-23,9.786374808922266,0.0,2.220446155989855e-16,-0.00032817481073313105,0.0,0.0,1.6191747942405682e-20,-43.78038337135904,303.65320155819984,0.4645321228595084,30594.50597535312,229.43848937310415,1.4473844901744987e-16,0.4308171187995943,-0.9000460819736235,0.0,0.0,0.0,0.1598195973871674,547.01791441442,48.52910292293556
4.599999999999871,6387177.607093356,2142.6972965747236,-8.840456599356754e-18,6387177.9664971335,0.19966893465804814,-8.840456599356754e-18,-44.90561032989262,465.85094305646044,-6.788777412158233e-18,-6.788839349450653e-18,0.10561869133577956,44.74932946520153,9040.966496928175,3.126090046423911e-08,1.0352386927119823e-22,9.786388395303945,0.0,2.220446160329635e-16,-0.00033546855090048117,0.0,0.0,1.6191747942405682e-20,-44.74932946520153,303.67218635087283,0.46477938466686425,30614.618634221846,229.46717985485145,1.5067027277724846e-16,0.4384222245388343,-0.9369327196998652,0.0,0.0,0.0,0.1626703553765238,567.0792087539976,49.397821707653485
4.699999999999904,6387173.067925643,2189.2825254241184,-9.539263530916637e-18,6387173.443127453,0.21041449747115873,-9.539263530916637e-18,-45.87770105161789,465.8536414533067,-7.189999645792085e-18,-7.190067925800338e-18,0.10930651358510139,45.71802127164683,9036.443127248125,3.2943288505428476e-08,1.11707066215333e-22,9.786402279078157,0.0,2.220446164725898e-16,-0.00034276234828852403,0.0,0.0,1.6191747942405682e-20,-45.71802127164683,303.69158546234667,0.4650321626195417,30635.182584010785,229.49649832249654,1.5673437968204205e-16,0.4460503712886969,-0.9746419510573922,0.0,0.0,0.0,0.1655313632210264,587.596359465429,50.26983006506882
4.799999999999938,6387168.431561803,2235.8680263722176,-1.0278989983293688e-17,6387168.822901541,0.22153214710428784,-1.0278989983293688e-17,-46.84953195830543,465.85638505473327,-7.607225557987185e-18,-7.607300691366208e-18,0.11306067071673877,46.68645317344942,9031.822901335494,3.4683934814744865e-08,1.2036944057254674e-22,9.78641646016792,0.0,2.2204461691761664e-16,-0.00035005620393483523,0.0,0.0,1.6191747942405682e-20,-46.686453173449436,303.71139870477776,0.46529046209013436,30656.198432777197,229.526444612117,1.6293117710872502e-16,0.45369972846762585,-1.0131763092913804,0.0,0.0,0.0,0.1684019899813588,608.5703325253544,51.1449404951403
4.899999999999971,6387163.698028096,2282.4538039465415,-1.1061253660739458e-17,6387164.105845666,0.23302852303375396,-1.1061253660739458e-17,-47.82109741711585,465.85917400001244,-8.040802051812639e-18,-8.040884579807533e-18,0.11688129260771696,47.654619536093435,9027.105845461616,3.6483879100660855e-08,1.2952993604801745e-22,9.786430938494519,0.0,2.2204461736779067e-16,-0.0003573501188791232,0.0,0.0,1.6191747942405682e-20,-47.65461953609343,303.73162588627963,0.4655542885662339,30677.666801777075,229.55701855616704,1.692610680651511e-16,0.4613685677508234,-1.0525383004784266,0.0,0.0,0.0,0.1712816430733604,630.0021143482425,52.02297711892406
5.000000000000004,6387158.867351356,2329.0398626879537,-1.18877070102046e-17,6387159.291986672,0.2449102771025913,-1.18877070102046e-17,-48.792391778105404,465.86200841689947,-8.49107707670217e-18,-8.4911675723629e-18,0.12076849740879668,48.62251470795797,9022.291986467833,3.834416301623407e-08,1.392079031922709e-22,9.786445713977557,0.0,2.220446178228532e-16,-0.0003646440941630423,0.0,0.0,1.6191747942405682e-20,-48.62251470795796,303.7522668109175,0.4658236476503195,30699.5883254667,229.58821998346255,1.757244521677092e-16,0.4690552553402085,-1.0927304096055366,0.0,0.0,0.0,0.1741697654254068,651.8927117436868,52.903774816401665
5.100000000000038,6387153.939558969,2375.6262071495476,-1.2760037325570429e-17,6387154.381351954,0.2571840723960483,-1.2760037325570429e-17,-49.76340937435106,465.8648884222553,-8.958399620736153e-18,-8.958498690199332e-18,0.12472239216970213,49.59013302044244,9017.381351750726,4.026582998321243e-08,1.4942310062175728e-22,9.786460786534963,0.0,2.2204461828253997e-16,-0.0003719381308300114,0.0,0.0,1.6191747942405682e-20,-49.59013302044243,303.7733212787755,0.4660985450605979,30721.963651581835,229.62004871927698,1.8232172651414202e-16,0.4767582448588284,-1.1337551059976894,0.0,0.0,0.0,0.1770658328667415,674.2431518737669,53.78717843435827
5.200000000000071,6387148.914678895,2422.212841895582,-1.3679966851218502e-17,6387149.373969486,0.2698565821481115,-1.3679966851218502e-17,-50.734144522041014,465.8678141226257,-9.443119705078323e-18,-9.443227988829804e-18,0.12874307341471888,50.5574687880574,9012.373969282562,4.2249925020995846e-08,1.6019569623167585e-22,9.786476156082944,0.0,2.2204461874658153e-16,-0.00037923222992505167,0.0,0.0,1.6191747942405682e-20,-50.5574687880574,303.7947890858727,0.4663789866298815,30744.79344105733,229.6525045852083,1.8905328646279243e-16,0.4844760708190574,-1.1756148481635247,0.0,0.0,0.0,0.1799693517276583,697.0544822083244,54.67304205847789
5.300000000000105,6387143.792739676,2468.7997715004763,-1.4649252885141816e-17,6387144.2698678095,0.2829344887134681,-1.4649252885141816e-17,-51.70459152053336,465.87078561477153,-9.945588380336935e-18,-9.945706554538031e-18,0.13283062767323559,51.5245163084834,9007.269867607883,4.4297494585843074e-08,1.7154626840343186e-22,9.786491822535975,0.0,2.220446192147024e-16,-0.00038652639249461715,0.0,0.0,1.6191747942405682e-20,-51.5245163084834,303.81667002418226,0.46666497830579085,30768.078368054918,229.68558739920144,1.9591952632987295e-16,0.4922073426167417,-1.218312088131267,0.0,0.0,0.0,0.182879856633308,720.327770481514,55.561228344172804
5.400000000000138,6387138.573770397,2515.387000547855,-1.5669687881779908e-17,6387139.0690760305,0.296424482603144,-1.5669687881779908e-17,-52.674744652386835,465.8738029861647,-1.0466157724649005e-17,-1.0466286502463932e-17,0.1369851319761104,52.491269862601975,9002.069075828746,4.640958642004719e-08,1.8349580720886013e-22,9.786507785806881,0.0,2.220446196866221e-16,-0.0003938206195864551,0.0,0.0,1.6191747942405682e-20,-52.49126986260198,303.8389638816988,0.4669565261516,30791.819120043427,229.71929697564366,2.0292084001373567e-16,0.4999507390033432,-1.2618492753307047,0.0,0.0,0.0,0.1857969084745694,744.0641046479575,56.45160790111592
5.500000000000171,6387133.257800728,2561.974533629646,-1.6743099554740923e-17,6387133.771623824,0.3103332615511055,-1.6743099554740923e-17,-53.644598183366334,465.8768663154448,-1.1005180843307462e-17,-1.1005320976271874e-17,0.1412066543106531,53.457723714501434,8996.771623621757,4.8587249405958235e-08,1.9606571561312507e-22,9.786524045806745,0.0,2.2204462016205443e-16,-0.00040111491224944216,0.0,0.0,1.6191747942405682e-20,-53.45772371450144,303.8616704423693,0.4672536363453015,30816.016397734267,229.75363312525417,2.100576215535696e-16,0.5077050029986111,-1.3062288600674101,0.0,0.0,0.0,0.1887200925412849,768.264592836871,57.344058726984414
5.600000000000205,6387127.844860932,2608.5623753452182,-1.7871350979556725e-17,6387128.377541461,0.3246675296235601,-1.7871350979556725e-17,-54.614146362425906,465.87997567284276,-1.156301186976875e-17,-1.1563164149176493e-17,0.14549525404143174,54.423872111460014,8991.377541259639,5.083153342669013e-08,2.092778106780081e-22,9.786540602444871,0.0,2.220446206407077e-16,-0.00040840927153346535,0.0,0.0,1.6191747942405682e-20,-54.423872111460014,303.88478948600584,0.4675563151784064,30840.670914995655,229.78859565494406,2.173302656301155e-16,0.5154689372056842,-1.3514532966364008,0.0,0.0,0.0,0.1916490168038637,792.9303633052102,58.2384656861903
5.700000000000238,6387122.334981822,2655.150530300562,-1.905634069660185e-17,6387122.886859769,0.3394339963942597,-1.905634069660185e-17,-55.58338342167126,465.883131120576,-1.2140005967901027e-17,-1.2140171226216502e-17,0.1498509823085453,55.38970928390857,8985.886859569226,5.31434892371614e-08,2.2315432476711294e-22,9.786557455628891,0.0,2.220446211222846e-16,-0.0004157036984892776,0.0,0.0,1.6191747942405682e-20,-55.389709283908566,303.908320788469,0.46786456905832224,30865.783399058197,229.8241843680887,2.2473916801615355e-16,0.5232413994907081,-1.3975250461234683,0.0,0.0,0.0,0.1945833103301085,818.0625643936129,59.13472002966683
5.800000000000272,6387116.728194808,2701.7390031074997,-2.0300002814293966e-17,6387117.299610167,0.3546393761228031,-2.0300002814293966e-17,-56.55230357630472,465.88633271321095,-1.2736519335345496e-17,-1.2736698447653262e-17,0.15427388238659184,56.35522944537584,8980.29960996666,5.552416833560391e-08,2.377179067543678e-22,9.786574605264684,0.0,2.220446216064822e-16,-0.00042299819416837854,0.0,0.0,1.6191747942405682e-20,-56.35522944537585,303.9322641215223,0.46817840450639137,30891.354590367453,229.8603990642994,2.3228472597958976e-16,0.5310212990032999,-1.4444465789117384,0.0,0.0,0.0,0.1975226218268058,843.6623644778349,60.03271895242629
5.900000000000305,6387111.024531865,2748.327798382948,-2.160430711268128e-17,6387111.615824639,0.3702903869998645,-2.160430711268128e-17,-57.52090102455303,465.8895804980032,-1.3352909207876468e-17,-1.335310309333901e-17,0.15876399002533037,57.3204267924164,8974.61582444036,5.797462284554986e-08,2.529916232370589e-22,9.7865920512564,0.0,2.2204462209299226e-16,-0.0004302927596228911,0.0,0.0,1.6191747942405682e-20,-57.3204267924164,303.95661925290966,0.46849782815886093,30917.385242675475,229.89723953953379,2.3996733864648697e-16,0.5388075925001722,-1.4922203769391584,0.0,0.0,0.0,0.2004666182944735,869.730951921519,60.932365185473536
6.000000000000338,6387105.224025559,2794.916920748191,-2.2971259147511705e-17,6387105.835535767,0.38639375038996765,-2.2971259147511705e-17,-58.48916994758129,465.8928745152111,-1.3989533864659322e-17,-1.3989743488024708e-17,0.16332133376177943,58.28529550452467,8968.83553556919,6.04959053974335e-08,2.689989597545052e-22,9.786609793506416,0.0,2.220446225815006e-16,-0.0004375873959054461,0.0,0.0,1.6191747942405682e-20,-58.285295504524655,303.9813859462822,0.46882284676588126,30943.87612297179,229.93470558597767,2.4778740732675806e-16,0.5465992809535148,-1.5408489357237984,0.0,0.0,0.0,0.203414983786453,896.2695350265315,61.83356661933096
6.100000000000372,6387099.32670902,2841.5063748281977,-2.4402900354868784e-17,6387099.958776687,0.40295619014720563,-2.4402900354868784e-17,-59.45710450939314,465.8962147983892,-1.4646752634316213e-17,-1.4646979007428523e-17,0.16794593521435605,59.24982974403539,8962.958776490656,6.308906902161317e-08,2.8576382201337067e-22,9.786627831915434,0.0,2.2204462307168756e-16,-0.0004448821040690721,0.0,0.0,1.6191747942405682e-20,-59.24982974403539,304.00656396133894,0.4691534671933056,30970.828011642985,229.9727969922515,2.557453358083188e-16,0.5543954064168882,-1.590334766193017,0.0,0.0,0.0,0.2063674182629788,923.2793419863636,62.7362359564068
6.200000000000405,6387093.332615991,2888.0961652509804,-2.5901308156451325e-17,6387093.985581153,0.4199844319228959,-2.5901308156451325e-17,-60.42469885671938,465.89960137465795,-1.5324925901718276e-17,-1.5325170085066725e-17,0.172637809348798,60.21402365601248,8956.9855809577,6.575516704012953e-08,3.0331053712051374e-22,9.786646166382306,0.0,2.2204462356322787e-16,-0.00045217688516709293,0.0,0.0,1.6191747942405682e-20,-60.21402365601248,304.0321530535888,0.4694896964195117,30998.24170222685,230.01151354304187,2.6384153061947347e-16,0.5621950491267576,-1.6406803963150884,0.0,0.0,0.0,0.2093236365329761,950.761620830863,63.64029038988863
6.300000000000439,6387087.24178078,2934.6862966469416,-2.7468596065565377e-17,6387087.915983486,0.43748520251348394,-2.7468596065565377e-17,-61.391947118895914,465.9030342649574,-1.602441511543055e-17,-1.6024678219721707e-17,0.17739696473381875,61.17787136812697,8950.915983292125,6.849525296476511e-08,3.2166385482417827e-22,9.78666479680419,0.0,2.2204462405579065e-16,-0.00045947174025301886,0.0,0.0,1.6191747942405682e-20,-61.177871368126965,304.05815297455473,0.4698315415380361,31026.11800164024,230.05085501940346,2.7207640126767224e-16,0.5699973248206736,-1.6918883725839053,0.0,0.0,0.0,0.2122833672753113,978.7176393788326,64.54565130681911
6.400000000000472,6387081.054238297,2981.276773648282,-2.910691379389062e-17,6387081.75001861,0.45546522923069,-2.910691379389062e-17,-62.35884340773183,465.90651348428094,-1.6745582795746537e-17,-1.6745865983513304e-17,0.18222340377242638,62.14136699052539,8944.7500184164,7.131038039858534e-08,3.4084894876425484e-22,9.786683723076422,0.0,2.2204462454903924e-16,-0.0004667666703804546,0.0,0.0,1.6191747942405682e-20,-62.141366990525384,304.0845634716426,0.47017900975579513,31054.457730047674,230.0908211985525,2.804503604525237e-16,0.5778013822556438,-1.7439612613435733,0.0,0.0,0.0,0.2152463521338761,1007.1486851833112,65.45224401349175
6.500000000000505,6387074.770024029,3027.8676008884145,-3.0818447359077324e-17,6387075.487722021,0.4739312393105172,-3.0818447359077324e-17,-63.325381817369355,465.91003904189364,-1.7488792543251558e-17,-1.748909703047074e-17,0.18711712292061952,63.104504615689805,8938.487721828677,7.420160294356347e-08,3.608914177322659e-22,9.786702945092618,0.0,2.2204462504263134e-16,-0.000474061676603003,0.0,0.0,1.6191747942405682e-20,-63.10450461568982,304.11138428825325,0.4705321083945091,31083.261720991104,230.131411854029,2.8896382425902445e-16,0.5856064009066765,-1.7969016499900035,0.0,0.0,0.0,0.2182123448796019,1036.0560654803921,66.3599974811929
6.600000000000539,6387068.389174058,3074.458783001401,-3.2605419193223706e-17,6387069.129129814,0.4928899593128393,-3.2605419193223706e-17,-64.29155642413534,465.91361094153643,-1.825440904786436e-17,-1.825473610561463e-17,0.19207811288992455,64.06727831828954,8932.129129624362,7.716997410672937e-08,3.818172869416621e-22,9.786722462744594,0.0,2.22044625536219e-16,-0.00048135675997416764,0.0,0.0,1.6191747942405682e-20,-64.06727831828954,304.1386151636954,0.47089084488949645,31112.53082130551,230.17262675555656,2.9761721233028683e-16,0.5934115888340404,-1.8507121480450017,0.0,0.0,0.0,0.2211811106345597,1065.441107133023,67.26884411072744
6.700000000000572,6387061.911725071,3121.050324621407,-3.447008825227938e-17,6387062.674278686,0.5123481145570069,-3.447008825227938e-17,-65.2573612863861,465.9172291816139,-1.904279809830557e-17,-1.9043149054449096e-17,0.1971063588339134,65.02968215502604,8925.67427849612,8.021654721195724e-08,4.0365300930896304e-22,9.78674227592238,0.0,2.2204462602944836e-16,-0.0004886519215472755,0.0,0.0,1.6191747942405682e-20,-65.02968215502604,304.1662558331906,0.4712552267896869,31142.265891134117,230.21446566904226,3.064109480235869e-16,0.6012161807047687,-1.9053953881266483,0.0,0.0,0.0,0.2241524251527093,1095.3051565758547,68.17871951414163
6.800000000000606,6387055.337714328,3167.6422303821814,-3.6414750126415285e-17,6387056.1232059095,0.5323124286188131,-3.6414750126415285e-17,-66.22279044434629,465.9208937553709,-1.9854326591955467e-17,-1.9854702832838223e-17,0.20220184052556336,65.99171016447204,8919.123205723652,8.33423753213591e-08,4.264254667462154e-22,9.78676238451424,0.0,2.2204462652196005e-16,-0.0004959471623753815,0.0,0.0,1.6191747942405682e-20,-65.99171016447205,304.1943060279224,0.4716252617582085,31172.467803990556,230.25692835664276,3.1534545855101715e-16,0.6090194359525674,-1.9609540268239314,0.0,0.0,0.0,0.2271260741526583,1125.6495797592904,69.08956231222648
6.900000000000639,6387048.66717971,3214.234504916549,-3.8441737151397347e-17,6387049.4759493815,0.5527896226875311,-3.8441737151397347e-17,-67.18783791994129,465.9246046510556,-2.0689362545056254e-17,-2.0689765517246687e-17,0.20736453251700315,66.95335636690406,8912.475949196407,8.654851113476965e-08,4.501619714652054e-22,9.786782788406603,0.0,2.220446270133889e-16,-0.0005032424835111916,0.0,0.0,1.6191747942405682e-20,-66.95335636690407,304.2227654749448,0.4720009575711175,31203.13744666975,230.30001457661737,3.244211751050728e-16,0.6168206370719016,-2.0173907454777025,0.0,0.0,0.0,0.2301018526986875,1156.4757620900987,70.00131394662591
7.000000000000672,6387041.900159672,3260.8271528559126,-4.0553418520995505e-17,6387042.732547567,0.573786415164244,-4.0553418520995505e-17,-68.15249771662528,465.928361852072,-2.1548275103229287e-17,-2.1548706315280106e-17,0.21259440429411966,67.9146147641305,8905.732547384057,8.98360069270085e-08,4.748902672937954e-22,9.786803487484155,0.0,2.2204462750336376e-16,-0.0005105378860069804,0.0,0.0,1.6191747942405682e-20,-67.9146147641305,304.25163389731375,0.4723823221190769,31234.275719399655,230.34372408351874,3.336385329730498e-16,0.6246190880274439,-2.0747082508920465,0.0,0.0,0.0,0.2330795646254929,1187.7851083754379,70.91391850525045
7.100000000000706,6387035.036693293,3307.4201788297723,-4.275220040045971e-17,6387035.893039554,0.5953095211040637,-4.275220040045971e-17,-69.11676381920424,465.9321653371234,-2.2431434552271004e-17,-2.2431895576497503e-17,0.21789142041590853,68.87547933931498,8898.893039372831,9.320591446069949e-08,5.006385310047552e-22,9.786824481629727,0.0,2.2204462799150803e-16,-0.000517833370914511,0.0,0.0,1.6191747942405682e-20,-68.87547933931498,304.2809110139373,0.47276936340531056,31265.88353568914,230.38805662795738,3.4299797163765056e-16,0.6324141127765885,-2.1329092759598964,0.0,0.0,0.0,0.2360590220039979,1219.5790427590812,71.82732256008153
7.200000000000739,6387028.076820239,3354.0135874652806,-4.504052604108765e-17,6387028.957465029,0.6173656517635132,-4.504052604108765e-17,-70.08063019365503,465.93601508034334,-2.3339212329200087e-17,-2.3339704803507932e-17,0.22325554064667538,69.83594405679537,8891.957464849627,9.665928491555483e-08,5.274353736573771e-22,9.786845770724353,0.0,2.22044628477439e-16,-0.0005251289392849624,0.0,0.0,1.6191747942405682e-20,-69.83594405679537,304.31059653964934,0.4731620895465127,31297.961822417335,230.43301195670506,3.524999348687558e-16,0.6402050538908527,-2.1919965802337087,0.0,0.0,0.0,0.2390400446442361,1251.859008661596,72.74147501626622
7.300000000000771,6387021.020580783,3400.6073833867736,-4.742087589590882e-17,6387021.925864271,0.6399615141056288,-4.742087589590882e-17,-71.04409078694071,465.9399110514189,-2.4271981033532107e-17,-2.4272506663238073e-17,0.22868672007817809,70.79600286189945,8884.925864095188,1.001971688110385e-07,5.553098419521657e-22,9.786867354647272,0.0,2.2204462896076826e-16,-0.0005324245921688552,0.0,0.0,1.6191747942405682e-20,-70.79600286189947,304.3406901852443,0.4735605087732402,31330.511519881024,230.4785898127382,3.6214487080545407e-16,0.6479912712733485,-2.2519729504355572,0.0,0.0,0.0,0.2420224596328533,1284.6264687192092,73.65632697170213
7.400000000000806,6387013.868015814,3447.201571215342,-4.9895767736506433e-17,6387014.798278189,0.6631038103380941,-4.9895767736506433e-17,-72.00713952682275,465.9438532157054,-2.5230114438753215e-17,-2.5230674998473626e-17,0.2341849092418479,71.75564968075705,8877.798278014765,1.038206159342e-07,5.84291419598848e-22,9.786889233275852,0.0,2.220446294411015e-16,-0.0005397203306159751,0.0,0.0,1.6191747942405682e-20,-71.75564968075705,304.371191657352,0.47396462942818507,31363.533581669013,230.52478993503928,3.719332320277635e-16,0.655772140960594,-2.3128412009031294,0.0,0.0,0.0,0.2450061009025815,1317.882904715952,74.57183158627814
7.500000000000839,6387006.61916681,3493.7961555683964,-5.246775677099568e-17,6387007.574748267,0.6867992374752898,-5.246775677099568e-17,-72.96977032167021,465.94784153433255,-2.621398750397402e-17,-2.621458483950492e-17,0.23975005421663528,72.7148784201095,8870.574748096105,1.0753067527125269e-07,6.144100286979292e-22,9.786911406485713,0.0,2.2204462991803874e-16,-0.0005470161556753087,0.0,0.0,1.6191747942405682e-20,-72.7148784201095,304.4021006586231,0.474374459968561,31397.028974872814,230.57161205886925,3.818654756232556e-16,0.6635470540034023,-2.3746041740040265,0.0,0.0,0.0,0.2479908088306756,1351.6298175238364,75.48794395997196
7.600000000000873,6386999.274075876,3540.3911410592577,-5.51394357631758e-17,6387000.255316628,0.7110544868819111,-5.51394357631758e-17,-73.93197706026596,465.9518759643051,-2.722397638574411e-17,-2.7224612415986055e-17,0.24538209672568584,73.67368296711595,8863.25531646055,1.1132839493626391e-07,6.456960311359919e-22,9.786933874150558,0.0,2.2204463039117395e-16,-0.0005543120683949716,0.0,0.0,1.6191747942405682e-20,-73.67368296711595,304.4334168875165,0.47479000896321344,31430.998679866392,230.6190559154359,3.919420632427124e-16,0.6713154154236128,-2.4372647404818566,0.0,0.0,0.0,0.2509764298650431,1385.8687270299727,76.40462101924895
7.700000000000906,6386991.83278573,3586.9865322967394,-5.791343515287042e-17,6386992.840026006,0.7358762438463633,-5.791343515287042e-17,-74.89375361161133,465.9559564585932,-2.826045845000597e-17,-2.82611351689134e-17,0.25108097422753295,74.63205718915822,8855.840025840318,1.1521482210450758e-07,6.781802299949088e-22,9.786956636142257,0.0,2.22044630860095e-16,-0.0005616080698221369,0.0,0.0,1.6191747942405682e-20,-74.63205718915822,304.46514003840247,0.4752112850939097,31465.443690427677,230.66712123204107,4.021634611520144e-16,0.6790766432368459,-2.500825799778904,0.0,0.0,0.0,0.2539628161749891,1420.6011720715226,77.32182141100093
7.8000000000009395,6386984.295339695,3633.5823338847586,-6.079242317746988e-17,6386985.328919732,0.7612711871679148,-6.079242317746988e-17,-75.85509382472806,465.9600829662203,-2.932381228417514e-17,-2.932453176272734e-17,0.25684662000284336,75.58999493364261,8848.328919568294,1.1919100294796975e-07,7.118938709751344e-22,9.786979692330888,0.0,2.2204463132438427e-16,-0.0005689041610029761,0.0,0.0,1.6191747942405682e-20,-75.58999493364261,304.49726980161256,0.47563829715592476,31500.36501380272,230.71580773214677,4.125301402775078e-16,0.686830167538032,-2.5652902803182323,0.0,0.0,0.0,0.2569498253252089,1455.8287103679147,78.23950540352219
7.900000000000973,6386976.661781719,3680.1785504219392,-6.377910599468725e-17,6386977.722041771,0.7872459887288071,-6.377910599468725e-17,-76.81599152845874,465.9642554323422,-3.0414417709329305e-17,-3.0415182097540596e-17,0.26267896323179796,76.5474900278009,8840.722041609819,1.2325798256849698e-07,7.468686438332062e-22,9.7870030425846,0.0,2.2204463178361787e-16,-0.0005762003429825937,0.0,0.0,1.6191747942405682e-20,-76.5474900278009,304.52980586330966,0.47607105405623734,31535.763670574666,230.76511513516886,4.2304257624390314e-16,0.6945754296462803,-2.630661139739367,0.0,0.0,0.0,0.259937319971492,1491.5529184456943,79.15763479402382
8.000000000001005,6386968.93215635,3726.775186501228,-6.687622780653793e-17,6386970.019436686,0.8138073130989957,-6.687622780653793e-17,-77.77644053126562,465.9684737983201,-3.153265579249292e-17,-3.153346732143417e-17,0.26857792906751116,77.50453627848896,8833.019436529756,1.2741680493605435e-07,7.831366838335762e-22,9.787026686769758,0.0,2.2204463223736613e-16,-0.0005834966168049588,0.0,0.0,1.6191747942405682e-20,-77.50453627848896,304.5627479056353,0.4765095648154048,31571.64069483379,230.81504315669056,4.337012494098845e-16,0.7023118813020469,-2.6969413651197174,0.0,0.0,0.0,0.2629251675758934,1527.7753915711403,80.07617282212102
8.10000000000095,6386961.106508772,3773.3722467095217,-7.008657098455215e-17,6386962.221149673,0.840961817131173,-7.008657098455215e-17,-78.73643462102827,465.9727380017905,-3.267890885900523e-17,-3.2679769842866765e-17,0.27454343870368814,78.46112747198467,8825.221149518618,1.3166851282545906e-07,8.207305732148794e-22,9.78705062475084,0.0,2.2204463268519334e-16,-0.0005907929835128441,0.0,0.0,1.6191747942405682e-20,-78.46112747198467,304.596095606604,0.476953838566079,31607.997134072906,230.86559150829285,4.445066448963456e-16,0.7100389839161392,-2.764133973150167,0.0,0.0,0.0,0.2659132401406789,1564.4977436730549,80.99508408894883
8.200000000000895,6386953.184884798,3819.9697356273086,-7.341295619622774e-17,6386954.327226562,0.8687161495666597,-7.341295619622774e-17,-79.69596756483976,465.97704797672975,-3.385356050495569e-17,-3.3854473343116866e-17,0.2805754094367288,79.41725737378414,8817.327226411862,1.3601414775481588e-07,8.596833426707246e-22,9.787074856390387,0.0,2.2204463312665765e-16,-0.0005980894441477701,0.0,0.0,1.6191747942405682e-20,-79.41725737378414,304.6298486400278,0.4774038845519038,31644.834049114208,230.91675989742936,4.554592526103124e-16,0.7177562078626728,-2.832242010283835,0.0,0.0,0.0,0.26890141395924,1601.7216072639446,81.91433448142992
8.30000000000084,6386945.167330849,3866.567657828271,-7.685824253272935e-17,6386946.337713785,0.8970769506440003,-7.685824253272935e-17,-80.655033108802,465.9814036535109,-3.505699560968148e-17,-3.5057962788834444e-17,0.28667375472546414,80.37291972839736,8809.337713637657,1.4045474992437533e-07,9.000284728450856e-22,9.78709938154914,0.0,2.220446335613115e-16,-0.0006053859997499371,0.0,0.0,1.6191747942405682e-20,-80.37291972839736,304.66400667574493,0.4778597121304917,31682.15251437,230.96854802776448,4.665595672685035e-16,0.725463031816685,-2.901268552882579,0.0,0.0,0.0,0.2718895693824772,1639.4486333721077,82.83389110131388
8.400000000000784,6386937.053893969,3913.166017878972,-8.042532763784051e-17,6386938.252658406,0.9260508517367744,-8.042532763784051e-17,-81.61362497782055,465.98580495896056,-3.628960034831389e-17,-3.629062444460273e-17,0.2928383842438152,81.3281082591429,8801.252658264579,1.4499135815996371e-07,9.417998958423589e-22,9.787124200085936,0.0,2.22044633988701e-16,-0.0006126826513581701,0.0,0.0,1.6191747942405682e-20,-81.32810825914288,304.69856937942365,0.47832133077070166,31719.953617637442,231.02095559886467,4.778080884121438e-16,0.7331589421312459,-2.9712167073091234,0.0,0.0,0.0,0.274877590600421,1677.6804914556405,83.75372219872449
8.500000000000728,6386928.844621855,3959.7648203384697,-8.411714783817164e-17,6386930.072108131,0.9556444749500841,-8.411714783817164e-17,-82.57173687539819,465.9902518164088,-3.7551762204364526e-17,-3.7552845885531483e-17,0.29906920392997505,82.28281666794179,8793.072107993657,1.496250098499431e-07,9.850319967521307e-22,9.787149311857688,0.0,2.2204463440836626e-16,-0.0006199794000098564,0.0,0.0,1.6191747942405682e-20,-82.28281666794179,304.7335364126025,0.4787887500530899,31758.23846015292,231.07398230624923,4.892053204209531e-16,0.7408434322499895,-3.0420896100140324,0.0,0.0,0.0,0.2778653654371576,1716.4188693234187,84.67379710980369
8.600000000000673,6386920.539562804,4006.364069757985,-8.793667827462904e-17,6386921.796111277,0.9858644327696913,-8.793667827462904e-17,-83.52936248342846,465.9947441457358,-3.88438699823411e-17,-3.8845016009944255e-17,0.30536611603350466,83.23703863511119,8784.796111144755,1.543567408904136e-07,1.029759615188711e-21,9.787174716719466,0.0,2.2204463481984153e-16,-0.0006272762467408924,0.0,0.0,1.6191747942405682e-20,-83.23703863511119,304.768907432755,0.47926197967068035,31797.008156672975,231.12762784147893,5.00751772524393e-16,0.7485160021572096,-3.113890427605661,0.0,0.0,0.0,0.2808527851584674,1755.6654730565494,85.59408619821791
8.700000000000617,6386912.13876577,4052.963770680564,-9.188693303514623e-17,6386913.4247168135,1.016717327688029,-9.188693303514623e-17,-84.48649546198911,465.9992818634141,-4.01663138203876e-17,-4.016752505199722e-17,0.3117290191542385,84.19076781915778,8776.424716684949,1.5918758562679277e-07,1.0760180468454504e-21,9.787200414524365,0.0,2.220446352226547e-16,-0.0006345731925856268,0.0,0.0,1.6191747942405682e-20,-84.19076781915778,304.804682093175,0.4797410294273392,31836.263835359056,231.18189189197156,5.124479588074804e-16,0.7561761578570074,-3.1866223568862995,0.0,0.0,0.0,0.2838397442914356,1795.4220269198033,86.5145608002453
8.800000000000562,6386903.642280338,4099.56392764072,-9.597096528868001e-17,6386904.957974336,1.048209751835261,-9.597096528868001e-17,-85.44312944913403,466.0038648825494,-4.151948520293807e-17,-4.152076459439867e-17,0.3181578082835387,85.14399785657005,8767.957974212643,1.6411857679618594e-07,1.123843045063862e-21,9.787226405123604,0.0,2.220446356163276e-16,-0.0006418702385767933,0.0,0.0,1.6191747942405682e-20,-85.14399785657005,304.8408600430527,0.4802259092386719,31876.00663786919,231.23677414110506,5.2429439821621e-16,0.7638234108832107,-3.2602886248858924,0.0,0.0,0.0,0.2868261404548055,1835.6902732795454,87.4351931731726
8.900000000000507,6386895.050156728,4146.164545164116,-1.0019186742047283e-16,6386896.395934083,1.0803482866254552,-1.0019186742047283e-16,-86.39925806068644,466.008493112917,-4.290377697337899e-17,-4.290512758107044e-17,0.32465237483916226,86.09672236161154,8759.39593396436,1.6915074547211973e-07,1.1732708224175833e-21,9.78725268836647,0.0,2.2204463600037607e-16,-0.0006491673857454664,0.0,0.0,1.6191747942405682e-20,-86.09672236161153,304.8774409274509,0.48071662913162677,31916.237719343753,231.29227426817295,5.36291614559142e-16,0.7714572778378364,-3.3348924888719162,0.0,0.0,0.0,0.2898118741996974,1876.4719725161196,88.35595644680843
9.000000000000451,6386886.362445791,4192.7656277672295,-1.0455277116858089e-16,6386887.738646922,1.113139502408374,-1.0455277116858089e-16,-87.35487489003172,466.0131664609931,-4.4319583346713566e-17,-4.432100832985765e-17,0.3312126066962398,87.0489349261136,8750.738646809097,1.7428512101015637e-07,1.2243380523111463e-21,9.787279264100336,0.0,2.2204463637430945e-16,-0.0006564646351210008,0.0,0.0,1.6191747942405682e-20,-87.0489349261136,304.9144243873372,0.48121319924480893,31956.958248449733,231.34839194842118,5.484401365071732e-16,0.7790772799534275,-3.4104372363479496,0.0,0.0,0.0,0.2927968488597376,1917.7689029364371,89.27682457786543
9.100000000000396,6386877.579199025,4239.367179957015,-1.0905684776166918e-16,6386878.986164366,1.146589958102163,-1.0905684776166918e-16,-88.30997350790939,466.0178848299869,-4.576729992222155e-17,-4.576880254521292e-17,0.3378383882169948,88.00062911926784,8741.986164260783,1.7952273099051378e-07,1.2770818705935938e-21,9.787306132170649,0.0,2.2204463673763117e-16,-0.0006637619877309786,0.0,0.0,1.6191747942405682e-20,-88.00062911926786,304.9518100595377,0.4817156298277519,31998.16940733971,231.40512685296707,5.607404975899841e-16,0.7866829426827231,-3.486926185031587,0.0,0.0,0.0,0.2957809704102238,1959.5828606819066,90.19777230706015
