time,feVelocity_m_s_X,feVelocity_m_s_Y,feVelocity_m_s_Z,altitudeMsl_m,longitude_rad,latitude_rad,localGravity_m_s2,eulerAngle_rad_Yaw,eulerAngle_rad_Pitch,eulerAngle_rad_Roll,bodyAngularRateWrtEi_rad_s_Roll,bodyAngularRateWrtEi_rad_s_Pitch,bodyAngularRateWrtEi_rad_s_Yaw,altitudeRateWrtMsl_m_s,speedOfSound_m_s,airDensity_kg_m3,ambientPressure_Pa,ambientTemperature_K,aero_bodyForce_N_X,aero_bodyForce_N_Y,aero_bodyForce_N_Z,aero_bodyMoment_Nm_L,aero_bodyMoment_Nm_M,aero_bodyMoment_Nm_N,mach,trueAirspeed_m_s
0.0,3.93192e-15,-1.002792e-08,0.0,9144.0,0.0,0.0,9.786072474552002,0.0,0.0,0.0,0.0,0.0,0.0,0.0,303.23005392984,0.459177273275918,30157.60192315531,228.79958955555557,-2.722311628539426e-08,0.1906497553390935,0.0,0.0,0.0,0.0,0.070362419,21.335981520504
0.1,1.868424e-11,0.0013131201576000002,0.9751812399816,9143.951241144001,1.0262536001726658e-11,-1.4538592669112766e-20,9.786072593424,-1.0646508437165409e-26,-1.455604596163271e-20,-7.292125241172468e-06,0.0,0.0,0.0,-0.97518123988,303.23026372368,0.45917985017000806,30157.81869145179,228.7999061666667,2.7267598501546863e-08,0.19078956294446114,-0.007847419126994116,0.0,0.0,0.0,0.070431192,21.35685036320808
0.2,1.8745199999999998e-11,0.0026430198600000004,1.9503022758672,9143.804964576,4.118977034706618e-11,-1.4486232791552936e-20,9.786073014048,-1.0646508437165409e-26,-1.4486232791552936e-20,-1.4584267935637457e-05,0.0,0.0,0.0,-1.9503022756640003,303.23089316616006,0.459188096231096,30158.471399930233,228.800856,2.735656293385207e-08,0.19131911483131467,-0.016613538360631213,0.0,0.0,0.0,0.070645335,21.42182958421492
0.3,1.883664e-11,0.0039923752512,2.92536288942,9143.561182488002,9.32005820564972e-11,-1.4416419621473163e-20,9.786073730328,-1.0646508437165409e-26,-1.4433872913993106e-20,-2.1876428083394967e-05,0.0,0.0,0.0,-2.9253628894200006,303.23193966648,0.45920149608036404,30159.557151834968,228.8024352777778,2.7490009582309885e-08,0.1922389892684641,-0.025480974737999096,0.0,0.0,0.0,0.071003476,21.53050321953944
0.4,1.895856e-11,0.0053638359576,3.9003621967199997,9143.219894880001,1.663298777150596e-10,-1.436405974391333e-20,9.78607474836,-1.0646508437165409e-26,-1.436405974391333e-20,-2.916862313773751e-05,0.0,0.0,0.0,-3.9003621977360003,303.23340581544,0.459220049717812,30161.076473848843,228.80464783333335,2.7667938446920305e-08,0.19354335463737177,-0.034502599821216756,0.0,0.0,0.0,0.071503409,21.682203474569683
0.5,1.9141440000000002e-11,0.0067600031424,4.875298960584001,9142.781110896,2.6179938779914943e-10,-1.429424657383356e-20,9.786076065096001,-1.0646508437165409e-26,-1.43116998663535e-20,-3.6460818192080067e-05,0.0,0.0,0.0,-4.875298961092001,303.2352915216,0.45924427252225797,30163.03177434889,228.80749361111114,2.7890349527683334e-08,0.1952241907944654,-0.043729763880610756,0.0,0.0,0.0,0.072142141,21.876024361977244
0.6,1.932432e-11,0.008183414570400002,5.850171597576,9142.244836632,3.787364476827695e-10,-1.424188669627373e-20,9.786077683584,-1.0646508437165409e-26,-1.425933998879367e-20,-4.375304815300765e-05,0.0,0.0,0.0,-5.850171596560001,303.23759434656,0.459273649114884,30165.42018530759,228.8109687777778,2.8201725040751567e-08,0.19727157375732138,-0.05321185996899696,0.0,0.0,0.0,0.07291598,22.110847233573
0.7,1.956816e-11,0.0096365333304,6.824978190504001,9141.611078184,5.183627878423159e-10,-1.4172073526193955e-20,9.786079597728001,-1.0646508437165409e-26,-1.41895268187139e-20,-5.104531302052028e-05,0.0,0.0,0.0,-6.8249781915200005,303.24031672872,0.45930817949568997,30168.244632208764,228.81507722222224,2.8557582769972407e-08,0.19967392035685347,-0.06299598585683773,0.0,0.0,0.0,0.073820626,22.385370628348
0.8,1.984248e-11,0.011121737167200002,7.799716520424001,9140.879844696,6.806784082777885e-10,-1.4102260356114182e-20,9.786081810576,-1.0663961729685354e-26,-1.4137166941154068e-20,-5.8337577888032905e-05,0.0,0.0,0.0,-7.799716521440001,303.24345616872006,0.459348379043494,30171.499862588014,228.81981505555555,2.8957922715345852e-08,0.20241825513061004,-0.07312666824250183,0.0,0.0,0.0,0.074851285,22.698142769900922
0.9,2.014728e-11,0.0126413099472,8.77438406664,9140.051139216,8.656833089891875e-10,-1.4049900478554352e-20,9.786084325176,-1.0663961729685354e-26,-1.4067353771074295e-20,-6.562987766213057e-05,0.0,0.0,0.0,-8.774384066640001,303.24701516592,0.459393732379478,30175.191215094204,228.8251861666667,2.9402744876871903e-08,0.20549052169828688,-0.08364567592695656,0.0,0.0,0.0,0.076002776,23.047594969287
1.0,2.048256e-11,0.014197436172000002,9.748978034136,9139.124970888,1.0768681484805013e-09,-1.398008730847458e-20,9.78608713848,-1.0663961729685354e-26,-1.4014993893514466e-20,-7.292221234281329e-05,0.0,0.0,0.0,-9.74897803312,303.25099372032,0.45944475488246,30179.318737607602,228.8311905,2.989204925455056e-08,0.20887591193012672,-0.09459190860822735,0.0,0.0,0.0,0.077269639,23.43207440538972
1.1,2.0848320000000004e-11,0.0157921957968,10.723495374912002,9138.101345808,1.3107422682477415e-09,-1.392772743091475e-20,9.786090250488002,-1.0663961729685354e-26,-1.3945180723434693e-20,-8.021454702349599e-05,0.0,0.0,0.0,-10.723495377959999,303.25539177096005,0.459500415794804,30183.877689982564,228.83782805555558,3.042583584838182e-08,0.21255908390977857,-0.10600137019206815,0.0,0.0,0.0,0.078646238,23.84987508930516
1.2,2.124456e-11,0.017427563011200003,11.69793280932,9136.980273120002,1.5707963267948966e-09,-1.3857914260834977e-20,9.7860936612,-1.0663961729685354e-26,-1.3892820845874863e-20,-8.750691661076373e-05,0.0,0.0,0.0,-11.697932809320001,303.26020431912,0.459562261252964,30188.87192657994,228.84509122222224,3.100410465836568e-08,0.21652447330981062,-0.11790717324018297,0.0,0.0,0.0,0.080126857,24.29926598899548
1.3,2.1671280000000003e-11,0.0191054047152,12.672286835208002,9135.761761968,1.8500490071139894e-09,-1.3805554383275147e-20,9.786097370616002,-1.0663961729685354e-26,-1.3840460968315033e-20,-9.479932110461653e-05,0.0,0.0,0.0,-12.672286832160001,303.26543889336006,0.459628745120486,30194.303022660246,228.8529915,3.1582373468349545e-08,0.22075644018302362,-0.13033962793465814,0.0,0.0,0.0,0.081705773,24.77851576890088
1.4,2.2098e-11,0.020827481128800004,13.6465537584,9134.445818448,2.164208272472969e-09,-1.3735741213195374e-20,9.786101378736,-1.0663961729685354e-26,-1.377064779823526e-20,-0.00010209174305176183,0.0,0.0,0.0,-13.6465537584,303.27109040352,0.45970089815500603,30200.165242168463,228.86152116666668,3.224960671063862e-08,0.2252395803379639,-0.1433263888692758,0.0,0.0,0.0,0.083377336,25.28591384098808
1.5,2.258568e-11,0.022595448535200003,14.620729704888001,9133.032454752001,2.5132741228718343e-09,-1.3683381335635544e-20,9.786105688608002,-1.0663961729685354e-26,-1.371828792067543e-20,-0.00010938419990549218,0.0,0.0,0.0,-14.620729701840002,303.27716134896,0.459778204977706,30206.463971633726,228.87068405555556,3.29168399529277e-08,0.22995877426936123,-0.15689254846216757,0.0,0.0,0.0,0.085136018,25.819787603768763
1.6,2.307336e-11,0.0244108601952,15.594810636072,9131.521676976,2.879793265790644e-09,-1.3613568165555772e-20,9.786110294136002,-1.0663961729685354e-26,-1.3648474750595655e-20,-0.00011667667421251505,0.0,0.0,0.0,-15.594810639120002,303.28364919984,0.459861180967404,30213.196386120748,228.8804763888889,3.3628555411369376e-08,0.2348993650869933,-0.17106085491867393,0.0,0.0,0.0,0.086976463,26.37851612136552
1.7,2.359152e-11,0.0262751718336,16.568792373144003,9129.913494264001,3.2812189937493395e-09,-1.3543754995475997e-20,9.786115201415999,-1.0663961729685354e-26,-1.3596114873035825e-20,-0.00012396918342612296,0.0,0.0,0.0,-16.56879237416,303.29055392568,0.45994931074528206,30220.36258139005,228.8908981111111,3.4384753085963664e-08,0.2400472118943452,-0.18585181898866285,0.0,0.0,0.0,0.088893516,26.960540417536322
1.8,2.410968e-11,0.0281897440776,17.542670600136,9128.207921856,3.7000980142279787e-09,-1.3491395117916169e-20,9.786120404352001,-1.0663961729685354e-26,-1.3526301702956054e-20,-0.0001312617275463159,0.0,0.0,0.0,-17.54267059912,303.2978805252,0.46004259431134004,30227.966057488564,228.90195694444446,3.518543297671055e-08,0.2453888365799227,-0.20128400310093478,0.0,0.0,0.0,0.090882253,27.564370811645922
1.9,2.465832e-11,0.030155848552800003,18.516440882208002,9126.404965848,4.153883619746504e-09,-1.3421581947836395e-20,9.78612590904,-1.0663961729685354e-26,-1.3473941825396224e-20,-0.00013855428911980136,0.0,0.0,0.0,-18.51644087916,303.30562143936004,0.460141547044396,30236.000604346707,228.91364133333335,3.5986112867457444e-08,0.25091138378325767,-0.21737410143121186,0.0,0.0,0.0,0.092937994,28.18859168756176
2.0,2.523744e-11,0.0321746700168,19.490098671744,9124.504635384,4.642575810304917e-09,-1.3369222070276565e-20,9.786131712432,-1.0663961729685354e-26,-1.340412865531645e-20,-0.00014584688559987185,0.0,0.0,0.0,-19.490098672760002,303.3137816364,0.460245653565632,30244.472139964477,228.925959,3.6786792758204334e-08,0.2566026876182324,-0.23413714896855356,0.0,0.0,0.0,0.095056311,28.8318640967406
2.1,2.5816560000000002e-11,0.0342473139792,20.463639335784002,9122.506948752,5.166174585903215e-09,-1.329940890019679e-20,9.786137814527999,-1.0663961729685354e-26,-1.335176877775662e-20,-0.00015313953443981993,0.0,0.0,0.0,-20.4636393368,303.32236111632,0.460355429253866,30253.378375665503,228.9389098888889,3.7676437081256436e-08,0.2624512939141876,-0.25158672168532975,0.0,0.0,0.0,0.09723303,29.492926596772243
2.2,2.642616e-11,0.0363748088352,21.437058146880002,9120.411912048,5.724679946541401e-09,-1.324704902263696e-20,9.78614421228,-1.0663961729685354e-26,-1.3281955607676849e-20,-0.000160432183279768,0.0,0.0,0.0,-21.437058146880002,303.33135728832,0.460469843351462,30262.71892840771,228.95249022222222,3.852159918815592e-08,0.2684463801479333,-0.26973499436410137,0.0,0.0,0.0,0.099464233,30.17059470606888
2.3,2.7035760000000003e-11,0.0385581125712,22.410350295288,9118.219540512,6.30063859969953e-09,-1.3177235852557188e-20,9.786150911784,-1.0663961729685354e-26,-1.3229595730117019e-20,-0.00016772488447959363,0.0,0.0,0.0,-22.41035029732,303.3407701524,0.46059044199487403,30272.49631669272,228.9667,3.9411243511208024e-08,0.2745778799939543,-0.2885930297320256,0.0,0.0,0.0,0.101746251,30.863759257644322
2.4,2.767584e-11,0.040798115812800004,23.383510907256,9115.929846336,6.928957130417489e-09,-1.3124875974997358e-20,9.786157909992001,-1.0663961729685354e-26,-1.3177235852557188e-20,-0.0001750176205860043,0.0,0.0,0.0,-23.38351090624,303.35060217744,0.46071567904764804,30282.706379726027,228.98154294444444,4.034537005041273e-08,0.2808363098437666,-0.3081707606679692,0.0,0.0,0.0,0.104075651,31.57138396579384
2.5,2.831592e-11,0.043095647311200004,24.356535045024003,9113.54284476,7.57472895365539e-09,-1.3055062804917585e-20,9.786165206904,-1.0663961729685354e-26,-1.3107422682477415e-20,-0.000182310391599,0.0,0.0,0.0,-24.35653504604,303.36085080312,0.46084658526742,30293.351152418647,228.9970153888889,4.127949658961743e-08,0.28721282218457767,-0.3284771770278168,0.0,0.0,0.0,0.106449235,32.29250240116348
2.6,2.8956e-11,0.0454514769912,25.329417703776002,9111.058544928,8.272860654453122e-09,-1.3002702927357756e-20,9.786172802520001,-1.0663961729685354e-26,-1.3055062804917585e-20,-0.00018960319751858075,0.0,0.0,0.0,-25.32941770276,303.37151596848,0.460982645275372,30304.43317242429,229.01311722222223,4.2213623128822136e-08,0.2936992233921722,-0.3495204946768916,0.0,0.0,0.0,0.108864021,33.02621462114184
2.7,2.9626560000000003e-11,0.047866320828,26.302153839071998,9108.476965128,9.00589894029074e-09,-1.2932889757277983e-20,9.786180693792,-1.0663961729685354e-26,-1.2985249634837812e-20,-0.00019689603834474655,0.0,0.0,0.0,-26.30215383704,303.3826001424,0.46112437445032206,30315.948298100564,229.02985227777776,4.3192231884179456e-08,0.3002878180431557,-0.3713081243524048,0.0,0.0,0.0,0.111317237,33.77168352245212
2.8,3.029712e-11,0.0503408445048,27.274738342464,9105.7981206,9.773843811168245e-09,-1.2880529879718153e-20,9.786188886816,-1.0663961729685354e-26,-1.2932889757277983e-20,-0.00020418891407749737,0.0,0.0,0.0,-27.27473834348,303.39410079504,0.461271257413452,30327.900967947477,229.04721677777778,4.417084063953676e-08,0.30697147119005724,-0.39384685404054115,0.0,0.0,0.0,0.113806303,34.52813115258864
2.9,3.10896e-11,0.05287566585120001,28.247166075024005,9103.022023536001,1.0576695267085638e-08,-1.2810716709638379e-20,9.786197378544001,-1.0663961729685354e-26,-1.2863076587198208e-20,-0.00021148184217012575,0.0,0.0,0.0,-28.247166076040003,303.40601789592,0.461423294164762,30340.286551943984,229.06521072222225,4.5371860475657095e-08,0.31374353718978376,-0.41714288011401074,0.0,0.0,0.0,0.116328825,35.29483492865344
3.0,3.16992e-11,0.05547135972,29.219431849056004,9100.148692224,1.1431906600562858e-08,-1.2758356832078549e-20,9.786206165928,-1.0663961729685354e-26,-1.2810716709638379e-20,-0.00021877478771604666,0.0,0.0,0.0,-29.21943184804,303.41835132312,0.461580484704252,30353.110010484914,229.08383405555554,4.6261504798709196e-08,0.32059783301428996,-0.4412019007447027,0.0,0.0,0.0,0.118882576,36.0711240002372
3.1,3.23088e-11,0.058128459816000004,30.191530446384,9097.178141904,1.2322024519079967e-08,-1.2688543661998774e-20,9.786215255064,-1.0663961729685354e-26,-1.2740903539558606e-20,-0.00022606778562184513,0.0,0.0,0.0,-30.1915304474,303.43110360648,0.46174334441074,30366.367216291947,229.10309066666667,4.71511491217613e-08,0.3275286160094706,-0.4660291692823448,0.0,0.0,0.0,0.12146549,36.8563756431668
3.2,3.32232e-11,0.060847461744000006,31.16345660616,9094.110390864,1.324704902263696e-08,-1.2636183784438945e-20,9.786224639856,-1.0663961729685354e-26,-1.2688543661998774e-20,-0.00023336083588752115,0.0,0.0,0.0,-31.163456611240004,303.44427212472,0.46191187328422606,30380.06264616929,229.1229766666667,4.80407934448134e-08,0.33453053496472246,-0.4916295387367191,0.0,0.0,0.0,0.124075647,37.6500118487416
3.3,3.38328e-11,0.0636288263616,32.135205061440004,9090.945457392,1.4224433403753787e-08,-1.2566370614359173e-20,9.7862343264,-1.0663961729685354e-26,-1.2618730491919003e-20,-0.00024065392105978222,0.0,0.0,0.0,-32.13520505128,303.45785687784,0.462085040567074,30394.191684459984,229.14349211111113,4.9375259929391546e-08,0.34159859007895,-0.518007479570549,0.0,0.0,0.0,0.126711266,38.45149606215848
3.4,3.44424e-11,0.0664729809984,33.10677045384,9087.683356728001,1.52367243699105e-08,-1.2496557444279399e-20,9.7862443086,-1.0663961729685354e-26,-1.2566370614359173e-20,-0.0002479470411386283,0.0,0.0,0.0,-33.10677044876,303.4718577744,0.46226387701692007,30408.756911909983,229.164637,5.026490425244365e-08,0.34872820858033277,-0.5451672887659148,0.0,0.0,0.0,0.129370692,39.26033009584784
3.5,3.53568e-11,0.0693803234184,34.07814744936,9084.324110208001,1.6301375213627038e-08,-1.244419756671957e-20,9.786254589504,-1.0663961729685354e-26,-1.2496557444279399e-20,-0.0002552402310306445,0.0,0.0,0.0,-34.078147459520004,303.48627475344,0.462447867254946,30423.75852482835,229.18641127777778,5.1599370737021794e-08,0.3559150223152445,-0.5731128184827354,0.0,0.0,0.0,0.132052383,40.07605122800944
3.6,3.59664e-11,0.0723512215152,35.049330714,9080.867733072,1.741838593490341e-08,-1.2374384396639798e-20,9.786265166064,-1.0663961729685354e-26,-1.244419756671957e-20,-0.00026253343837595323,0.0,0.0,0.0,-35.049330719080004,303.50110778448,0.46263752665997,30439.196724312176,229.20881500000002,5.2489015060073895e-08,0.36315506347000454,-0.601847871950492,0.0,0.0,0.0,0.134754912,40.89822951721472
3.7,3.68808e-11,0.07538601757920001,36.02031482232,9077.314249704,1.8500490071139893e-08,-1.2322024519079967e-20,9.786276044375999,-1.0663961729685354e-26,-1.2374384396639798e-20,-0.00026982671553443197,0.0,0.0,0.0,-36.02031482232,303.51635677608004,0.462832339853174,30455.071721034605,229.23184816666665,5.3378659383126e-08,0.3704445288151317,-0.6313758654033849,0.0,0.0,0.0,0.137476945,41.726465286775635
3.8,3.7490399999999996e-11,0.0784850286024,36.991094348880004,9073.663678392,1.9722220547535924e-08,-1.2252211349000194e-20,9.786287218344002,-1.0663961729685354e-26,-1.2322024519079967e-20,-0.0002771200275994958,0.0,0.0,0.0,-36.99109435396,303.53202169776006,0.46303230683455804,30471.381312503716,229.25551072222223,5.471312586770414e-08,0.377779926496658,-0.6617001261111821,0.0,0.0,0.0,0.140217244,42.56038676859116
3.9,3.81e-11,0.081648548412,37.96166386824,9069.916037424,2.0943951023931953e-08,-1.2199851471440364e-20,9.786298691016,-1.0663961729685354e-26,-1.2252211349000194e-20,-0.0002844133920244372,0.0,0.0,0.0,-37.96166386824,303.5481024276,0.463237427604122,30488.128127345724,229.27980272222223,5.5602770190756245e-08,0.3851580404503556,-0.6928239279649928,0.0,0.0,0.0,0.142974656,43.39964795277132
4.0,3.90144e-11,0.0848768491944,38.93201792448,9066.071351184,2.2340214425527418e-08,-1.213003830136059e-20,9.786310462392002,-1.0663961729685354e-26,-1.2199851471440364e-20,-0.00029170680880925614,0.0,0.0,0.0,-38.93201790924,303.56459896560006,0.46344821754068405,30505.312385809826,229.3047241111111,5.69372366753344e-08,0.39257576136931566,-0.7247502112393047,0.0,0.0,0.0,0.145748105,44.243926596738966
4.1,3.9623999999999997e-11,0.0881701830192,39.90215100072,9062.129641008001,2.373647782712288e-08,-1.207767842380076e-20,9.786322529424002,-1.0663961729685354e-26,-1.213003830136059e-20,-0.00029900026050066016,0.0,0.0,0.0,-39.90215099056,303.58151122032,0.46366416126542603,30522.93190934424,229.33027494444445,5.78268809983865e-08,0.40003025128814734,-0.7574819473461565,0.0,0.0,0.0,0.148536587,45.09292237323132
4.2,4.0538400000000003e-11,0.09152878214400001,40.872057610560006,9058.090928232,2.5132741228718345e-08,-1.2007865253720987e-20,9.786334898208,-1.0663961729685354e-26,-1.207767842380076e-20,-0.0003062937820052342,0.0,0.0,0.0,-40.87205761056,303.59883910032005,0.46388577415716603,30540.989340939257,229.35645522222225,5.9161347482964645e-08,0.4075188101363303,-0.7910218941829499,0.0,0.0,0.0,0.151339166,45.94635517777928
4.3,4.1452800000000004e-11,0.0949528614528,41.841732237120006,9053.955237240001,2.652900463031381e-08,-1.1955505376161157e-20,9.7863475596,-1.0663961729685354e-26,-1.2007865253720987e-20,-0.0003135873558696858,0.0,0.0,0.0,-41.84173224728,303.61658004528005,0.46411254083708603,30559.484407677402,229.3832611111111,6.04958139675428e-08,0.41503894690976,-0.8253728541293024,0.0,0.0,0.0,0.154154968,46.8039635647976
4.4,4.20624e-11,0.0984426196752,42.81116936352,9049.722589368,2.8099800957108706e-08,-1.1885692206081385e-20,9.786360522744001,-1.0663961729685354e-26,-1.1955505376161157e-20,-0.000320880982094015,0.0,0.0,0.0,-42.811169358440004,303.63473646312,0.46434446130518603,30578.415462477773,229.4106963888889,6.13854582905949e-08,0.4225883129474236,-0.8605374827735184,0.0,0.0,0.0,0.156983174,47.6655033174306
4.5,4.2976800000000004e-11,0.101998238472,43.780363381440004,9045.393012048002,2.9670597283903602e-08,-1.1833332328521553e-20,9.786373781543999,-1.0663961729685354e-26,-1.1885692206081385e-20,-0.00032817466067822175,0.0,0.0,0.0,-43.78036338652001,303.65330832336,0.46458153556146603,30597.785157906703,229.43876116666667,6.271992477517305e-08,0.4301646485527405,-0.8965183022572536,0.0,0.0,0.0,0.159823018,48.53074611514221
4.6,4.3586400000000004e-11,0.10561988578800001,44.749308774,9040.966526616001,3.12413936106985e-08,-1.1763519158441782e-20,9.786387339048002,-1.0663961729685354e-26,-1.1833332328521553e-20,-0.00033546839162230604,0.0,0.0,0.0,-44.74930876384,303.67229553456,0.464824278984744,30617.591348928607,229.4674552777778,6.360956909822515e-08,0.4377659030955461,-0.9333179192383748,0.0,0.0,0.0,0.162673783,49.39947834535028
4.7,4.4500800000000004e-11,0.10930771463280001,45.7179999024,9036.443157456,3.2986722862692826e-08,-1.1711159280881952e-20,9.786401192208,-1.0663961729685354e-26,-1.1763519158441782e-20,-0.00034276217492626795,0.0,0.0,0.0,-45.717999887160005,303.69169547544004,0.465072176196202,30637.833786566123,229.49677505555556,6.494403558280329e-08,0.4453900704278919,-0.9709387579976622,0.0,0.0,0.0,0.165534798,50.271499966505445
4.8,4.5415200000000005e-11,0.11306186521440001,46.686431158320005,9031.822935048,3.4732052114687156e-08,-1.1641346110802178e-20,9.786415344072001,-1.0663961729685354e-26,-1.1711159280881952e-20,-0.00035005602804339986,0.0,0.0,0.0,-46.68643115324,303.71151061488,0.46532522719584,30658.515654856485,229.52672422222224,6.58336799058554e-08,0.4530353000895859,-1.009383265057004,0.0,0.0,0.0,0.168405431,51.14662349978076
4.9,4.60248e-11,0.116882465244,47.65459693344,9027.105880728,3.6477381366681485e-08,-1.1588986233242348e-20,9.786429791592,-1.0663961729685354e-26,-1.1641346110802178e-20,-0.0003573499335204094,0.0,0.0,0.0,-47.65459693852,303.73173836208,0.465583947362476,30679.636719186412,229.55729905555555,6.716814639043355e-08,0.4606998706188632,-1.0486539314205048,0.0,0.0,0.0,0.17128509,52.02467307735041
5.0,4.6939200000000005e-11,0.12076963054560001,48.62249158896,9022.292024976,3.8397243543875254e-08,-1.1519173063162574e-20,9.786444537816,-1.0663961729685354e-26,-1.1588986233242348e-20,-0.0003646439088105889,0.0,0.0,0.0,-48.62249159404,303.75238112496,0.465847821317292,30701.19295282614,229.5885032777778,6.850261287501169e-08,0.4683820872432881,-1.088753079059848,0.0,0.0,0.0,0.174173217,52.9054836192792
5.1,4.7853600000000005e-11,0.12472346597040002,49.59010945560001,9017.381392176001,4.031710572106901e-08,-1.1466813185602746e-20,9.786459579696002,-1.0663961729685354e-26,-1.1519173063162574e-20,-0.0003719379364606461,0.0,0.0,0.0,-49.590109460680004,303.77343628224,0.46611684906028805,30723.188947492486,229.62033311111114,6.93922571980638e-08,0.4760804197746252,-1.1296831633933653,0.0,0.0,0.0,0.17706929,53.7889000258456
5.2,4.84632e-11,0.128744065092,50.55744486408,9012.374012808,4.223696789826278e-08,-1.1397000015522973e-20,9.786474920280002,-1.0663961729685354e-26,-1.1466813185602746e-20,-0.00037923203392387333,0.0,0.0,0.0,-50.55744486916,303.79490633328004,0.46639154597028204,30745.62550278579,229.65279233333334,7.072672368264194e-08,0.48379329354242245,-1.1714463640496475,0.0,0.0,0.0,0.179972812,54.674776297842406
5.3,4.9377600000000006e-11,0.1328315117304,51.524492114640005,9007.269914304,4.433136300065597e-08,-1.1344640137963143e-20,9.78649055652,-1.0663961729685354e-26,-1.1397000015522973e-20,-0.00038652618374697813,0.0,0.0,0.0,-51.524492124800005,303.81678859584,0.466670881289638,30768.497591278854,229.68587722222222,7.206119016722009e-08,0.49151937852841715,-1.2140451987221297,0.0,0.0,0.0,0.182883321,55.5629752330548
5.4,5.0292e-11,0.1369858802568,52.491245507520006,9002.069124096,4.6425758103049165e-08,-1.1274826967883369e-20,9.786506491464,-1.0663961729685354e-26,-1.1344640137963143e-20,-0.00039382040338325293,0.0,0.0,0.0,-52.49124553800001,303.83908303944,0.466955885775992,30791.810331371362,229.71958772222223,7.29508344902722e-08,0.4992572868874652,-1.257481918210949,0.0,0.0,0.0,0.185800377,56.453367345928
5.5,5.09016e-11,0.1412072535768,53.45769928200001,8996.771672664001,4.852015320544236e-08,-1.1222467090323539e-20,9.786522722064,-1.0663961729685354e-26,-1.1274826967883369e-20,-0.00040111469283269784,0.0,0.0,0.0,-53.457699282,303.86178954216,0.467254805490432,30816.1081742762,229.75392377777777,7.428530097485035e-08,0.5070132594744927,-1.3017781764589278,0.0,0.0,0.0,0.188723566,57.345830713234
5.6,5.1816000000000006e-11,0.14549576641200002,54.42384749448001,8991.377593536,5.078908123303499e-08,-1.1152653920243766e-20,9.78653924832,-1.0663961729685354e-26,-1.1222467090323539e-20,-0.0004084090520953129,0.0,0.0,0.0,-54.423847464,303.8849105424,0.46756403278123204,30841.21400612738,229.78888933333334,7.56197674594285e-08,0.5147864066451768,-1.3469382659999254,0.0,0.0,0.0,0.191652492,58.240249893739204
5.7,5.27304e-11,0.1498514778936,55.38968432328001,8985.886914144001,5.305800926062762e-08,-1.1100294042683936e-20,9.78655607328,-1.0663961729685354e-26,-1.1152653920243766e-20,-0.00041570346371780554,0.0,0.0,0.0,-55.3896842928,303.90844341888,0.46787944461784803,30866.773752409743,229.82448044444445,7.695423394400664e-08,0.5225683879839889,-1.3929465468867428,0.0,0.0,0.0,0.194586787,59.136516236870804
5.8,5.334e-11,0.15427443313199998,56.355203977200006,8980.299668016,5.550147021341968e-08,-1.1030480872604162e-20,9.786573190848,-1.0663961729685354e-26,-1.1100294042683936e-20,-0.0004229979626067607,0.0,0.0,0.0,-56.3552039772,303.93238808016,0.468200010242644,30892.79256982718,229.86069716666665,7.784387826705875e-08,0.5303581759517357,-1.439805710293457,0.0,0.0,0.0,0.197526099,60.0345268538288
5.9,5.425440000000001e-11,0.1587646693128,57.320400665040005,8974.615885632,5.794493116621174e-08,-1.096066770252439e-20,9.78659060712,-1.0663961729685354e-26,-1.1030480872604162e-20,-0.0004302925138555934,0.0,0.0,0.0,-57.3204006752,303.95674440432003,0.468526245034438,30919.265991151522,229.89753950000002,7.91783447516369e-08,0.5381546362519054,-1.4875180159166481,0.0,0.0,0.0,0.200470094,60.934184463252805
6.0,5.51688e-11,0.1633222163064,58.285268565120006,8968.835597472,6.056292504420324e-08,-1.0908307824964561e-20,9.786608322096,-1.0663961729685354e-26,-1.0978120995044332e-20,-0.0004375871349175962,0.0,0.0,0.0,-58.2852685448,303.98151236088,0.468857633614412,30946.196779073725,229.9350075,8.051281123621505e-08,0.5459567457935265,-1.536085954760421,0.0,0.0,0.0,0.203418458,61.835396979666804
6.1,5.608320000000001e-11,0.1679470969728,59.24980179480001,8962.95884316,6.30063859969953e-08,-1.0838494654884786e-20,9.78662632968,-1.0663961729685354e-26,-1.0908307824964561e-20,-0.0004448818432460617,0.0,0.0,0.0,-59.2498017948,304.00669176696,0.46919469136138403,30973.582874742646,229.97310105555556,8.184727772079319e-08,0.553763623828719,-1.585512258032848,0.0,0.0,0.0,0.20637089,62.7380771533684
6.2,5.69976e-11,0.1726393271616,60.21399453240001,8956.985650128001,6.579891280018622e-08,-1.0786134777324957e-20,9.786644635968,-1.0663961729685354e-26,-1.0855947947404731e-20,-0.00045217662138769715,0.0,0.0,0.0,-60.21399453240001,304.03228259208004,0.469537418275354,31001.427050425278,230.0118202222222,8.27369220438453e-08,0.5615742027842956,-1.6357990742249684,0.0,0.0,0.0,0.209327104,63.6421421074292
6.3,5.76072e-11,0.1773989169312,61.177840864800004,8950.916054952,6.841690667817771e-08,-1.0716321607245182e-20,9.786663234864001,-1.0663961729685354e-26,-1.0786134777324957e-20,-0.0004594714693425027,0.0,0.0,0.0,-61.177840864800004,304.058282154,0.46988581435632204,31029.729167268873,230.05116116666667,8.407138852842344e-08,0.5693877131179166,-1.6869493080254971,0.0,0.0,0.0,0.212286831,64.547513234806
6.4,5.85216e-11,0.1822258693296,62.141334909360005,8944.750094208,7.138396640656808e-08,-1.0663961729685353e-20,9.786682132464,-1.0663961729685354e-26,-1.0733774899765127e-20,-0.0004667663871104784,0.0,0.0,0.0,-62.141334899200004,304.08469539048,0.47023987960428804,31058.48821499997,230.0911316111111,8.540585501300159e-08,0.5772031984619348,-1.7389652458203448,0.0,0.0,0.0,0.215249809,65.45411583823
6.5,5.943600000000001e-11,0.1871201816136,63.104470752960005,8938.487801424,7.4176493209759e-08,-1.0594148559605581e-20,9.786701325720001,-1.0663961729685354e-26,-1.0663961729685353e-20,-0.0004740613921449166,0.0,0.0,0.0,-63.104470742800004,304.11151468152,0.47059909864043403,31087.703030128265,230.13171994444446,8.674032149757975e-08,0.5850198225506864,-1.7918494408887184,0.0,0.0,0.0,0.218215797,66.36187892442919
6.6,6.03504e-11,0.1920818452488,64.067242452,8932.129210128,7.714355293814936e-08,-1.0541788682045751e-20,9.786720811583999,-1.0663961729685354e-26,-1.0611601852125523e-20,-0.00048135646699252495,0.0,0.0,0.0,-64.067242452,304.13874746424,0.47096398684357804,31117.37795539326,230.17293777777778,8.807478798215788e-08,0.5928368202900538,-1.8456046066458036,0.0,0.0,0.0,0.221184554,67.2707348440176
6.7,6.126480000000001e-11,0.1971108462144,65.02964406288001,8925.674362992,8.028514559173915e-08,-1.0471975511965977e-20,9.786740596152,-1.0663961729685354e-26,-1.0541788682045751e-20,-0.0004886516116533034,0.0,0.0,0.0,-65.0296440832,304.16638855704,0.47133402883490205,31147.50994082245,230.2147773888889,8.940925446673605e-08,0.6006533153803786,-1.900233051718618,0.0,0.0,0.0,0.22415586,68.18061924005079
6.8,6.18744e-11,0.2022071643936,65.99166961152001,8919.123296592,8.342673824532896e-08,-1.0419615634406147e-20,9.786760676376,-1.0663961729685354e-26,-1.048942880448592e-20,-0.0004959468435805444,0.0,0.0,0.0,-65.991669642,304.19444039832,0.47171025537204203,31178.099896140757,230.2572426111111,9.029889878978814e-08,0.608468636140197,-1.9557376630029901,0.0,0.0,0.0,0.227129498,69.0914706879152
6.9,6.27888e-11,0.2073707747928,66.95331312384,8912.476044456,8.656833089891875e-08,-1.0349802464326374e-20,9.786781049208,-1.0663961729685354e-26,-1.0419615634406147e-20,-0.0005032421627742481,0.0,0.0,0.0,-66.95331313400001,304.22290033632,0.472091635697362,31209.147716011612,230.30032961111112,9.163336527436629e-08,0.6162820575093857,-2.0121210827425595,0.0,0.0,0.0,0.230105266,70.003230695328
7.0,6.370320000000001e-11,0.212601646932,67.91456859528,8905.732646208,8.988445647770797e-08,-1.0297442586766545e-20,9.786801717696,-1.0663961729685354e-26,-1.0367255756846318e-20,-0.0005105375517811217,0.0,0.0,0.0,-67.9145686156,304.25177077896,0.47247868518968,31240.656737689067,230.34404222222224,9.296783175894443e-08,0.6240927565669458,-2.0693856507018964,0.0,0.0,0.0,0.233082965,70.915843290782
7.1,6.46176e-11,0.2178997454544,68.87543002128,8898.893141472001,9.32005820564972e-08,-1.0227629416686772e-20,9.786822684888,-1.0663961729685354e-26,-1.0297442586766545e-20,-0.000517833028054458,0.0,0.0,0.0,-68.87543004160001,304.28104657512,0.47287088847017805,31272.621512399648,230.3883727777778,9.43022982435226e-08,0.6319001416994027,-2.127534347189482,0.0,0.0,0.0,0.23606241,71.8292550235456
7.2,6.553200000000001e-11,0.2232650304312,69.83589130584001,8891.95757292,9.669124056048586e-08,-1.017526953912694e-20,9.786843944688,-1.0663961729685354e-26,-1.0245082709206715e-20,-0.0005251285915942569,0.0,0.0,0.0,-69.835891316,304.3107351924,0.47326876091767406,31305.04883914013,230.43333283333334,9.563676472810075e-08,0.6397034344679733,-2.186569534210995,0.0,0.0,0.0,0.239043417,72.743414860774
7.3,6.64464e-11,0.2286974561424,70.7959464444,8884.925977128,1.0018189906447451e-07,-1.0105456369047168e-20,9.786865497096,-1.0663961729685354e-26,-1.017526953912694e-20,-0.0005324242424005184,0.0,0.0,0.0,-70.7959464444,304.34082888888,0.473672302532168,31337.932771182353,230.47891083333334,9.697123121267889e-08,0.6475020655002913,-2.246494254350019,0.0,0.0,0.0,0.242025817,73.65827382739839
7.4,6.736080000000001e-11,0.23419697260080002,71.75558934096,8877.798396768001,1.038470904936626e-07,-1.0053096491487338e-20,9.786887348208001,-1.0663961729685354e-26,-1.0122909661567111e-20,-0.00053971996301995,0.0,0.0,0.0,-71.7555893308,304.37133013344,0.47408151331366005,31371.279078097516,230.52511061111113,9.830569769725704e-08,0.6552953008397899,-2.3073108874051194,0.0,0.0,0.0,0.245009442,74.5737851604592
7.5,6.82752e-11,0.239763525552,72.71481389952001,8870.574874512,1.0751228192285071e-07,-9.983283321407565e-21,9.786909491928,-1.0663961729685354e-26,-1.0053096491487338e-20,-0.0005470157883591367,0.0,0.0,0.0,-72.71481387920001,304.40223874320003,0.47449587788333203,31405.083374053906,230.57193222222222,9.964016418183518e-08,0.6630825444247728,-2.3690223603061185,0.0,0.0,0.0,0.247994133,75.4899038975508
7.6,6.91896e-11,0.24539705616960003,73.6736139936,8863.255449984,1.1135200627723822e-07,-9.930923443847736e-21,9.786931928256001,-1.0663961729685354e-26,-1.0000736613927507e-20,-0.0005543116835114934,0.0,0.0,0.0,-73.6736139936,304.43355715656,0.4749159116200021,31439.349039397795,230.61937944444446,1.005298085048873e-07,0.6708631912971003,-2.431631435398639,0.0,0.0,0.0,0.250979734,76.40658703115481
7.7,7.0104e-11,0.2510975007504,74.63198349672,8855.840165856001,1.1519173063162576e-07,-9.861110273767961e-21,9.78695466024,-1.0663961729685354e-26,-9.930923443847736e-21,-0.0005616076833836053,0.0,0.0,0.0,-74.63198347640001,304.46528019192004,0.47534109914485206,31474.07306724893,230.6674446111111,1.0186427498946545e-07,0.67863657422353,-2.4951407193405477,0.0,0.0,0.0,0.253966101,77.3237931485292
7.8,7.07136e-11,0.2568647910192,75.58991625192,8848.329067848,1.1920598791121271e-07,-9.808750396208131e-21,9.786977687880002,-1.0663961729685354e-26,-9.878563566287906e-21,-0.0005689037705221799,0.0,0.0,0.0,-75.5899162316,304.49741025720004,0.475772471215518,31509.26126069469,230.7161316111111,1.0319874147404359e-07,0.6864021505210248,-2.559553210233214,0.0,0.0,0.0,0.256953089,78.24148253459721
7.9,7.162800000000001e-11,0.262698855348,76.54740610224,8840.722198632,1.2322024519079968e-07,-9.73893722612836e-21,9.787001008128001,-1.0663961729685354e-26,-9.808750396208131e-21,-0.0005761999449272169,0.0,0.0,0.0,-76.5474061124,304.52994716952,0.476208481695546,31544.906835102385,230.7654403888889,1.0453320795862174e-07,0.694159341920775,-2.624871741593806,0.0,0.0,0.0,0.259940562,79.1596169661696
8.0,7.25424e-11,0.268599617232,77.50444686024001,8833.01960088,1.2740903539558606e-07,-9.686577348568529e-21,9.787024624032,-1.0663961729685354e-26,-9.756390518648302e-21,-0.0005834962065987167,0.0,0.0,0.0,-77.5044468704,304.56288836856004,0.47665067672139005,31581.014564133835,230.8153671111111,1.0586767444319989e-07,0.7019075212235327,-2.691098969010629,0.0,0.0,0.0,0.262928387,80.0781597633892
8.1,7.34568e-11,0.27456699589920003,78.46103227752,8825.221323360001,1.3159782560037244e-07,-9.616764178488756e-21,9.787048532544,-1.0663961729685354e-26,-9.686577348568529e-21,-0.000590792555536679,0.0,0.0,0.0,-78.4610322572,304.5962361708,0.477098025535414,31617.58544848645,230.86591566666667,1.0720214092777804e-07,0.7096461146087095,-2.7582377571384016,0.0,0.0,0.0,0.265916436,80.9970754810644
8.2,7.43712e-11,0.28060090692,79.41715616664001,8817.327408744,1.3596114873035828e-07,-9.564404300928926e-21,9.787072733663999,-1.0663961729685354e-26,-9.634217471008699e-21,-0.0005980890091943963,0.0,0.0,0.0,-79.4171561768,304.62998792448,0.477551043516436,31654.61460437381,230.91708222222223,1.085366074123562e-07,0.7173746238754843,-2.8262912063875905,0.0,0.0,0.0,0.268904586,81.9163299601136
8.3,7.52856e-11,0.2867012615976,80.37281224872001,8809.337908848,1.4049900478554352e-07,-9.494591130849152e-21,9.78709723044,-1.0663961729685354e-26,-9.564404300928926e-21,-0.0006053855501185764,0.0,0.0,0.0,-80.37281222840001,304.66414606800004,0.478009730664456,31692.110295928625,230.96887055555555,1.0987107389693434e-07,0.7250924485139396,-2.8952620212769378,0.0,0.0,0.0,0.271892716,82.83589037900961
8.4,7.62e-11,0.2928679672728,81.32799424488,8801.252863296,1.450368608407288e-07,-9.442231253289322e-21,9.787122019824002,-1.0663961729685354e-26,-9.512044423369097e-21,-0.0006126821957625115,0.0,0.0,0.0,-81.3279942652,304.69871041848,0.478473571600656,31730.06575767029,231.02128066666666,1.1120554038151249e-07,0.7327990413928162,-2.9651531331844883,0.0,0.0,0.0,0.274880709,83.7557249965576
8.5,7.71144e-11,0.299100927324,82.28269590672001,8793.072323904,1.4957471689591402e-07,-9.372418083209549e-21,9.787147101816,-1.0663961729685354e-26,-9.442231253289322e-21,-0.0006199789461262018,0.0,0.0,0.0,-82.2826959372,304.7336758248,0.478943081703854,31768.482847352865,231.07430494444446,1.1254000686609064e-07,0.7404939221041797,-3.0359677225886967,0.0,0.0,0.0,0.277868458,84.67580315189521
8.6,7.80288e-11,0.30540004086239997,83.2369108944,8784.796339440001,1.5428710587629872e-07,-9.302604913129776e-21,9.787172476416,-1.0663961729685354e-26,-9.389871375729494e-21,-0.0006272757837563546,0.0,0.0,0.0,-83.23691089440001,304.76904719424,0.47941774559523204,31807.36311629673,231.12795105555557,1.138744733506688e-07,0.7481764501041177,-3.107708302734775,0.0,0.0,0.0,0.280855848,85.5960951616036
8.7,7.89432e-11,0.31176520364640004,84.19063289856,8776.424958672,1.5917402778188286e-07,-9.250245035569947e-21,9.787198146672,-1.0663961729685354e-26,-9.32005820564972e-21,-0.00063457270865297,0.0,0.0,0.0,-84.1906328884,304.804821936,0.47989807865360806,31846.706550137813,231.18221511111113,1.1520893983524695e-07,0.7558461583293606,-3.180378094135174,0.0,0.0,0.0,0.283842778,86.5165724740408
8.8,7.985760000000001e-11,0.31819630747200006,85.14385551840002,8767.958230368,1.6406094968746698e-07,-9.180431865490174e-21,9.787224106487999,-1.0663961729685354e-26,-9.26769832808989e-21,-0.0006418697557226331,0.0,0.0,0.0,-85.14385551840002,304.840997124,0.48038408087898204,31886.515552465113,231.23709333333335,1.1654340631982509e-07,0.7635025218897576,-3.253980112684147,0.0,0.0,0.0,0.286829146,87.4372072577864
8.9,8.077200000000001e-11,0.3246932401728,86.09657241408001,8759.396206344001,1.6912240451825055e-07,-9.128071987930344e-21,9.78725036196,-1.0663961729685354e-26,-9.197885158010115e-21,-0.0006491668900587589,0.0,0.0,0.0,-86.0965724344,304.8775780008,0.48087523689253603,31926.78442552781,231.2925933888889,1.1787787280440324e-07,0.7711450292398232,-3.328517392068837,0.0,0.0,0.0,0.289814849,88.357972710308
9.0,8.168640000000001e-11,0.33125588592480004,87.04877721528001,8750.73893232,1.743583922742335e-07,-9.05825881785057e-21,9.787276906992,-1.0663961729685354e-26,-9.145525280450286e-21,-0.0006564641291146396,0.0,0.0,0.0,-87.04877723560001,304.91456151840003,0.481372062073088,31967.520437549225,231.34871138888892,1.192123392889814e-07,0.7787731688340714,-3.4039929837692715,0.0,0.0,0.0,0.292799792,89.2788428007392
9.1,8.26008e-11,0.3378841246368,88.00046346024,8741.986466208,1.7976891295541595e-07,-9.00589894029074e-21,9.787303747680001,-1.0663961729685354e-26,-9.075712110370514e-21,-0.0006637614728902756,0.0,0.0,0.0,-88.00046347039999,304.9519452384,0.48187404104182,32008.718743047146,231.40544355555556,1.2054680577355954e-07,0.7863863757483572,-3.4804097035097334,0.0,0.0,0.0,0.295783883,90.19979226987961
9.2,8.35152e-11,0.3445778334744,88.95162474816001,8733.138856776,1.8500490071139893e-07,-8.936085770210967e-21,9.787330877928,-1.0663961729685354e-26,-9.023352232810685e-21,-0.0006710589213856667,0.0,0.0,0.0,-88.95162473799999,304.989731904,0.48238168917755003,32050.382818128364,231.46279372222224,1.218812722581377e-07,0.7939841962640759,-3.5577708919046556,0.0,0.0,0.0,0.298767028,91.1207966816392
9.3,8.473440000000001e-11,0.35133688503120003,89.90225461728001,8724.196158888,1.9024088846738193e-07,-8.883725892651139e-21,9.787358300784001,-1.0663961729685354e-26,-8.95353906273091e-21,-0.0006783564746008128,0.0,0.0,0.0,-89.90225463760001,305.0279206008,0.482895006480278,32092.510790674765,231.52076188888887,1.2321573874271585e-07,0.8015660788017469,-3.63607939136765,0.0,0.0,0.0,0.301749137,92.0418321658164
9.4,8.56488e-11,0.3581611482432,90.85234660584001,8715.158424360001,1.954768762233649e-07,-8.813912722571364e-21,9.787386016248002,-1.0663961729685354e-26,-8.90117918517108e-21,-0.0006856541325357141,0.0,0.0,0.0,-90.85234661599999,305.0665091952,0.483413477571186,32135.102665474373,231.5793441666667,1.2499502738882005e-07,0.8091315207123282,-3.7153383201020684,0.0,0.0,0.0,0.304730127,92.96287562387559
9.5,8.656320000000001e-11,0.3650504886936001,91.80189416064,8706.025708056,2.007128639793479e-07,-8.761552845011535e-21,9.787414021272001,-1.0663961729685354e-26,-8.831366015091308e-21,-0.0006929518951903705,0.0,0.0,0.0,-91.80189417080001,305.1054973824,0.483937617829092,32178.161420679295,231.6385406666667,1.2632949387339818e-07,0.8166800816218793,-3.795551094342113,0.0,0.0,0.0,0.307709913,93.8839046260584
9.6,8.74776e-11,0.372004768308,92.75089081992,8696.79806484,2.076941809873252e-07,-8.69173967493176e-21,9.787442318904,-1.0663961729685354e-26,-8.779006137531478e-21,-0.0007002497625647821,0.0,0.0,0.0,-92.75089079960001,305.14488729600004,0.484466911875178,32221.685715642278,231.69835511111114,1.2766396035797633e-07,0.8242112099509205,-3.876720596535389,0.0,0.0,0.0,0.310688408,94.8048973084948
9.7,8.8392e-11,0.3790238447448,93.69933000000002,8687.475549576,2.129301687433082e-07,-8.63937979737193e-21,9.787470909144,-1.0663961729685354e-26,-8.709192967451705e-21,-0.0007075477521122412,0.0,0.0,0.0,-93.69933,305.1846768024,0.485001875088262,32265.675583879507,231.75878372222223,1.2899842684255448e-07,0.8317244119468519,-3.958849993815687,0.0,0.0,0.0,0.313665536,95.7258322703144
9.8,8.930640000000002e-11,0.3861075729192,94.64720517816001,8678.058217128,2.199114857512855e-07,-8.56956662729216e-21,9.787499788944,-1.0663961729685354e-26,-8.656833089891874e-21,-0.0007148458463794555,0.0,0.0,0.0,-94.647205168,305.224865292,0.48554199208952603,32310.131590378034,231.8198265,1.3033289332713264e-07,0.8392192516839556,-4.041942782485196,0.0,0.0,0.0,0.316641216,96.6466888823128
9.9,9.022080000000001e-11,0.39325580347920003,95.59450974024,8668.546128456,2.2514747350726852e-07,-8.517206749732328e-21,9.787528961352,-1.0663961729685354e-26,-8.587019919812101e-21,-0.0007221440453664249,0.0,0.0,0.0,-95.5945097504,305.2654530696,0.486088293636606,32355.0567372301,231.88148344444446,1.316673598117108e-07,0.8466951197558703,-4.12600156030534,0.0,0.0,0.0,0.319615372,97.567446823952
10.0,9.11352e-11,0.40046838341519997,96.54123707208001,8658.939335376,2.3212879051524583e-07,-8.447393579652555e-21,9.78755842332,-1.0663961729685354e-26,-8.517206749732328e-21,-0.000729442366526442,0.0,0.0,0.0,-96.54123709240001,305.30643922080003,0.486639233593048,32400.44430683537,231.94375455555556,1.3300182629628894e-07,0.854151584685099,-4.211029859164082,0.0,0.0,0.0,0.322587928,98.4880864434712
10.1,9.20496e-11,0.40774515606,97.48738059,8649.237898848,2.3736477827122881e-07,-8.395033702092725e-21,9.787588177896,-1.0663961729685354e-26,-8.464846872172498e-21,-0.0007367407924062142,0.0,0.0,0.0,-97.48738059000001,305.34782435520003,0.487195842716488,32446.302180284467,232.00663988888888,1.343362927808671e-07,0.861588152719043,-4.297030912918535,0.0,0.0,0.0,0.325558811,99.408588397776
10.2,9.32688e-11,0.4150859610888,98.4329335884,8639.441879832,2.4434609527920616e-07,-8.325220532012953e-21,9.787618222032,-1.0663961729685354e-26,-8.395033702092725e-21,-0.000744039340459034,0.0,0.0,0.0,-98.43293358840002,305.3896078632,0.48775812100692606,32492.626077082245,232.07013933333334,1.361155814269713e-07,0.8690042811746647,-4.384007652946744,0.0,0.0,0.0,0.328527947,100.32893396110481
10.3,9.418320000000002e-11,0.42249063512880003,99.37788945312,8629.551333192001,2.5132741228718345e-07,-8.272860654453123e-21,9.787648555728001,-1.0663961729685354e-26,-8.342673824532894e-21,-0.0007513380106849014,0.0,0.0,0.0,-99.3778894328,305.4317870016,0.48832555308554404,32539.41849179019,232.13424911111113,1.3745004791154942e-07,0.8763995341262458,-4.471963664515331,0.0,0.0,0.0,0.331495269,101.249104664918
10.4,9.509760000000001e-11,0.4299590102352,100.3222414176,8619.566319888001,2.583087292951608e-07,-8.203047484373348e-21,9.787679182032,-1.0663961729685354e-26,-8.272860654453123e-21,-0.0007586367856305239,0.0,0.0,0.0,-100.32224141760001,305.4743645136,0.48889865433116,32586.68055917045,232.19897311111112,1.387845143961276e-07,0.8837734267176306,-4.56090223486007,0.0,0.0,0.0,0.334460704,102.16908255512
10.5,9.6012e-11,0.43749091572,101.26598283720001,8609.486903928,2.6354471705114374e-07,-8.150687606813519e-21,9.787710094848002,-1.0663961729685354e-26,-8.220500776893293e-21,-0.0007659356827491941,0.0,0.0,0.0,-101.2659828372,305.5173373512,0.48947690936495597,32634.407481621067,232.26430738888888,1.4011898088070573e-07,0.8911254029211171,-4.650826322048335,0.0,0.0,0.0,0.337424188,103.0888501406148
10.6,9.69264e-11,0.4450861763232,102.20910691488001,8599.313146272,2.705260340591211e-07,-8.080874436733746e-21,9.787741300272,-1.0663961729685354e-26,-8.150687606813519e-21,-0.0007732346845876195,0.0,0.0,0.0,-102.20910693520001,305.56070581920005,0.490060318186932,32682.604731855645,232.33025205555558,1.4145344736528388e-07,0.8984549734323274,-4.741739231108786,0.0,0.0,0.0,0.340385652,104.0083900846396
10.7,9.814560000000001e-11,0.45274461312720005,103.15160694504,8589.045104832001,2.775073510670984e-07,-8.011061266653973e-21,9.787772792208,-1.0663961729685354e-26,-8.098327729253689e-21,-0.000780533826052385,0.0,0.0,0.0,-103.15160695520001,305.6044717464,0.49064991155472404,32731.27346378842,232.3968108888889,1.4278791384986206e-07,0.9057616444986624,-4.833644262621861,0.0,0.0,0.0,0.34334503,104.92768551343121
10.8,9.906e-11,0.4604660450808,104.09347606968001,8578.682843616,2.8623399732707e-07,-7.958701389094143e-21,9.787804576752,-1.0663961729685354e-26,-8.028514559173915e-21,-0.0007878330722369056,0.0,0.0,0.0,-104.09347609000001,305.6486326944,0.49124414333187805,32780.408894181535,232.4639801111111,1.4456720249596624e-07,0.9130449312639659,-4.926544757201993,0.0,0.0,0.0,0.346302258,105.846720016226
10.9,9.997440000000001e-11,0.4682502853416,105.03470755272,8568.22642968,2.9321531433504735e-07,-7.888888219014369e-21,9.787836647808001,-1.0663961729685354e-26,-7.976154681614085e-21,-0.0007951324405944739,0.0,0.0,0.0,-105.0347075324,305.69318592,0.491844559654848,32830.01353674856,232.53175583333334,1.459016689805444e-07,0.9203043978025198,-5.020444415769567,0.0,0.0,0.0,0.349257277,106.7654772851492
11.0,1.008888e-10,0.4760971449336,105.97529450568001,8557.675923984001,3.001966313430247e-07,-7.836528341454539e-21,9.787869011472,-1.0663961729685354e-26,-7.906341511534314e-21,-0.0008024319485783822,0.0,0.0,0.0,-105.97529452600001,305.7381363,0.49244961438718005,32880.0891056028,232.6001457222222,1.4723613546512254e-07,0.9275394258115194,-5.115345862775336,0.0,0.0,0.0,0.352210019,107.6839414238812
11.1,1.018032e-10,0.48400643000400007,106.91523013152002,8547.031393584,3.0717794835100203e-07,-7.766715171374768e-21,9.787901661648,-1.0663961729685354e-26,-7.853981633974484e-21,-0.0008097315612820459,0.0,0.0,0.0,-106.9152301112,305.7834786528,0.49306033828651,32930.63515545782,232.66914216666666,1.485706019497007e-07,0.9347495793652463,-5.211252825829012,0.0,0.0,0.0,0.355160427,108.6020968447688
11.2,1.0302240000000001e-10,0.49197794395680006,107.85450751128,8536.292902488,3.1590459461097366e-07,-7.714355293814937e-21,9.787934598336001,-1.0663961729685354e-26,-7.78416846389471e-21,-0.000817031296158757,0.0,0.0,0.0,-107.8545074808,305.8292154168,0.493676731352838,32981.652864168,232.73874894444444,1.5034989059580487e-07,0.9419343691593232,-5.3081686811308035,0.0,0.0,0.0,0.35810844,109.5199282173808
11.3,1.039368e-10,0.5000114865384,108.79311975648,8525.460514704,3.2288591161895095e-07,-7.644542123735164e-21,9.787967827632,-1.0663961729685354e-26,-7.73180858633488e-21,-0.0008243311706618082,0.0,0.0,0.0,-108.79311972600001,305.8753459824,0.494298278207346,33033.14045058771,232.80896605555557,1.5168435708038305e-07,0.9490932925447074,-5.4060968226738,0.0,0.0,0.0,0.361053997,110.43742046850801
11.4,1.048512e-10,0.5081068526184,109.73105994816001,8514.534300336001,3.3161255787892263e-07,-7.592182246175334e-21,9.788001343440001,-1.0663961729685354e-26,-7.661995416255107e-21,-0.0008316311673379072,0.0,0.0,0.0,-109.73105993800002,305.921868216,0.494924978850034,33085.09801526549,232.87978972222223,1.5301882356496118e-07,0.9562257890454751,-5.50504024411115,0.0,0.0,0.0,0.363997042,111.35455878216321
11.5,1.057656e-10,0.5162638343232,110.66832113688001,8503.514326440001,3.385938748868999e-07,-7.522369076095561e-21,9.78803514576,-1.0663961729685354e-26,-7.609635538695277e-21,-0.0008389312861870538,0.0,0.0,0.0,-110.6683211572,305.9687818128,0.49555734865972,33137.52865126607,232.95121994444446,1.5435329004953933e-07,0.9633313471161409,-5.605002339435947,0.0,0.0,0.0,0.36693752,112.27132859958121
11.6,1.069848e-10,0.5244823100376,111.60489585504,8492.400657024002,3.4732052114687154e-07,-7.47000919853573e-21,9.78806923764,-1.0663961729685354e-26,-7.539822368615503e-21,-0.0008462315446625407,0.0,0.0,0.0,-111.6048958652,306.0160886016,0.496215487410306,33191.78889251082,233.0232605,1.5613257869564356e-07,0.9704433862457003,-5.706185903071629,0.0,0.0,0.0,0.369875367,113.18771505333041
11.7,1.0789920000000001e-10,0.5327623547424,112.54077532440002,8481.193368288,3.560471674068433e-07,-7.400196028455957e-21,9.788103616032,-1.0663961729685354e-26,-7.487462491055673e-21,-0.0008535319078577825,0.0,0.0,0.0,-112.54077532440002,306.0637840104,0.496888572146614,33247.168732215374,233.0959037777778,1.5746704518022169e-07,0.9775525562723176,-5.808548160919145,0.0,0.0,0.0,0.372810528,114.1037021956468
11.8,1.0881360000000001e-10,0.5411037748896,113.47595235168001,8469.892527288,3.6302848441482056e-07,-7.347836150896127e-21,9.788138283984,-1.0663961729685354e-26,-7.4176493209759e-21,-0.000860832428132657,0.0,0.0,0.0,-113.475952372,306.1118726112,0.49756681067110203,33303.03767834146,233.1691573888889,1.5880151166479984e-07,0.9846345076308712,-5.911954033832703,0.0,0.0,0.0,0.375742942,115.01927593076479
11.9,1.1003280000000001e-10,0.549506354376,114.41041980456001,8458.498201080001,3.717551306747922e-07,-7.278022980816354e-21,9.788173238448,-1.0663961729685354e-26,-7.36528944341607e-21,-0.0008681330705805791,0.0,0.0,0.0,-114.41041979440001,306.1603495272,0.498251233741406,33359.397794528246,233.2430137777778,1.6058080031090404e-07,0.9916886487078863,-6.016406791255191,0.0,0.0,0.0,0.378672559,115.9344225230296
12.0,1.109472e-10,0.5579698737456,115.34417052024,8447.010465864,3.8048177693476387e-07,-7.225663103256525e-21,9.788208479424,-1.0663961729685354e-26,-7.312929565856241e-21,-0.000875433835201549,0.0,0.0,0.0,-115.3441705304,306.2092190256,0.49894132597870805,33416.248434392226,233.31748044444444,1.619152667954822e-07,0.9987144012345527,-6.121909675940166,0.0,0.0,0.0,0.381599319,116.8491282882308
12.1,1.1186160000000001e-10,0.56649410958,116.27719730544001,8435.429391744,3.892084231947355e-07,-7.173303225696695e-21,9.788244006912,-1.0663961729685354e-26,-7.243116395776468e-21,-0.0008827347394488591,0.0,0.0,0.0,-116.27719731560002,306.2584734864,0.49963657200419004,33473.591125313666,233.39254605555556,1.6324973328006032e-07,1.00571124032072,-6.228466384359792,0.0,0.0,0.0,0.384523179,117.76337985082439
12.2,1.1308080000000001e-10,0.5750788351080001,117.20949296688,8423.755051872,3.979350694547071e-07,-7.10349005561692e-21,9.788279820912,-1.0663961729685354e-26,-7.190756518216638e-21,-0.0008900357833225091,0.0,0.0,0.0,-117.20949298720001,306.3081180912,0.50033748719667,33531.42524006117,233.46821822222225,1.6502902192616455e-07,1.0126787211442263,-6.336081062256612,0.0,0.0,0.0,0.387444079,118.6771638867108
12.3,1.139952e-10,0.5837238183768001,118.14105025032,8411.9875194,4.084070449666731e-07,-7.051130178057091e-21,9.788315921424,-1.0663961729685354e-26,-7.120943348136865e-21,-0.000897336949369207,0.0,0.0,0.0,-118.14105028080002,306.3581525352,0.501044071556148,33589.75395788394,233.54449694444443,1.6636348841074268e-07,1.0196163277113648,-6.444757437240342,0.0,0.0,0.0,0.390361967,119.5904673804568
12.4,1.152144e-10,0.5924288246904,119.07186190152001,8400.126867480001,4.171336912266448e-07,-6.981317007977318e-21,9.788352308448,-1.0663961729685354e-26,-7.068583470577034e-21,-0.000904638255042245,0.0,0.0,0.0,-119.071861932,306.4085740752,0.501756325082624,33648.57501404573,233.62137833333335,1.6814277705684688e-07,1.0265233883406713,-6.554498285001268,0.0,0.0,0.0,0.393276794,120.50327736807361
12.5,1.161288e-10,0.6011936150856,120.00192066624001,8388.173172312001,4.258603374866164e-07,-6.928957130417488e-21,9.788388978936,-1.0663961729685354e-26,-6.998770300497261e-21,-0.0009119397177949156,0.0,0.0,0.0,-120.0019206764,306.45938240640004,0.5024742477760981,33707.889155478566,233.69886244444444,1.6947724354142503e-07,1.0333995160368652,-6.665308267275643,0.0,0.0,0.0,0.396188511,121.41558109135
12.6,1.170432e-10,0.6100179460272,120.93121916832,8376.126507048,4.363323129985824e-07,-6.859143960337715e-21,9.788425938984,-1.0681415022205296e-26,-6.946410422937432e-21,-0.0009192412852673413,0.0,0.0,0.0,-120.93121914800001,306.51057722400003,0.50319783963657,33767.69712432648,233.77694933333333,1.7081171002600318e-07,1.040244034670261,-6.777190137512648,0.0,0.0,0.0,0.399097065,122.3273658949636
12.7,1.182624e-10,0.618901570932,121.85975012304,8363.986953984,4.45058959258554e-07,-6.806784082777886e-21,9.788463182495999,-1.0681415022205296e-26,-6.894050545377602e-21,-0.0009265430098193998,0.0,0.0,0.0,-121.85975013320001,306.5621563944,0.503926585285222,33827.99666542925,233.85563505555555,1.7259099867210736e-07,1.0470565616938,-6.890148601930751,0.0,0.0,0.0,0.402002411,123.23861927792521
12.8,1.191768e-10,0.62784423834,122.78750615424,8351.754583224,4.5553093477052004e-07,-6.736970912698112e-21,9.788500709472002,-1.0681415022205296e-26,-6.824237375297827e-21,-0.0009338448739977984,0.0,0.0,0.0,-122.7875061644,306.6141241848,0.504661000100872,33888.7920880102,233.93492738888892,1.7392546515668554e-07,1.0538364120813533,-7.004186400634468,0.0,0.0,0.0,0.404904493,124.1493288935788
12.9,1.20396e-10,0.6368456934384,123.71447985528,8339.429477064,4.6425758103049167e-07,-6.6846110351382824e-21,9.788538526008,-1.0681415022205296e-26,-6.7718774977379986e-21,-0.0009411468778025372,0.0,0.0,0.0,-123.7144798756,306.6664757184,0.50540108408352,33950.083056907526,234.01481855555556,1.7570475380278974e-07,1.0605830431498835,-7.119307238992402,0.0,0.0,0.0,0.407803267,125.05948249815721
13.0,1.2131040000000002e-10,0.6459056765376,124.64066385000001,8327.011714752001,4.7472955654245763e-07,-6.632251157578452e-21,9.788576622959999,-1.0681415022205296e-26,-6.702064327658225e-21,-0.0009484490212336161,0.0,0.0,0.0,-124.64066385000001,306.7192106904,0.506146837233166,34011.86788194807,234.09530866666668,1.7703922028736787e-07,1.0672959878361217,-7.235515360607978,0.0,0.0,0.0,0.410698687,125.96906800222641
13.1,1.2252960000000002e-10,0.6550239249,125.56605070128002,8314.501372488001,4.852015320544236e-07,-6.562437987498679e-21,9.788615006424001,-1.0681415022205296e-26,-6.649704450098395e-21,-0.0009557513042910352,0.0,0.0,0.0,-125.5660507216,306.77233123440004,0.50689825954981,34074.15033609624,234.1764015,1.788185089334721e-07,1.0739746278372628,-7.352813972648977,0.0,0.0,0.0,0.4135907,126.8780734192412
13.2,1.23444e-10,0.6642001709112,126.49063294152,8301.898532568,4.956735075663896e-07,-6.5100781099388494e-21,9.788653673352002,-1.0681415022205296e-26,-6.579891280018622e-21,-0.000963053744428087,0.0,0.0,0.0,-126.4906329212,306.825834912,0.5076548356546341,34136.92819292,234.2580932777778,1.8015297541805023e-07,1.080618491641816,-7.471207336511707,0.0,0.0,0.0,0.416479263,127.7864868655452
13.3,1.246632e-10,0.6734341429944,127.41440307264,8289.20327424,5.061454830783556e-07,-6.4402649398590765e-21,9.788692623744002,-1.0681415022205296e-26,-6.527531402458793e-21,-0.0009703563067381863,0.0,0.0,0.0,-127.41440308280002,306.8797214184,0.508417596305274,34200.19978139832,234.34038388888888,1.8193226406415446e-07,1.0872268630861008,-7.590698098888031,0.0,0.0,0.0,0.419364327,128.69429650892639
13.4,1.255776e-10,0.6827255653056,128.33735356608,8276.4156798,5.166174585903216e-07,-6.387905062299247e-21,9.788731860648001,-1.0681415022205296e-26,-6.475171524898962e-21,-0.0009776590261279185,0.0,0.0,0.0,-128.3373535864,306.9339904488,0.509185510744094,34263.97078970594,234.42327344444448,1.8326673054873258e-07,1.0937993551748373,-7.711291072753736,0.0,0.0,0.0,0.422245848,129.60149072295042
13.5,1.267968e-10,0.6920741583432,129.25947692376002,8263.535828496,5.270894341022875e-07,-6.3180918922194724e-21,9.788771377968,-1.0681415022205296e-26,-6.405358354819189e-21,-0.0009849618851439906,0.0,0.0,0.0,-129.25947691360003,306.9886395648,0.509958578971094,34328.23654951764,234.50675811111114,1.8504601919483679e-07,1.100335247296123,-7.8329888870077955,0.0,0.0,0.0,0.42512378,130.5080578811828
13.6,1.277112e-10,0.7014796374240001,130.18076558664,8250.563811768001,5.375614096142536e-07,-6.265732014659643e-21,9.7888111818,-1.0681415022205296e-26,-6.3529984772593596e-21,-0.0009922649012396956,0.0,0.0,0.0,-130.1807655968,307.0436730336,0.51073783174391,34393.00141793697,234.5908455,1.8638048567941494e-07,1.1068339745258133,-7.955795229225929,0.0,0.0,0.0,0.427998073,131.4139865629668
13.7,1.289304e-10,0.7109417145120001,131.10121193472,8237.499705816,5.497787143782139e-07,-6.213372137099814e-21,9.788851266048,-1.0681415022205296e-26,-6.283185307179587e-21,-0.0009995680569617406,0.0,0.0,0.0,-131.1012119144,307.0990862832,0.5115222383049061,34458.26263227299,234.67552794444447,1.8815977432551914e-07,1.1132951365239627,-8.079714965762584,0.0,0.0,0.0,0.430868686,132.3192653476456
13.8,1.298448e-10,0.7204600966944,132.02080837848,8224.343595984,5.602506898901798e-07,-6.14355896702004e-21,9.78889163376,-1.0681415022205296e-26,-6.230825429619756e-21,-0.0010068713697634183,0.0,0.0,0.0,-132.020808348,307.15487900880004,0.5123123140329,34524.023453171336,234.7608055,1.8949424081009727e-07,1.119717919266016,-8.204750080524601,0.0,0.0,0.0,0.433735576,133.22388286600682
13.9,1.3106400000000002e-10,0.7300344877056001,132.93954726744002,8211.095570664,5.7246799465414e-07,-6.09119908946021e-21,9.788932281888002,-1.0681415022205296e-26,-6.1784655520599266e-21,-0.0010141748221914363,0.0,0.0,0.0,-132.9395472776,307.2110506008,0.513107543549074,34590.2822335511,234.84667816666666,1.912735294562015e-07,1.1261019135155839,-8.330905430969983,0.0,0.0,0.0,0.436598696,134.1278279546156
14.0,1.319784e-10,0.7396645857936,133.85742095112002,8197.7557152,5.82939970166106e-07,-6.021385919380437e-21,9.788973216528001,-1.069886831472524e-26,-6.108652381980154e-21,-0.0010214784316990868,0.0,0.0,0.0,-133.8574209308,307.26760105920005,0.513908957611064,34657.039782588654,234.9331458888889,1.9260799594077962e-07,1.1324464609358675,-8.458184139750305,0.0,0.0,0.0,0.439458003,135.0310894500372
14.1,1.331976e-10,0.749350085244,134.77442174856,8184.324117984001,5.951572749300664e-07,-5.969026041820607e-21,9.789014431584,-1.069886831472524e-26,-6.056292504420324e-21,-0.0010287821808330777,0.0,0.0,0.0,-134.7744217384,307.324530384,0.514715525461234,34724.296928612486,235.02020872222224,1.9438728458688383e-07,1.1387509076382898,-8.586589285034924,0.0,0.0,0.0,0.442313452,135.9336561888368
14.2,1.344168e-10,0.7590906766848,135.69054194832,8170.800861312,6.073745796940266e-07,-5.916666164260777e-21,9.789055927056001,-1.069886831472524e-26,-5.986479334340551e-21,-0.0010360861044999936,0.0,0.0,0.0,-135.69054192800002,307.3818379656,0.515527247099584,34792.052029329716,235.1078666666667,1.9616657323298803e-07,1.1450148265935756,-8.716125759867618,0.0,0.0,0.0,0.445165,136.8355172648016
14.3,1.353312e-10,0.7688860455624,136.60577380848002,8157.186039672,6.195918844579871e-07,-5.846852994181004e-21,9.789097702944,-1.069886831472524e-26,-5.934119456780721e-21,-0.0010433901677932497,0.0,0.0,0.0,-136.6057738288,307.43952380400003,0.51634515328375,34860.30838369017,235.19611966666668,1.9750103971756618e-07,1.1512374749487146,-8.846796028563158,0.0,0.0,0.0,0.448012602,137.73666166883
14.4,1.365504e-10,0.7787358730560001,137.52010958712,8143.479735360001,6.318091892219473e-07,-5.794493116621174e-21,9.789139762296001,-1.069886831472524e-26,-5.881759579220891e-21,-0.0010506943707128459,0.0,0.0,0.0,-137.52010956680002,307.4975854608,0.5171682132560961,34929.06625982332,235.28496400000003,1.9928032836367036e-07,1.1574183367100002,-8.978604370310743,0.0,0.0,0.0,0.450856219,138.63707854615362
14.5,1.3746480000000001e-10,0.7886398357728001,138.43354148136,8129.682045912001,6.440264939859077e-07,-5.724679946541401e-21,9.789182102064002,-1.069886831472524e-26,-5.811946409141117e-21,-0.0010579987481653674,0.0,0.0,0.0,-138.43354147120002,307.55602202160003,0.5179964270166221,34998.32402980035,235.37439955555556,2.0061479484824854e-07,1.1635567490924112,-9.111553823245735,0.0,0.0,0.0,0.453695808,139.5367570934484
14.6,1.38684e-10,0.7985976063576,139.34606168832,8115.79305972,6.562437987498679e-07,-5.6723200689815715e-21,9.789224722247999,-1.069886831472524e-26,-5.759586531581287e-21,-0.001065303265244229,0.0,0.0,0.0,-139.346061668,307.614834096,0.5188308253229641,35068.08254110184,235.46442644444446,2.0239408349435272e-07,1.1696521026895865,-9.24564801711697,0.0,0.0,0.0,0.456531326,140.43568650739041
