time,gePosition_m_X,gePosition_m_Y,gePosition_m_Z,feVelocity_m_s_X,feVelocity_m_s_Y,feVelocity_m_s_Z,altitudeMsl_m,longitude_rad,latitude_rad,localGravity_m_s2,eulerAngle_rad_Yaw,eulerAngle_rad_Pitch,eulerAngle_rad_Roll,bodyAngularRateWrtEi_rad_s_Roll,bodyAngularRateWrtEi_rad_s_Pitch,bodyAngularRateWrtEi_rad_s_Yaw,altitudeRateWrtMsl_m_s,speedOfSound_m_s,airDensity_kg_m3,ambientPressure_Pa,ambientTemperature_K,aero_bodyForce_N_X,aero_bodyForce_N_Y,aero_bodyForce_N_Z,aero_bodyMoment_Nm_L,aero_bodyMoment_Nm_M,aero_bodyMoment_Nm_N,mach,dynamicPressure_Pa,trueAirspeed_m_s
0.0,6387280.999951441,0.0,0.0,0.0,1.748108895117864e-05,0.0,9144.0,0.0,0.0,9.78607229664024,0.0,-0.0,0.0,0.0,0.0,0.0,0.0,303.2314967110032,0.45935725912772696,30180.52669774471,228.79957777777778,3.081240657613732e-16,0.1907244270352838,-0.0,0.0,0.0,0.0,0.0703620838581,104.55543033568618,21.33598153053566
0.1,6387280.95136632,6.73366297480104e-05,0.0,0.0,0.00133178680890264,0.975182579443488,9143.95140290136,1.0542299651549068e-11,0.0,9.786072436817761,0.0,0.0,-7.292125688989523e-06,0.0,0.0,0.0,-0.9751825794434881,303.23170665206163,0.45935986185105715,30180.735676593376,228.79989271388888,3.0842511761129886e-16,0.19089907724296074,-0.00872441833321588,0.0,0.0,0.0,0.0704307726575,104.76040659196984,21.356824906255405
0.2,6387280.8050928,0.00026691782415139685,0.0,0.0,0.0026628039938886,1.950305312556072,9143.805127979282,4.178896032548616e-11,0.0,9.786072875790719,0.0,0.0,-1.4584272082379047e-05,0.0,0.0,0.0,-1.950305312556072,303.23233856433603,0.45936769592141036,30181.36469281843,228.80084065666668,3.093624210886189e-16,0.1914674642828096,-0.017501662726090488,0.0,0.0,0.0,0.0706448158203,105.4003567137007,21.42177416491191
0.3,6387280.561283281,0.0006005467698210001,0.0,0.0,0.0040131936307264806,2.9253676183249437,9143.561343818641,9.402229384748959e-11,0.0,9.786073614046801,0.0,0.0,-2.1876439462367476e-05,0.0,0.0,0.0,-2.9253676183249437,303.2333917196592,0.45938075231192643,30182.413021512744,228.80242051333335,3.1093001166682686e-16,0.19242579963739756,-0.026385573490637696,0.0,0.0,0.0,0.0710028567527,106.47520668422278,21.530418437110466
0.4,6387280.21999872,0.001070293639060968,0.0,0.0,0.0053856076108917605,3.9003686245557603,9143.22005648496,1.67566413589815e-10,0.0,9.786074651555522,0.0,0.0,-2.916862815315754e-05,0.0,0.0,0.0,-3.9003686245557603,303.23486609181845,0.4593990306968861,30183.880636629467,228.804632245,3.1311822753812256e-16,0.19376800680380094,-0.035428902719885864,0.0,0.0,0.0,0.0715026907408,107.98492226915094,21.68209008293242
0.5,6387279.781239121,0.0016784914768106882,0.0,0.0,0.00678264914481936,4.87530710227968,9142.7812721352,2.627865905840786e-10,0.0,9.786075988286399,0.0,0.0,-3.64608385200468e-05,0.0,0.0,0.0,-4.87530710227968,303.2367616539912,0.45942253074438527,30185.767511499274,228.80747581111112,3.1591395828278975e-16,0.19548587576165954,-0.04468283291623613,0.0,0.0,0.0,0.0721413264283,109.9294970558821,21.87588327072013
0.6,6387279.244943521,0.0024277306230263765,0.0,0.0,0.0082068588378624,5.85018147791184,9142.24499713968,3.800883803444469e-10,0.0,9.786077624239441,0.0,0.0,-4.375307096853632e-05,0.0,0.0,0.0,-5.85018147791184,303.23907837905045,0.45945125211530485,30188.073618878323,228.81095117111113,3.193010135284624e-16,0.1975692914489628,-0.05419655845673378,0.0,0.0,0.0,0.0729150699728,112.30895181199975,22.110679478426153
0.7,6387278.61120336,0.0033208518254611206,0.0,0.0,0.0096607024680408,6.82498984809816,9141.611238021122,5.199165446819391e-10,0.0,9.786079559384161,0.0,0.0,-5.104532594332552e-05,0.0,0.0,0.0,-6.824989848098161,303.2418162389544,0.45948519446227937,30190.79893090029,228.81505828277778,3.232605546731632e-16,0.2000065012113742,-0.06401694161391452,0.0,0.0,0.0,0.0738196235971,115.12333386857631,22.38517735595564
0.8,6387277.879957681,0.00436093822458312,0.0,0.0,0.01114656067993032,7.79972999645496,9140.88000142416,6.827537969278871e-10,0.0,9.78608179372056,0.0,0.0,-5.83376039273156e-05,0.0,0.0,0.0,-7.79972999645496,303.2449752041376,0.4595243574255744,30193.94341859762,228.8197971016667,3.277715645280968e-16,0.20278440566343603,-0.07418824985713603,0.0,0.0,0.0,0.0748501927944,118.37271652550025,22.69792520952699
0.9,6387277.05123696,0.005551306408972801,0.0,0.0,0.012666720709342561,8.774399412131281,9140.05129432872,8.691194016520868e-10,0.0,9.78608432721816,0.0,0.0,-6.562990543960413e-05,0.0,0.0,0.0,-8.774399412131281,303.2485552450344,0.45956874063308656,30197.507052188794,228.82516758444447,3.3281133028598075e-16,0.2058888577291639,-0.08475197564248739,0.0,0.0,0.0,0.0760015965732,122.05719849558636,23.04735440621839
1.0,6387276.12507168,0.00689549674523496,0.0,0.0,0.014223370144526161,9.748995309011281,9139.12512395856,1.0795676608026032e-09,0.0,9.78608715984648,0.0,0.0,-7.292223103459493e-05,0.0,0.0,0.0,-9.748995309011281,303.25255633055525,0.45961834369828164,30201.48980059952,228.83116968277778,3.383559177548482e-16,0.20930495621577694,-0.09574673507918698,0.0,0.0,0.0,0.0772683757068,126.17690337501986,23.431812172910938
1.1,6387275.10146184,0.00839726318348424,0.0,0.0,0.015818592655187282,10.723514645800561,9138.10149778128,1.3146863177313235e-09,0.0,9.786090291605522,0.0,0.0,-8.021458129988452e-05,0.0,0.0,0.0,-10.723514645800561,303.2569784283912,0.459673166220195,30205.891631654267,228.8378033488889,3.4438061872414767e-16,0.21301732270882096,-0.10720823811893557,0.0,0.0,0.0,0.0786448948488,130.7319791497113,23.849592535259493
1.2,6387273.980376961,0.01006056272772432,0.0,0.0,0.01745436553997736,11.69795414565528,9136.98042363024,1.5750949088159993e-09,0.0,9.786093722434321,0.0,0.0,-8.7506956855173e-05,0.0,0.0,0.0,-11.697954145655281,303.2618215044048,0.45973320777982357,30210.71251164533,228.84506853222223,3.508603579587825e-16,0.2170103534233591,-0.11916932039495229,0.0,0.0,0.0,0.0801254354294,135.72259773420924,24.298964462769536
1.3,6387272.761878001,0.011889544744866,0.0,0.0,0.019132558906276322,12.672310315750321,9135.76190967408,1.8614430897418544e-09,0.0,9.78609745233288,0.0,0.0,-9.479935835006319e-05,0.0,0.0,0.0,-12.672310315750321,303.2670855232392,0.4597984679401262,30215.95240557225,228.85296518,3.5777005102873766e-16,0.22126844059640996,-0.13166002553765005,0.0,0.0,0.0,0.0817042773307,141.14895454843915,24.778196611650166
1.4,6387271.445904001,0.0138885402638088,0.0,0.0,0.02085493626226656,13.646579466024482,9134.44596441672,2.17440896028919e-09,0.0,9.786101481270721,0.0,0.0,-0.00010209178646285286,0.0,0.0,0.0,-13.646579466024482,303.2727704486232,0.4598689462449926,30221.611276806612,228.8614932361111,3.6508490854119267e-16,0.22577616067563536,-0.14470772653190722,0.0,0.0,0.0,0.0833757683241,147.01126811981823,25.285578359503248
1.5,6387270.0325464,0.01606205139488808,0.0,0.0,0.02262315628824768,14.620757727072242,9133.032596758321,2.514697407967055e-09,0.0,9.78610580921736,0.0,0.0,-0.0001093842418978417,0.0,0.0,0.0,-14.620757727072242,303.27887624184723,0.459944642218728,30227.689087044215,228.8706526438889,3.727806859922376e-16,0.2305184288265387,-0.15833727523291685,0.0,0.0,0.0,0.0851343810952,153.3097797227171,25.81943707752348
1.6,6387268.52177472,0.01841474097597144,0.0,0.0,0.02443877556477936,15.59484106675536,9131.52181599528,2.883038487141678e-09,0.0,9.786110436142321,0.0,0.0,-0.00011667672538583226,0.0,0.0,0.0,-15.59484106675536,303.28540286298244,0.4600255553629613,30234.185796400812,228.88044334222224,3.808338812865948e-16,0.23548062104682424,-0.17257117025630445,0.0,0.0,0.0,0.0869747583229,160.0447530428192,26.378151782658954
1.7,6387266.91358896,0.020951422530030243,0.0,0.0,0.026303252037282,16.568825305869602,9129.913631789761,3.280185846849113e-09,0.0,9.786115362045601,0.0,0.0,-0.00012396923767982063,0.0,0.0,0.0,-16.5688253058696,303.29235026996645,0.4601116851587059,30241.10136312481,228.89086526944445,3.892218839736749e-16,0.24064866638336893,-0.18742973488742076,0.0,0.0,0.0,0.0888917467371,167.21647387020838,26.960163449435328
1.8,6387265.2080196,0.02367705059822472,0.0,0.0,0.02821794902811912,17.54270613240936,9128.20805432208,3.706915217559872e-09,0.0,9.786120586866241,0.0,0.0,-0.00013126177955580988,0.0,0.0,0.0,-17.54270613240936,303.299718418908,0.4602030310637833,30248.43574369305,228.90191835888888,3.979230814622125e-16,0.24600911252747765,-0.20293129818178815,0.0,0.0,0.0,0.0908804213554,174.82524981783286,27.563982346133084
1.9,6387263.40503616,0.026596711493674083,0.0,0.0,0.030184139620474802,18.51647911476552,9126.40509410784,4.164022963672654e-09,0.0,9.786126110573761,0.0,0.0,-0.00013855435180979933,0.0,0.0,0.0,-18.51647911476552,303.30750726439203,0.46029959251230756,30256.188892667175,228.9136025427778,4.069169280717899e-16,0.2515491684123879,-0.21909237392283898,0.0,0.0,0.0,0.0929361012393,182.8714100596003,28.18819280064815
2.0,6387261.50473008,0.0297156145067268,0.0,0.0,0.0322030112711664,19.49013971346024,9124.5047621808,4.6523247067288225e-09,0.0,9.78613193313768,0.0,0.0,-0.00014584695525878975,0.0,0.0,0.0,-19.49013971346024,303.3157167588696,0.46040136891417,30264.360762741486,228.92591774944447,4.1618398287830605e-16,0.2572567275028236,-0.2359278335011589,0.0,0.0,0.0,0.0950543581271,191.3553050909765,28.831455808465776
2.1,6387259.507009921,0.033039083577276,0.0,0.0,0.034275670530564004,20.463683291906403,9122.50707000144,5.172654021808529e-09,0.0,9.786138054527521,0.0,0.0,-0.00015313959073477967,0.0,0.0,0.0,-20.463683291906403,303.32434685265844,0.4605083596560697,30272.951304551425,228.93886390444447,4.257059220640197e-16,0.2631203753156036,-0.2534510699488866,0.0,0.0,0.0,0.0972310192477,200.27730650729984,29.49250987691459
2.2,6387257.4119976,0.036572549441191204,0.0,0.0,0.036403147772172004,21.4371051261612,9120.41202951792,5.725861208033524e-09,0.0,9.786144474712799,0.0,0.0,-0.0001604322590887689,0.0,0.0,0.0,-21.4371051261612,303.3333974942472,0.46062056409790625,30281.960466817254,228.95244093111114,4.3546553099971437e-16,0.2691293844042716,-0.27167415136688416,0.0,0.0,0.0,0.0994621655096,209.63780679789596,30.17017046936128
2.3,6387255.2196016805,0.0403215422444352,0.0,0.0,0.038586401855337606,22.410400413369118,9118.2196531356,6.312812132618142e-09,0.0,9.78615119366304,0.0,0.0,-0.00016772496118575833,0.0,0.0,0.0,-22.410400413369125,303.3428686299912,0.46073798157484097,30291.38819610459,228.9666487477778,4.454466807069338e-16,0.2752736996879716,-0.2906079627803034,0.0,0.0,0.0,0.101744126126,219.4372191545571,30.863328368404133
2.4,6387252.929913601,0.0442916846222448,0.0,0.0,0.04082632466418001,23.38356427959528,9115.92995374752,6.934387147072188e-09,0.0,9.78615821131728,0.0,0.0,-0.00017501769790774838,0.0,0.0,0.0,-23.38356427959528,303.35276020411203,0.4608606113967816,30301.234436968098,228.98148727222224,4.556342926827803e-16,0.28154391659333194,-0.3102623360475637,0.0,0.0,0.0,0.104073470583,229.6759772919907,31.57094723617381
2.5,6387250.54290288,0.0484886852189304,0.0,0.0,0.0431237454778128,24.35659178653104,9113.542944734401,7.591480073199559e-09,0.0,9.786165527645041,0.0,0.0,-0.00018231047014773672,0.0,0.0,0.0,-24.35659178653104,303.3630721590024,0.4609884528458054,30311.499131807825,228.99695641666668,4.66014295465699e-16,0.28793125408356296,-0.330646167918823,0.0,0.0,0.0,0.106446998729,240.3545352788024,32.29206060303539
2.6,6387248.0586,0.0529183326385104,0.0,0.0,0.0454794351457992,25.32947793765096,9111.058640025602,8.284997255960415e-09,0.0,9.78617314261584,0.0,0.0,-0.0001896032788107272,0.0,0.0,0.0,-25.329477937650957,303.373804434312,0.4611215051787363,30322.182220964973,229.0130560911111,4.765735756939198e-16,0.29442752429222746,-0.35176752664205657,0.0,0.0,0.0,0.108861729596,251.47336737996983,33.02576847606483
2.7,6387245.47700496,0.0575864898013392,0.0,0.0,0.0478941100468944,26.302217683485843,9108.47705394672,9.015856680107681e-09,0.0,9.78618105616872,0.0,0.0,-0.00019689612481771612,0.0,0.0,0.0,-26.302217683485843,303.3849569684712,0.46125976762508275,30333.283642578237,229.02978620333332,4.872999258326262e-16,0.3010251001219495,-0.3736337477297102,0.0,0.0,0.0,0.111314889478,263.0329679036259,33.771233720141275
2.8,6387242.798148241,0.062499088684783204,0.0,0.0,0.05036843582467441,27.274805926469043,9105.79820146344,9.784987147019959e-09,0.0,9.786189268273201,0.0,0.0,-0.0002041890090947054,0.0,0.0,0.0,-27.274805926469046,303.3965296962528,0.46140323938703853,30344.803332488085,229.04714665555557,4.981819904082999e-16,0.3077168819014348,-0.39625151962388594,0.0,0.0,0.0,0.113803899658,275.03385105933313,34.52767833342384
2.9,6387240.022060321,0.0676621254269136,0.0,0.0,0.052903030889992805,28.247237525020804,9103.0220979072,1.0593327508187837e-08,0.0,9.786197778898801,0.0,0.0,-0.0002114819325816961,0.0,0.0,0.0,-28.247237525020804,303.4085225521248,0.46155191963948194,30356.741224571862,229.0651373488889,5.09209212029552e-16,0.3144962639250584,-0.4196269600696392,0.0,0.0,0.0,0.11632636409,287.4765508177945,35.29437970976172
3.0,6387237.14871072,0.0730816557685272,0.0,0.0,0.055498469700933604,29.21950729732776,9100.148759249521,1.1441825951827992e-08,0.0,9.78620658795408,0.0,0.0,-0.00021877489622668483,0.0,0.0,0.0,-29.21950729732776,303.4209354665928,0.46170580752946117,30369.09725026505,229.08375817944446,5.203717781952895e-16,0.3213571015026627,-0.44376568401574623,0.0,0.0,0.0,0.118880057262,300.3616207772675,36.0706669581045
3.1,6387234.1781604,0.0787637908118544,0.0,0.0,0.058155285814164,30.19161002451288,9097.17820191912,1.2331439338994876e-08,0.0,9.78621569540856,0.0,0.0,-0.000226067900986674,0.0,0.0,0.0,-30.191610024512883,303.4337683686384,0.4618649021761938,30381.871338944264,229.1030090416667,5.316605696953428e-16,0.3282936789781787,-0.4686728638516324,0.0,0.0,0.0,0.121462912426,313.68963403620285,36.8559173301002
3.2,6387231.11040936,0.0847146930740088,0.0,0.0,0.0608739747271944,31.163540453592002,9094.11044289336,1.3263132585908661e-08,0.0,9.786225101201282,0.0,0.0,-0.00023336094782666316,0.0,0.0,0.0,-31.163540453592006,303.4470211854144,0.46202920267158243,30395.06341754423,229.12288982444446,5.430671110483825e-16,0.3353006790333381,-0.494353282759342,0.0,0.0,0.0,0.12407301029,327.4611830649252,37.64955279076008
3.3,6387227.9454576,0.09094057281384241,0.0,0.0,0.063654996509412,32.135293299516,9090.94549966776,1.423787808899145e-08,0.0,9.78623480530176,0.0,0.0,-0.00024065403771865405,0.0,0.0,0.0,-32.135293299516,303.4606938407208,0.4621987080776374,30408.67341089293,229.14340041444447,5.545835233774584e-16,0.34237315348287456,-0.5208113819167312,0.0,0.0,0.0,0.126708568268,341.67687958162315,38.4510367571924
3.4,6387224.6833356,0.0974476846126992,0.0,0.0,0.0664987782417,33.106863248676,9087.68339022552,1.525665518966205e-08,0.0,9.78624480767952,0.0,0.0,-0.00024794717164264215,0.0,0.0,0.0,-33.106863248676,303.4747862574432,0.4623734174300852,30422.701241472245,229.16454069611112,5.662024798655081e-16,0.3495064956951047,-0.5480513022088873,0.0,0.0,0.0,0.129367930321,356.33735443456425,39.259871017340004
3.5,6387221.32407384,0.10424232418834081,0.0,0.0,0.0694057162731768,34.078244959147206,9084.32413318992,1.6320449675887393e-08,0.0,9.786255108212641,0.0,0.0,-0.0002552403505836318,0.0,0.0,0.0,-34.078244959147206,303.4892983548096,0.4625533297347599,30437.146829513644,229.1863105477778,5.779171639376268e-16,0.3566964146899335,-0.5760769210794212,0.0,0.0,0.0,0.132049557419,371.4432574761694,40.07559283767335
3.6,6387217.8677028,0.11133082542893762,0.0,0.0,0.07237617830176081,35.0494330630968,9080.86774758048,1.7430253317628252e-08,0.0,9.78626570690112,0.0,0.0,-0.00026253357553462117,0.0,0.0,0.0,-35.0494330630968,303.50423005052403,0.46273844396915,30452.010092902496,229.20870984666666,5.897212301878872e-16,0.3639389109320774,-0.6048918850647589,0.0,0.0,0.0,0.134752018632,386.9952574504946,40.89777225952998
3.7,6387214.31422248,0.1187195576224368,0.0,0.0,0.07541050529928721,36.0204221692224,9077.314253087281,1.8587063433648513e-08,0.0,9.786276603653521,0.0,0.0,-0.00026982684749061206,0.0,0.0,0.0,-36.0204221692224,303.51958125985203,0.4629287590818827,30467.290947225894,229.23173846555557,6.016087679706464e-16,0.3712302537910356,-0.6344996385296546,0.0,0.0,0.0,0.137473982829,402.9940418696998,41.72600958230023
3.8,6387210.66363288,0.12641492287582082,0.0,0.0,0.0785090132833104,36.99120686244721,9073.6636698576,1.9791882487279474e-08,0.0,9.786287798408882,0.0,0.0,-0.00027712016745660165,0.0,0.0,0.0,-36.9912068624472,303.5353518956208,0.46312427399272404,30482.989305724823,229.2553962727778,6.135742676207513e-16,0.37856696062199313,-0.664903449039846,0.0,0.0,0.0,0.140214210976,419.44031689961486,42.559933027491276
3.9,6387206.9159644805,0.1344233537004816,0.0,0.0,0.0816719949535752,37.9617817060536,9069.91601858736,2.1045717708660776e-08,0.0,9.78629929113672,0.0,0.0,-0.0002844135364385907,0.0,0.0,0.0,-37.9617817060536,303.5515418682192,0.4633249875920633,30499.105079294106,229.279683135,6.256125891736427e-16,0.38594577739781977,-0.6961064297588503,0.0,0.0,0.0,0.14297154901,436.3348072390817,43.39919657677628
4.0,6387203.0712782405,0.1427513107576152,0.0,0.0,0.08489972119894801,38.932141241988,9066.071320582081,2.2349580742114096e-08,0.0,9.7863110817456,0.0,0.0,-0.0002917069554485806,0.0,0.0,0.0,-38.932141241988,303.5681510859024,0.46353089874194414,30515.6381766261,229.3045989138889,6.37718933478606e-16,0.393363660816098,-0.7281115592514469,0.0,0.0,0.0,0.145744921248,453.6782560050414,44.24347797394532
4.1,6387199.129543681,0.1514052807465672,0.0,0.0,0.088192442487,39.9022799932992,9062.12959760448,2.3704487315333414e-08,0.0,9.786323170174562,0.0,0.0,-0.0002990004255015691,0.0,0.0,0.0,-39.9022799932992,303.585179454792,0.46374200627400286,30532.58850387549,229.3301434688889,6.498888155272331e-16,0.40081776179132816,-0.7609216989918773,0.0,0.0,0.0,0.148533324316,471.47142461091823,45.09247688319586
4.2,6387195.090821761,0.160391774426376,0.0,0.0,0.0915503901438624,40.872192462309606,9058.0908719964,2.5111456929938162e-08,0.0,9.78633555636264,0.0,0.0,-0.00030629394761755817,0.0,0.0,0.0,-40.872192462309606,303.6026268776568,0.4639583089915297,30549.95596499448,229.35631665444444,6.621180398947914e-16,0.4083054102513513,-0.7945396088258644,0.0,0.0,0.0,0.151335821556,489.7150926502711,45.94591319193057
4.3,6387190.955112481,0.16971732476350324,0.0,0.0,0.09497377753593601,41.841873133968,9053.95516670928,2.6571512571923083e-08,0.0,9.786348240218402,0.0,0.0,-0.0003135875228205482,0.0,0.0,0.0,-41.841873133968,303.6204932563512,0.46417980566740774,30567.74046134973,229.38311832222223,6.744026781388095e-16,0.41582410114191043,-0.8289679606666857,0.0,0.0,0.0,0.154151537872,508.4100577651224,46.80352544947121
4.4,6387186.722446321,0.17938848518776798,0.0,0.0,0.09846280115558881,42.8113164743256,9049.72250515176,2.808568043851422e-08,0.0,9.78636122171136,0.0,0.0,-0.0003208811521345378,0.0,0.0,0.0,-42.811316474325594,303.63877848876723,0.46440649504617426,30585.941892249073,229.41054832055556,6.867390480214344e-16,0.4233714815592786,-0.8642093506432671,0.0,0.0,0.0,0.156979655003,527.5571355530703,47.665069431554116
4.5,6387182.39285376,0.1894118279577048,0.0,0.0,0.10201764162638641,43.7805169323648,9045.39291137256,2.9654989681954563e-08,0.0,9.78637450075008,0.0,0.0,-0.0003281748365905278,0.0,0.0,0.0,-43.7805169323648,303.6574824718824,0.46463837584092815,30604.56015431901,229.4386064938889,6.991236943909746e-16,0.4309453389197698,-0.9002663098070525,0.0,0.0,0.0,0.15981940717,547.1571594035385,48.530316821038525
4.6,6387177.966365281,0.19979394261827524,0.0,0.0,0.10563846462846481,44.7494689393896,9040.96640990808,3.1280472169521294e-08,0.0,9.7863880772736,0.0,0.0,-0.00033546857721951736,0.0,0.0,0.0,-44.749468939389594,303.6766050990168,0.46487544673642295,30623.5951419357,229.46729268222225,7.115533716247697e-16,0.4385435900936227,-0.9371413136912314,0.0,0.0,0.0,0.162670077079,567.2109804120706,49.39905399618522
4.7,6387173.442980881,0.2105414345506296,0.0,0.0,0.1093254217501416,45.7181669102448,9036.44302590432,3.2963162254887646e-08,0.0,9.78640195116,0.0,0.0,-0.00034276237505650607,0.0,0.0,0.0,-45.718166910244804,303.6961462616616,0.4651177063875197,30643.04674708128,229.49660672388887,7.240250275132832e-16,0.4461642714209672,-0.9748367907401199,0.0,0.0,0.0,0.165530992255,587.7194672319011,50.27108091750258
4.8,6387168.82273104,0.22166092360233602,0.0,0.0,0.11307865127826242,46.6866052430112,9031.82278505592,3.470409656519272e-08,0.0,9.78641612240928,0.0,0.0,-0.00035005623113749685,0.0,0.0,0.0,-46.6866052430112,303.7161058494792,0.46536515341764173,30662.914859343862,229.52654845111113,7.365357884297318e-16,0.45380552953247427,-1.013355129826654,0.0,0.0,0.0,0.16840152167,608.6835059446787,51.146210105957906
4.9,6387164.105676721,0.233159042793504,0.0,0.0,0.11689827892484402,47.65477832022481,9027.1057135452,3.650431379805975e-08,0.0,9.78643059086904,0.0,0.0,-0.00035735014650148584,0.0,0.0,0.0,-47.6547783202248,303.73648374816963,0.4656177864223816,30683.19936582181,229.557117695,7.49082945727424e-16,0.4614656129448864,-1.0526986868980337,0.0,0.0,0.0,0.171281072649,630.1039999599177,52.02426570406568
5.0,6387159.291787441,0.24504243709240323,0.0,0.0,0.12078441849915841,48.622680507352804,9022.291838255522,3.8364854530482454e-08,0.0,9.7864453565088,0.0,0.0,-0.00036464412218947486,0.0,0.0,0.0,-48.622680507352804,303.7572798428232,0.4658756039648633,30703.900151219445,229.5883142816667,7.616639432358084e-16,0.4691428642997602,-1.0928697909185463,0.0,0.0,0.0,0.174169088027,651.9818698474177,52.90508261429675
5.1,6387154.381154641,0.2573177622572232,0.0,0.0,0.1247371725289152,49.590306154622404,9017.38118652744,4.028676103661275e-08,0.0,9.786460419206641,0.0,0.0,-0.0003719381592424654,0.0,0.0,0.0,-49.590306154622404,303.778494014568,0.4661386045798649,30725.01709789499,229.6201380327778,7.742763657573734e-16,0.47683571324586704,-1.133870749118469,0.0,0.0,0.0,0.177065043538,674.318053227138,53.788505706577375
5.2,6387149.37374784,0.26999168373635524,0.0,0.0,0.1287566328335904,50.5576495961064,9012.37378628064,4.227107711724205e-08,0.0,9.7864757789016,0.0,0.0,-0.00037923225870545427,0.0,0.0,0.0,-50.5576495961064,303.800126143008,0.4664067867712416,30746.550085621097,229.65258876833335,7.869179285075683e-16,0.4845426699269967,-1.1757038516913894,0.0,0.0,0.0,0.179968445416,697.1135046303455,54.674389090248035
5.3,6387144.269628,0.2830708756235376,0.0,0.0,0.1328428810578264,51.5247051506376,9007.2696660444,4.431884793486764e-08,0.0,9.78649143553272,0.0,0.0,-0.0003865264216224432,0.0,0.0,0.0,-51.52470515063761,303.8221761046992,0.4666801490119259,30768.498991920067,229.68566630333336,7.9958646739544e-16,0.49226231894127215,-1.2183713759532937,0.0,0.0,0.0,0.182878828187,720.36919536555,55.56259544580069
5.4,6387139.06879512,0.2965620196651224,0.0,0.0,0.13699598916063602,52.49146712119921,9002.06885486616,4.643111985975465e-08,0.0,9.786507388947602,0.0,0.0,-0.00039382064904143265,0.0,0.0,0.0,-52.4914671211992,303.8446437743688,0.46695868974495847,30790.863691728675,229.7193704488889,8.122799300782583e-16,0.4999933138075624,-1.2618755900612804,0.0,0.0,0.0,0.185795752642,744.0861133700753,56.45299540806044
5.5,6387133.77134064,0.310471804966248,0.0,0.0,0.141216053981856,53.45792970744721,8996.77138243344,4.860894042316122e-08,0.0,9.78652363914624,0.0,0.0,-0.0004011149420084229,0.0,0.0,0.0,-53.4579297074472,303.8673356564424,0.46725905822430164,30815.423697389568,229.75370639444446,8.250257662914071e-16,0.5077524640484242,-1.3062653009882779,0.0,0.0,0.0,0.188718923753,768.2926387720706,57.345466907697194
5.6,6387128.37723408,0.32480693724487203,0.0,0.0,0.14550328392513362,54.424086777415205,8991.37727895192,5.085335976683448e-08,0.0,9.78654018594576,0.0,0.0,-0.0004084093015744128,0.0,0.0,0.0,-54.4240867774152,303.8903152928808,0.46757576997565675,30841.592872130906,229.7886721716667,8.378135990277806e-16,0.5155332877286645,-1.3515316408931208,0.0,0.0,0.0,0.191647913371,792.9830639478083,58.239894404189656
5.7,6387122.8865364,0.339574136590272,0.0,0.0,0.14985775214064,55.389932495402405,8985.88657529784,5.316543029202479e-08,0.0,9.78655702931568,0.0,0.0,-0.00041570372879140127,0.0,0.0,0.0,-55.389932495402405,303.913706459916,0.4678981535533645,30868.230697027702,229.82426413333334,8.506231409672343e-16,0.5233232122657112,-1.3976483095498553,0.0,0.0,0.0,0.194582274562,818.141573679069,59.13616908234294
5.8,6387117.2992476,0.35478012843883205,0.0,0.0,0.15427950590285522,56.3554610549688,8980.2993028656,5.554620524664171e-08,0.0,9.78657416913408,0.0,0.0,-0.000422998224713391,0.0,0.0,0.0,-56.3554610549688,303.9375090231312,0.46822620711133806,30895.337019581315,229.86048207444443,8.63452747379826e-16,0.5311211408215271,-1.4446178482408347,0.0,0.0,0.0,0.197521655949,843.7693742754618,60.034188118691446
5.9,6387111.61545912,0.370431642545952,0.0,0.0,0.158768584904664,57.3206666313864,8974.615493659201,5.799673856485831e-08,0.0,9.78659160534,0.0,0.0,-0.00043029279039338093,0.0,0.0,0.0,-57.3206666313864,303.9617228462808,0.4685599287710216,30922.911684563947,229.89732578888888,8.763008494978938e-16,0.5389260232688493,-1.4924428067667563,0.0,0.0,0.0,0.200465724442,869.8676903560063,60.93385422570144
6.0,6387105.835140481,0.38653541224233606,0.0,0.0,0.1633250215673376,58.285543383468,8968.83518029224,6.051808475087214e-08,0.0,9.786609337781039,0.0,0.0,-0.00043758742688637024,0.0,0.0,0.0,-58.285543383468,303.98634779098563,0.4688993166182982,30950.95453373135,229.93479506444447,8.891659490536406e-16,0.546736852823887,-1.5411257452481932,0.0,0.0,0.0,0.203414163998,896.4377646576125,61.835075275198065
6.1,6387099.95835264,0.403098173726856,0.0,0.0,0.16794884132613122,59.250085451128804,8962.958395957441,6.31112987673788e-08,0.0,9.78662736639624,0.0,0.0,-0.0004448821352463598,0.0,0.0,0.0,-59.25008545112881,304.0113837155136,0.4692443687060667,30979.465406301606,229.9728896866667,9.020466132037126e-16,0.554552662888083,-1.5906692357225023,0.0,0.0,0.0,0.206366674469,923.4808578770753,62.73776394957232
6.2,6387093.98512608,0.42012666537770404,0.0,0.0,0.172640062893936,60.21428695752001,8956.98517439616,6.577743592858316e-08,0.0,9.78664569109416,0.0,0.0,-0.0004521769165303489,0.0,0.0,0.0,-60.21428695752,304.03683047630403,0.46959508305114933,31008.444138332714,230.01160943611112,9.149414698229808e-16,0.5623725241478741,-1.6410758635539135,0.0,0.0,0.0,0.209322970553,950.998248498706,63.64183742128243
6.3,6387087.91549128,0.43762762708183206,0.0,0.0,0.1773986985087768,61.1781420081144,8950.91554992888,6.851755179687592e-08,0.0,9.786664311722399,0.0,0.0,-0.00045947177179333853,0.0,0.0,0.0,-61.1781420081144,304.062687926748,0.46995145763686885,31037.890563297125,230.05095409055556,9.278492031853186e-16,0.5701955419013092,-1.6923482286834786,0.0,0.0,0.0,0.212282780807,978.9912326028108,64.54721705756299
6.4,6387081.7495092,0.455607799619256,0.0,0.0,0.1822247541611928,62.1416446894872,8944.74955754664,7.133270208334983e-08,0.0,9.786683228220001,0.0,0.0,-0.00046676670209032774,0.0,0.0,0.0,-62.14164468948721,304.08895591810324,0.4703134904120176,31067.80451160297,230.0909234238889,9.40768549920167e-16,0.5780208535537007,-1.7444889467233347,0.0,0.0,0.0,0.215245846746,1007.4611237076866,65.45382814262521
6.5,6387075.48717984,0.474073924035168,0.0,0.0,0.1871182298057688,63.1047890714496,8938.487232728161,7.42239425518066e-08,0.0,9.78670244046504,0.0,0.0,-0.0004740617084773177,0.0,0.0,0.0,-63.1047890714496,304.115634298884,0.470681179290342,31098.185810881318,230.13151720444446,9.536982953249606e-16,0.5858476263356873,-1.79750064991307,0.0,0.0,0.0,0.218211922007,1036.4092525589472,66.36159962660828
6.6,6387069.12856416,0.49303274104557604,0.0,0.0,0.1920791195589504,64.0675692049152,8932.128611653201,7.719232892573082e-08,0.0,9.78672194836608,0.0,0.0,-0.00048135679201030744,0.0,0.0,0.0,-64.0675692049152,304.1427229154712,0.4710545221500275,31129.03428584254,230.17273519944447,9.666372698732724e-16,0.5936750551458461,-1.851385987951544,0.0,0.0,0.0,0.221180771568,1065.836966976307,67.27046388893503
6.7,6387062.673692641,0.51249099046428,0.0,0.0,0.1971074118791808,65.02997912281441,8925.67373101968,8.023891679910365e-08,0.0,9.786741751770721,0.0,0.0,-0.0004886519537452963,0.0,0.0,0.0,-65.02997912281441,304.17022161119763,0.47143351683524465,31160.349758372064,230.21457717,9.795843460387833e-16,0.6015023605667854,-1.9061476287397388,0.0,0.0,0.0,0.224152171036,1095.745631642907,68.18035651813
6.8,6387056.12259576,0.532455410654232,0.0,0.0,0.20220308973819842,65.9920128397896,8919.1226281656,8.336476154808916e-08,0.0,9.786761850618,0.0,0.0,-0.0004959471947362869,0.0,0.0,0.0,-65.99201283978961,304.1981302272624,0.4718181611551179,31192.132047386756,230.25704287500002,9.925384352927343e-16,0.6093287870458228,-1.9617882589901643,0.0,0.0,0.0,0.22712590597,1126.1366279185834,69.09121611375846
6.9,6387049.475304,0.5529327379667041,0.0,0.0,0.20736613077557042,66.95366435189041,8912.475341008081,8.657091824725853e-08,0.0,9.78678224475552,0.0,0.0,-0.0005032425160402769,0.0,0.0,0.0,-66.95366435189041,304.2264486018168,0.4722084528826955,31224.38096893066,230.30013206722222,1.0054984853682678e-15,0.6171536011646267,-2.018310584778441,0.0,0.0,0.0,0.230101771273,1157.0113536579206,70.00298409350994
7.0,6387042.73184784,0.573929706238368,0.0,0.0,0.21259650744743522,67.9149276368784,8905.73190804336,8.985844158755958e-08,0.0,9.78680293409184,0.0,0.0,-0.0005105379187102652,0.0,0.0,0.0,-67.9149276368784,304.2551765708784,0.4726043897564951,31257.096336079252,230.34384449833334,1.0184634776582196e-15,0.624976090051201,-2.075717331979223,0.0,0.0,0.0,0.233079570609,1188.371223004368,70.91560452291716
7.1,6387035.89231872,0.5954530462578961,0.0,0.0,0.21789418715848083,68.8757966533128,8898.89236840776,9.322838579550796e-08,0.0,9.786823918505041,0.0,0.0,-0.0005178334038002544,0.0,0.0,0.0,-68.8757966533128,304.28431396772163,0.47300596947895795,31290.277959083058,230.38817991444446,1.0314324248397686e-15,0.6327955599030757,-2.134011246666538,0.0,0.0,0.0,0.236059115873,1220.2176661843532,71.82902395021968
7.2,6387028.956716641,0.6175094852843761,0.0,0.0,0.2232591323890464,69.83626534116,8891.95676181672,9.668180455569468e-08,0.0,9.786845197873202,0.0,0.0,-0.0005251289723662455,0.0,0.0,0.0,-69.83626534116,304.3138606231824,0.47341318971747964,31323.925645176154,230.4331380572222,1.044404368632532e-15,0.6406113346039101,-2.1931950953895787,0.0,0.0,0.0,0.23904022669,1252.5521293349145,72.74319125820384
7.3,6387021.9250720795,0.64010574654744,0.0,0.0,0.2286913008109464,70.79632762087921,8884.925128656241,1.0021975093503864e-07,0.0,9.7868667720744,0.0,0.0,-0.0005324246254592339,0.0,0.0,0.0,-70.7963276208792,304.3438163656584,0.4738260481044097,31358.039198671926,230.47871866611112,1.0573783777301434e-15,0.6484227544379559,-2.253271665466285,0.0,0.0,0.0,0.242022729959,1285.3760742547224,73.65805752067305
7.4,6387014.797476481,0.66324854878092,0.0,0.0,0.23419064539415044,71.7559773946416,8877.79750983048,1.0384327730756309e-07,0.0,9.78688864095624,0.0,0.0,-0.0005397203641322238,0.0,0.0,0.0,-71.7559773946416,304.37418102019444,0.4742445422344754,31392.618420867297,230.524921475,1.070353545843034e-15,0.6562291748890393,-2.3142437651256857,0.0,0.0,0.0,0.245006459415,1318.6909782412877,74.57357587435112
7.5,6387007.57389936,0.68694460574736,0.0,0.0,0.239757114507672,72.7152085445016,8870.57394688368,1.0755343528248798e-07,0.0,9.78691080445776,0.0,0.0,-0.0005470161894372125,0.0,0.0,0.0,-72.7152085445016,304.40495441031123,0.4746686696689039,31427.663110234258,230.57174621555555,1.0833289898969043e-15,0.6640299655329515,-2.376114223690276,0.0,0.0,0.0,0.247991255234,1352.4983338515592,75.4897013959302
7.6,6387000.2544321595,0.711200625796056,0.0,0.0,0.2453906520103992,73.6740149333112,8863.254482030641,1.113512756323224e-07,0.0,9.78693326242656,0.0,0.0,-0.0005543121024242023,0.0,0.0,0.0,-73.67401493331121,304.436136355872,0.47509842793078483,31463.173062132588,230.61919261333335,1.0963038483512953e-15,0.6718245089698769,-2.438885891633846,0.0,0.0,0.0,0.250976963657,1386.799648705616,76.40639098889305
7.7,6386992.83910536,0.7360233113997601,0.0,0.0,0.25109119733704804,74.6323904041104,8855.8391580348,1.1523784822357503e-07,0.0,9.78695601471024,0.0,0.0,-0.0005616081041431919,0.0,0.0,0.0,-74.63239040411041,304.4677266749112,0.4755338145086771,31499.14806900135,230.66726039111114,1.1092772795982292e-15,0.6796121998680253,-2.502561640634858,0.0,0.0,0.0,0.253963436637,1421.5964452568403,77.32360327650879
7.8,6386985.32797992,0.7614193587279601,0.0,0.0,0.2568586855771056,75.5903287810416,8848.32801829968,1.192142019481627e-07,0.0,9.78697906118688,0.0,0.0,-0.000568904195644182,0.0,0.0,0.0,-75.5903287810416,304.4997251824152,0.47597482685403253,31535.58792031106,230.71594926833333,1.1222484604898482e-15,0.6873924440339535,-2.5671443636031364,0.0,0.0,0.0,0.256950531521,1456.8902605860344,78.24129850408842
7.9,6386977.72105584,0.7873954572140641,0.0,0.0,0.26269304754645845,76.547823867216,8840.72110680792,1.2328138465516807e-07,0.0,9.787002401734561,0.0,0.0,-0.000576200377973171,0.0,0.0,0.0,-76.547823867216,304.53213169093203,0.4764214623827417,31572.492402563632,230.7652589588889,1.1352165849505684e-15,0.6951646575718511,-2.632636974622039,0.0,0.0,0.0,0.259938110739,1492.6826461763821,79.15943844689937
8.0,6386970.01842456,0.8139582891256321,0.0,0.0,0.2685942098553624,77.5048694465424,8833.018468243201,1.2744044308626229e-07,0.0,9.787026036231362,0.0,0.0,-0.0005834966521781611,0.0,0.0,0.0,-77.5048694465424,304.56494601026645,0.47687371847307247,31609.86129905302,230.81518917333335,1.1481808626915446e-15,0.7029282660695161,-2.6990424088950817,0.0,0.0,0.0,0.262926041522,1528.9751676884118,80.07798632168127
8.1,6386962.22011656,0.8411145291498481,0.0,0.0,0.2745620949690984,78.46145928189841,8825.22014786832,1.3169242280833543e-07,0.0,9.787049964524881,0.0,0.0,-0.0005907930193051506,0.0,0.0,0.0,-78.4614592818984,304.59816794748,0.47733159246824713,31647.694390296117,230.86573961944444,1.1611405179696169e-15,0.7106827038510539,-2.766363622643626,0.0,0.0,0.0,0.265914195637,1565.7694047349596,80.99690670742132
8.2,6386954.32613184,0.8688708439820401,0.0,0.0,0.2805966212652744,79.41758711665442,8817.326191555681,1.3603836815083915e-07,0.0,9.787074186493202,0.0,0.0,-0.0005980894803971399,0.0,0.0,0.0,-79.41758711665442,304.631797307196,0.4777950816738652,31685.991453697596,230.91690999833332,1.1740947884619092e-15,0.7184274132696101,-2.8346035929912285,0.0,0.0,0.0,0.268902449135,1603.0669506513439,81.91616546973127
8.3,6386946.33659232,0.8972338919202961,0.0,0.0,0.286697703085032,80.37324667314961,8809.336645787282,1.4047932214173304e-07,0.0,9.787098701953441,0.0,0.0,-0.0006053860364971287,0.0,0.0,0.0,-80.37324667314961,304.6658338912944,0.47826418335841897,31724.752263502043,230.96870000944446,1.1870429241893607e-15,0.7261618440490334,-2.903765317785708,0.0,0.0,0.0,0.271890682121,1640.869412260751,82.83572968933954
8.4,6386938.251498001,0.9262103224600801,0.0,0.0,0.2928652507815096,81.32843165391121,8801.25155777664,1.4501632644412926e-07,0.0,9.78712351081416,0.0,0.0,-0.0006126826886481192,0.0,0.0,0.0,-81.32843165391121,304.700277498912,0.47873889475432413,31763.976591033326,231.0211093466667,1.1999841865025316e-15,0.7338854526700208,-2.9738518154479103,0.0,0.0,0.0,0.274878778536,1679.1784096444128,83.75556759572802
8.5,6386930.070940319,0.9558067758979921,0.0,0.0,0.2990991707622096,82.28313573921601,8793.07097522496,1.4965042129520595e-07,0.0,9.78714861292296,0.0,0.0,-0.0006199794378901089,0.0,0.0,0.0,-82.28313573921601,304.7351279267472,0.4792192130563738,31803.664204551005,231.07413770055555,1.2129178471385782e-15,0.7415977017740567,-3.044866124735949,0.0,0.0,0.0,0.277866625947,1717.9955758926262,84.67564850488436
8.6,6386921.7948888,0.986029882944672,0.0,0.0,0.305399365529232,83.2373525901384,8784.79494659544,1.543826454444226e-07,0.0,9.78717400812744,0.0,0.0,-0.0006272762852610979,0.0,0.0,0.0,-83.2373525901384,304.7703849678408,0.47970513542276927,31843.814869202408,231.12778475722223,1.2258431873360596e-15,0.7492980596162809,-3.1168113045450387,0.0,0.0,0.0,0.28085411536,1757.3225568845055,85.59594276219859
8.7,6386913.42346536,1.016886264325512,0.0,0.0,0.31176573371188804,84.19107584580719,8776.423520899922,1.5921403609278254e-07,0.0,9.78719969624472,0.0,0.0,-0.0006345732317980875,0.0,0.0,0.0,-84.1910758458072,304.80604841462406,0.48019665897408886,31884.428347070527,231.1820501988889,1.2387594969719806e-15,0.7569859995494954,-3.189690433649494,0.0,0.0,0.0,0.283841141039,1797.1610110246406,86.51642168484553
8.8,6386904.956700481,1.0483825304088001,0.0,0.0,0.318198170107848,85.1442991237104,8767.956747820801,1.641456288319211e-07,0.0,9.78722567718336,0.0,0.0,-0.000641870278537077,0.0,0.0,0.0,-85.1442991237104,304.84211805343205,0.48069378079328867,31925.504397126133,231.23693370333334,1.2516660738055948e-15,0.7646609995526524,-3.2635066104358406,0.0,0.0,0.0,0.286827600335,1837.5126090084848,87.437057512398
8.9,6386896.394624641,1.080525280806432,0.0,0.0,0.324696565699296,86.09701602152401,8759.39467768056,1.6917845758598594e-07,0.0,9.78725195079096,0.0,0.0,-0.000649167426513066,0.0,0.0,0.0,-86.09701602152401,304.8785936706,0.48119649792570185,31967.042775227794,231.292434945,1.2645622226955174e-15,0.7723225417459987,-3.338262952604782,0.0,0.0,0.0,0.289813393525,1878.3790335590113,88.35782335846926
9.0,6386887.737329281,1.113321104005104,0.0,0.0,0.33126080768889604,87.0492201137592,8750.737361441761,1.7431355455037618e-07,0.0,9.78727851685416,0.0,0.0,-0.0006564646767570553,0.0,0.0,0.0,-87.0492201137592,304.915475052768,0.48170480737955435,32009.043234265486,231.3485535927778,1.2774472549235956e-15,0.7799701119818386,-3.4139625968998577,0.0,0.0,0.0,0.29279842367,1919.7619792016778,89.27869316389848
9.1,6386878.9848144,1.146776576991408,0.0,0.0,0.337890779521128,88.00090495481041,8741.98485067656,1.7955195013362273e-07,0.0,9.787305375281521,0.0,0.0,-0.0006637620302990459,0.0,0.0,0.0,-88.00090495481041,304.95276197438403,0.4822187061254495,32051.5055237297,231.40528931222224,1.290320487509883e-15,0.7876031994308504,-3.490608698756035,0.0,0.0,0.0,0.295782596465,1961.663151981932,90.19964165456638
9.2,6386870.13714096,1.180898264867784,0.0,0.0,0.344586360900576,88.9520640765168,8733.13719768864,1.8489467290136348e-07,0.0,9.78733252585968,0.0,0.0,-0.0006710594881680349,0.0,0.0,0.0,-88.95206407651682,304.99045421599203,0.48273819109482186,32094.429390285975,231.4626417655556,1.3031812426121285e-15,0.7952212961906417,-3.5682044319794364,0.0,0.0,0.0,0.298765820113,2004.0842692305991,91.12064430178307
9.3,6386861.1944004,1.215692720477616,0.0,0.0,0.35134742781021605,89.9026909893816,8724.19445529984,1.903427495093225e-07,0.0,9.787359968497201,0.0,0.0,-0.0006783570513920247,0.0,0.0,0.0,-89.9026909893816,305.028551548992,0.483263259182514,32137.81457724826,231.52061060833336,1.3160288468941296e-15,0.8028238969298923,-3.646752988409275,0.0,0.0,0.0,0.301748005197,2047.0270592813872,92.04167728267578
9.4,6386852.1566232005,1.251166484051664,0.0,0.0,0.358173852523608,90.8527791813528,8715.15667715496,1.9589720465775684e-07,0.0,9.787387702980721,0.0,0.0,-0.0006856547209930138,0.0,0.0,0.0,-90.8527791813528,305.06705375088,0.48379390724419974,32181.66082481826,231.57919549500002,1.3288626310008424e-15,0.8104104985413929,-3.726257577530859,0.0,0.0,0.0,0.304729064565,2090.493261226699,92.96271744623559
9.5,6386843.02387032,1.287326082811824,0.0,0.0,0.365065503626232,91.80232211904242,8706.023917356,2.0155906102583244e-07,0.0,9.78741572915784,0.0,0.0,-0.0006929524979970029,0.0,0.0,0.0,-91.8023221190424,305.10596058696,0.48433013209844566,32225.967870085464,231.63839607333333,1.3416819290068022e-15,0.8179805998262211,-3.8067214261197337,0.0,0.0,0.0,0.307708913218,2134.484624644714,93.88374227833533
9.6,6386833.796172241,1.3241780306267041,0.0,0.0,0.372022246024632,92.7513132465072,8696.796230797441,2.0732933921228266e-07,0.0,9.78744404687616,0.0,0.0,-0.0007002503834209935,0.0,0.0,0.0,-92.75131324650721,305.145271825584,0.4848719305236187,32270.735446931412,231.69821198833336,1.354486077909025e-15,0.8255337011823664,-3.888147777841342,0.0,0.0,0.0,0.310687468203,2179.0029093360467,94.8047298698339
9.7,6386824.473620401,1.36172882762148,0.0,0.0,0.379043940943368,93.6997459855536,8687.473673013841,2.1320905768479388e-07,0.0,9.7874726559528,0.0,0.0,-0.0007075483782869823,0.0,0.0,0.0,-93.6997459855536,305.18498722596,0.4854192992609787,32315.96328602963,231.75864287944444,1.3672744171777383e-15,0.8330693043066986,-3.9705398928595805,0.0,0.0,0.0,0.31366464852,2224.0498850412528,95.72565888725308
9.8,6386815.05624528,1.3999849598304241,0.0,0.0,0.3861304459494,94.64761373573761,8678.056300149361,2.1919923271542827e-07,0.0,9.787501556265841,0.0,0.0,-0.0007148464836079723,0.0,0.0,0.0,-94.64761373573761,305.22510655339204,0.48597223501210124,32361.65111494145,231.81968838333336,1.3800462882715254e-15,0.8405869119325233,-4.053901047418667,0.0,0.0,0.0,0.316640375025,2269.6273311822783,96.64650854448305
9.9,6386805.544138321,1.4389528988159042,0.0,0.0,0.393281614945992,95.59490987345039,8668.54416901872,2.253008783300093e-07,0.0,9.787530747571441,0.0,0.0,-0.0007221447004009618,0.0,0.0,0.0,-95.59490987345042,305.26562956404,0.4865307344414545,32407.79865787659,231.88134813111114,1.3928010342325355e-15,0.8480860275715852,-4.138234533416113,0.0,0.0,0.0,0.319614570344,2315.7370365751735,97.56725857551685
10.0,6386795.937299521,1.4786391013117681,0.0,0.0,0.40049729817576,96.5416277537472,8658.9373371072,2.3151500624528977e-07,0.0,9.787560229747681,0.0,0.0,-0.0007294430296749517,0.0,0.0,0.0,-96.5416277537472,305.30655601406403,0.4870947941717612,32454.405635980405,231.94362175,1.4055379992639041e-15,0.8555661552560704,-4.223543657993483,0.0,0.0,0.0,0.322587158788,2362.38079915718,98.48788920821382
10.1,6386786.23582032,1.5190500088484402,0.0,0.0,0.407777342235912,97.48776070760401,8649.2358626316,2.3784262581484674e-07,0.0,9.78759000261168,0.0,0.0,-0.0007367414724419415,0.0,0.0,0.0,-97.48776070760401,305.347885656576,0.4876644107896673,32501.471767046663,232.0065088638889,1.4182565283516542e-15,0.8630267993117479,-4.309831743055989,0.0,0.0,0.0,0.325558066276,2409.5604256946585,99.40838114269283
10.2,6386776.439761681,1.560192047396304,0.0,0.0,0.415121590056912,98.4333020440512,8639.439804387841,2.442847439732308e-07,0.0,9.78762006598056,0.0,0.0,-0.0007440400297059303,0.0,0.0,0.0,-98.4333020440512,305.389618235544,0.48823958084007335,32548.996765756892,232.07000909055554,1.4309559668954926e-15,0.8704674641400064,-4.39710212485436,0.0,0.0,0.0,0.328527220262,2457.2777315149597,100.32871552663907
10.3,6386766.54918456,1.602071626996896,0.0,0.0,0.42252988091772004,99.3782450489544,8629.5492218424,2.5084236517138927e-07,0.0,9.78765041967144,0.0,0.0,-0.0007513387024739203,0.0,0.0,0.0,-99.3782450489544,305.43175350408,0.48882030083025696,32596.98034334525,232.13412204444447,1.4436356603707458e-15,0.8778876540087881,-4.485358153491086,0.0,0.0,0.0,0.331494549664,2505.534540214355,101.24887393421179
10.4,6386756.5641194405,1.6446951413880002,0.0,0.0,0.430002050439696,100.3225829850144,8619.564175193282,2.575164913312871e-07,0.0,9.78768106353192,0.0,0.0,-0.0007586374917469088,0.0,0.0,0.0,-100.3225829850144,305.47429120005603,0.4894065672272964,32645.422207981566,232.19884733555557,1.4562949539769515e-15,0.8852868728479703,-4.574603192515629,0.0,0.0,0.0,0.334459984794,2554.3326833563915,102.16883834752431
10.5,6386746.48468824,1.6880689676470322,0.0,0.0,0.43753793057745605,101.266309092072,8609.484725309041,2.6430812177958475e-07,0.0,9.787711997318162,0.0,0.0,-0.0007659363985238996,0.0,0.0,0.0,-101.266309092072,305.51723107048804,0.48999837645858574,32694.322064484037,232.26418456944447,1.4689331923309292e-15,0.8926646240580918,-4.664840618350607,0.0,0.0,0.0,0.337423457302,2603.6740001893977,103.08859113400857
10.6,6386736.3108909605,1.7321994658313762,0.0,0.0,0.44513734962192,102.2094165868032,8599.31093366784,2.712182531917876e-07,0.0,9.787743220908242,0.0,0.0,-0.000773235423801889,0.0,0.0,0.0,-102.20941658680321,305.560572847152,0.49059572491235015,32743.679614367134,232.33013334777777,1.4815497191687519e-15,0.9000204103457686,-4.756073819784694,0.0,0.0,0.0,0.34038490011,2653.5603373592016,104.00811503149612
10.7,6386726.042819041,1.777092978585192,0.0,0.0,0.45280013217897597,103.1518986621096,8589.04286247936,2.7824787953465003e-07,0.0,9.787774734088801,0.0,0.0,-0.0007805345685748772,0.0,0.0,0.0,-103.15189866210962,305.60431626792,0.4911986089355846,32793.49455584158,232.39669326666666,1.4941438770610568e-15,0.9073537335368695,-4.848306197750207,0.0,0.0,0.0,0.343344247361,2703.993548583546,104.9273931291838
10.8,6386715.680533441,1.822755830801088,0.0,0.0,0.46052609918167203,104.0937484883376,8578.68057465432,2.8539799201556076e-07,0.0,9.787806536676962,0.0,0.0,-0.0007878338338348675,0.0,0.0,0.0,-104.0937484883376,305.648461064568,0.49180702483714595,32843.76658391012,232.46386391944444,1.506715007132811e-15,0.9146640944386202,-4.941541164388983,0.0,0.0,0.0,0.34630143436,2754.975494398322,105.8464088511715
10.9,6386705.22409512,1.8691943292299762,0.0,0.0,0.468315067871928,105.03495921175441,8568.22413374352,2.926695790162206e-07,0.0,9.78783862848984,0.0,0.0,-0.0007951332205678572,0.0,0.0,0.0,-105.03495921175441,305.693006968872,0.49242096888414555,32894.49539003237,232.5316448927778,1.5192624488142075e-15,0.921950992652778,-5.035782142829966,0.0,0.0,0.0,0.349256397529,2806.5080418032567,106.76514594257212
11.0,6386694.67356504,1.9164147621214083,0.0,0.0,0.47616685178224805,105.9755239554624,8557.6736039988,3.000636260350463e-07,0.0,9.7878710092836,0.0,0.0,-0.000802432729761846,0.0,0.0,0.0,-105.9755239554624,305.73795370346403,0.4930404373040103,32945.68066265149,232.60003577166668,1.5317855395737743e-15,0.9292139264644272,-5.131032566744385,0.0,0.0,0.0,0.352209074354,2858.593063998569,107.68358845253503
11.1,6386684.02900416,1.9644233988517201,0.0,0.0,0.484081260738768,106.9154358187896,8547.029050373041,3.075811156348109e-07,0.0,9.78790367893632,0.0,0.0,-0.0008097323623978363,0.0,0.0,0.0,-106.9154358187896,305.783300994024,0.49366542628345245,32997.32208657173,232.66903613333335,1.5442836147048594e-15,0.9364523926818422,-5.22729587945611,0.0,0.0,0.0,0.35515940334,2911.232440040236,108.60172072138485
11.2,6386673.29050392,2.013226489539984,0.0,0.0,0.49205810084601603,107.8546878775944,8536.2905384592,3.1522302738330227e-07,0.0,9.787936637204162,0.0,0.0,-0.0008170321194568253,0.0,0.0,0.0,-107.8546878775944,305.829048557088,0.49429593196898447,33049.41934348513,232.73864555388892,1.5567560070854258e-15,0.9436658865163856,-5.324575533763725,0.0,0.0,0.0,0.358107323973,2964.4280545718584,109.519527367246
11.3,6386662.4580948,2.062830264700536,0.0,0.0,0.500097174471672,108.7932731839608,8525.45813464272,3.2299033779223713e-07,0.0,9.78796988393472,0.0,0.0,-0.000824332001913815,0.0,0.0,0.0,-108.79327318396082,305.875196115288,0.49493195046640415,33101.972111492716,232.80886360277776,1.569202046968986e-15,0.9508539014446141,-5.422874991317772,0.0,0.0,0.0,0.361052776672,3018.181797470351,110.43699327318151
11.4,6386651.531868241,2.11324093484064,0.0,0.0,0.5081982802282801,109.73118476619841,8514.53190591864,3.3088402025617387e-07,0.0,9.788003418853682,0.0,0.0,-0.0008316320107428039,0.0,0.0,0.0,-109.73118476619841,305.921743382112,0.4955734778402787,33154.98006553539,232.87968984555556,1.581621061771087e-15,0.9580159291059687,-5.522197721864557,0.0,0.0,0.0,0.363995702752,3072.495563558659,111.35410357536091
11.5,6386640.5118852,2.164464690103872,0.0,0.0,0.516361212973248,110.66841562884241,8503.511920013521,3.3890504500538886e-07,0.0,9.78803724180864,0.0,0.0,-0.0008389321469147936,0.0,0.0,0.0,-110.66841562884241,305.968690064952,0.4962205101144606,33208.442876963076,232.95112384277778,1.5940123758824853e-15,0.9651514591871208,-5.6225472029792565,0.0,0.0,0.0,0.366936044389,3127.3712522705946,112.27084365174238
11.6,6386629.398206641,2.216507699883024,0.0,0.0,0.524585763778368,111.6049587526536,8492.39824535496,3.4705437902908227e-07,0.0,9.78807135258624,0.0,0.0,-0.0008462324113947837,0.0,0.0,0.0,-111.6049587526536,306.016035874248,0.49687304327157195,33262.36021391769,233.02316515166666,1.6063753104734251e-15,0.9722599793107674,-5.723926919398684,0.0,0.0,0.0,0.369873744582,3182.8107673444083,113.18719911126948
11.7,6386618.190893521,2.269376112442152,0.0,0.0,0.532871719929816,112.54080709461842,8481.19095104112,3.5533298603523527e-07,0.0,9.788105750973122,0.0,0.0,-0.000853532805148772,0.0,0.0,0.0,-112.5408070946184,306.06378052044,0.4975310732530045,33316.73174099801,233.09581332388888,1.618709183320157e-15,0.9793409749288728,-5.82634036239854,0.0,0.0,0.0,0.372808747121,3238.8160164876235,114.10315578152442
11.8,6386606.89006776,2.323076054541672,0.0,0.0,0.541218864897672,113.47595358703441,8469.89010693216,3.6374182637730607e-07,0.0,9.788140436755919,0.0,0.0,-0.000860833329135763,0.0,0.0,0.0,-113.47595358703441,306.11192369872805,0.4981945959578891,33371.55711940334,233.16906790666667,1.631013308631458e-15,0.9863939292381539,-5.929791029170657,0.0,0.0,0.0,0.375740996555,3295.3889110610244,115.01869970204041
11.9,6386595.49572936,2.3776136310512643,0.0,0.0,0.5496269783237281,114.4103911390344,8458.495783558801,3.722818569983796e-07,0.0,9.78817540975176,0.0,0.0,-0.000868133984312752,0.0,0.0,0.0,-114.4103911390344,306.160465113456,0.49886360724567225,33426.83600698133,233.24292844277778,1.6432869968795992e-15,0.9934183230866656,-6.03428242255611,0.0,0.0,0.0,0.378670438159,3352.5313657435017,115.93381711298375
12.0,6386584.008000241,2.4329949245658242,0.0,0.0,0.558095836012344,115.3441126353672,8447.00805218328,3.8095403137531685e-07,0.0,9.788210669686322,0.0,0.0,-0.000875434771633741,0.0,0.0,0.0,-115.34411263536721,306.20940445677604,0.4995381029319934,33482.56805798864,233.31739447055554,1.6555295546580027e-15,1.0004136348803894,-6.13981805006661,0.0,0.0,0.0,0.381597017909,3410.245298206458,116.8484944464084
12.1,6386572.42694136,2.4892259950244644,0.0,0.0,0.566625209899968,116.2771109363976,8435.4269847384,3.897592994524325e-07,0.0,9.7882462164072,0.0,0.0,-0.0008827356920487305,0.0,0.0,0.0,-116.2771109363976,306.258741426936,0.5002180787922924,33538.75292337819,233.39246552333336,1.66774028450776e-15,1.007379340512062,-6.246401423617601,0.0,0.0,0.0,0.384520682451,3468.5326287786534,117.76271831853926
12.2,6386560.7526136795,2.54631287931732,0.0,0.0,0.5752148680429441,117.2093788796304,8423.75265394944,3.9869860758389885e-07,0.0,9.78828204967056,0.0,0.0,-0.0008900367465037202,0.0,0.0,0.0,-117.20937887963042,306.308475709992,0.5009035305592324,33595.39025051186,233.46814113000002,1.679918484797531e-15,1.0143149132633134,-6.354036058638627,0.0,0.0,0.0,0.387441379077,3527.395280125402,118.67647552051217
12.3,6386548.98507816,2.604261590904552,0.0,0.0,0.583864574599224,118.1409092766624,8411.98513315128,4.0777289847615013e-07,0.0,9.78831816926304,0.0,0.0,-0.0008973379359417099,0.0,0.0,0.0,-118.1409092766624,306.358606998096,0.501594453923216,33652.47968330417,233.54442081444446,1.6920634495723042e-15,1.021219823764634,-6.462725473717469,0.0,0.0,0.0,0.390359055698,3586.8351768751113,119.58975301014286
12.4,6386537.12445672,2.663078119407912,0.0,0.0,0.5925740898039841,119.07169491653521,8400.124496501761,4.1698311111632386e-07,0.0,9.7883545749408,0.0,0.0,-0.0009046392613006987,0.0,0.0,0.0,-119.07169491653521,306.409134971208,0.5022908445328998,33710.020862222256,233.62130409722224,1.7041744684288467e-15,1.0280935398886168,-6.5724731900218725,0.0,0.0,0.0,0.393273660824,3646.8542453176324,120.5025379072969
12.5,6386525.17077984,2.722768430241936,0.0,0.0,0.601343169951336,120.00172856299201,8388.17081882928,4.2633018072164655e-07,0.0,9.78839126649048,0.0,0.0,-0.0009119407235166894,0.0,0.0,0.0,-120.00172856299201,306.460059312336,0.5029926979941639,33768.01342423799,233.69879049222223,1.7162508263867055e-15,1.0349355267188194,-6.683282730320949,0.0,0.0,0.0,0.396185143534,3707.4544130547356,121.41481748411526
12.6,6386513.12413896,2.7833384642024646,0.0,0.0,0.6101715674034721,120.93100295661121,8376.124175693762,4.358150386766014e-07,0.0,9.78842824366824,0.0,0.0,-0.0009192423235216789,0.0,0.0,0.0,-120.93100295661121,306.51137970144003,0.5037000098701121,33826.45700268435,233.77687951000001,1.7282918330463e-15,1.0417452645606142,-6.79515762152065,0.0,0.0,0.0,0.399093453618,3768.6376115569146,122.32657920616992
12.7,6386500.98459504,2.844794137079544,0.0,0.0,0.6190590307644,121.85951081297762,8363.98464335616,4.4543861246486104e-07,0.0,9.788465506291201,0.0,0.0,-0.0009265440622416674,0.0,0.0,0.0,-121.85951081297762,306.563095809336,0.5044127756821024,33885.351227494815,233.85557065611113,1.740296782341413e-15,1.0485222240845256,-6.908101389904181,0.0,0.0,0.0,0.401998541327,3830.4057717296787,123.23781065889824
12.8,6386488.752239521,2.9071413392825285,0.0,0.0,0.628005304441032,122.7872448242064,8351.752298900401,4.552018256134364e-07,0.0,9.788503054085039,0.0,0.0,-0.0009338459406016569,0.0,0.0,0.0,-122.78724482420641,306.61520730988804,0.5051309909076858,33944.69572501185,233.9348634311111,1.75226489904043e-15,1.0552658332359088,-7.022117556105503,0.0,0.0,0.0,0.404900357089,3892.760818383379,124.14849945963316
12.9,6386476.42716384,2.9703859353950643,0.0,0.0,0.6370101287651041,123.7141976574192,8339.427220020001,4.6510559762809995e-07,0.0,9.788540886836401,0.0,0.0,-0.0009411479595206468,0.0,0.0,0.0,-123.7141976574192,306.667713873912,0.5058546509816365,34004.49011798689,234.0147573316667,1.7641954487286173e-15,1.0619755452927417,-7.137209644317153,0.0,0.0,0.0,0.407798852074,3955.704680867415,125.05863342839852
13.0,6386464.00942896,3.034533763791048,0.0,0.0,0.6460732400297521,124.64036195626801,8327.009485231441,4.7515084392706316e-07,0.0,9.78857900430144,0.0,0.0,-0.0009484501199136364,0.0,0.0,0.0,-124.64036195626801,306.72061516308,0.5065837512954375,34064.734025723985,234.09525184777777,1.7760876918579943e-15,1.068650810441488,-7.253381177397207,0.0,0.0,0.0,0.410693977924,4019.2392880906878,125.96820050817031
13.1,6386451.49912632,3.099590636214,0.0,0.0,0.655194370452936,125.5657303403256,8314.49917372176,4.853384757798897e-07,0.0,9.788617406236321,0.0,0.0,-0.0009557524226916266,0.0,0.0,0.0,-125.56573034032562,306.773910842112,0.5073182871983101,34125.427063840434,234.17634646722223,1.7879408836672635e-15,1.0752910757504082,-7.370635676424448,0.0,0.0,0.0,0.41358568674,4083.366568176863,126.87718875818884
13.2,6386438.89631688,3.1655623374021604,0.0,0.0,0.664373248159152,126.49029540478081,8301.89636550096,4.95669400241173e-07,0.0,9.7886560923972,0.0,0.0,-0.0009630548687636147,0.0,0.0,0.0,-126.49029540478081,306.827600569632,0.5080582539951531,34186.568844410365,234.25804067055557,1.799754274079504e-15,1.0818957851117321,-7.488976659764244,0.0,0.0,0.0,0.416473931064,4148.088448086115,127.78558635138651
13.3,6386426.20109208,3.23245462462824,0.0,0.0,0.6736095971611441,127.4140497201336,8289.20114121912,5.061445200894501e-07,0.0,9.78869506257072,0.0,0.0,-0.0009703574590296057,0.0,0.0,0.0,-127.4140497201336,306.881684004264,0.5088036469470587,34248.158975916915,234.34033393555555,1.8115271076043077e-15,1.0884643792016258,-7.608407642712692,0.0,0.0,0.0,0.419358663865,4213.406853275178,128.69338156512796
13.4,6386413.41354336,3.30027322733976,0.0,0.0,0.682903137338568,128.336985834024,8276.41358237976,5.167647337591335e-07,0.0,9.788734316513041,0.0,0.0,-0.0009776601943905943,0.0,0.0,0.0,-128.336985834024,306.93616079548804,0.5095544612723418,34310.19706320429,234.4232257338889,1.8232586232755073e-15,1.0949962954579497,-7.728932136740416,0.0,0.0,0.0,0.422239838519,4279.323707338245,129.6005627817243
13.5,6386400.533731679,3.36902384663784,0.0,0.0,0.692253584404464,129.2590962690984,8263.53377112648,5.275309352794243e-07,0.0,9.78877385391936,0.0,0.0,-0.0009849630757385837,0.0,0.0,0.0,-129.25909626909842,306.991030595832,0.5103106921449955,34372.68270757358,234.50671553222224,1.8349480545622085e-15,1.1014909680268805,-7.850553648736374,0.0,0.0,0.0,0.425117408802,4345.840931619136,130.50711847917327
13.6,6386387.56174848,3.4387121550333597,0.0,0.0,0.701660649886968,130.1803735242288,8250.56179042584,5.384440142062454e-07,0.0,9.788813674606802,0.0,0.0,-0.000992266103963573,0.0,0.0,0.0,-130.1803735242288,307.046293051728,0.511072334695205,34435.61550654333,234.5908027938889,1.8465946292798286e-15,1.1079478277362211,-7.9732756804740665,0.0,0.0,0.0,0.427991328872,4412.960444871351,131.41303723064473
13.7,6386374.4976852,3.5093437958678404,0.0,0.0,0.711124041107976,131.10081007420803,8237.497723975921,5.495048555541722e-07,0.0,9.788853778301041,0.0,0.0,-0.0009995692799515629,0.0,0.0,0.0,-131.100810074208,307.101947803512,0.5118393840083182,34498.99505413682,234.6754869761111,1.8581975695367163e-15,1.1143663020731607,-8.09710172794431,0.0,0.0,0.0,0.430861553255,4480.684162884598,132.31830769779296
13.8,6386361.3416028,3.58092438300864,0.0,0.0,0.7206434611526641,132.0203983703592,8224.3416562368,5.607143397388381e-07,0.0,9.788894164727761,0.0,0.0,-0.001006872604578553,0.0,0.0,0.0,-132.0203983703592,307.157994497616,0.5126118351263906,34562.82094064268,234.76076753055557,1.8697560916540837e-15,1.120745815153136,-8.22203528055455,0.0,0.0,0.0,0.433728036838,4549.013998096971,133.22291862766986
13.9,6386348.0936232,3.6534595003003205,0.0,0.0,0.730218608854248,132.9391308396216,8211.093672369601,5.720733425001392e-07,0.0,9.788934833643122,0.0,0.0,-0.0010141760787285427,0.0,0.0,0.0,-132.9391308396216,307.214432762184,0.5133896830471557,34627.09275271063,234.84664390611113,1.881269406103732e-15,1.1270857876931422,-8.348079820639558,0.0,0.0,0.0,0.436590734849,4617.9518592502045,134.1268588496384
14.0,6386334.753807359,3.7269547012598405,0.0,0.0,0.739849178760456,133.8569998854648,8197.753858358401,5.835827348446387e-07,0.0,9.7889757847728,0.0,0.0,-0.001021479703268531,0.0,0.0,0.0,-133.8569998854648,307.27126224060004,0.5141729227229931,34691.810073255736,234.933115545,1.8927367174457748e-15,1.1333856369850446,-8.47523882266076,0.0,0.0,0.0,0.439449602854,4687.49965100185,135.03011727074266
14.1,6386321.32224672,3.8014155085888803,0.0,0.0,0.7495348611213359,134.7739978866696,8184.322300949281,5.952433829705176e-07,0.0,9.78901701790344,0.0,0.0,-0.0010287834790685207,0.0,0.0,0.0,-134.7739978866696,307.328482554912,0.5149615490619602,34756.97248164992,235.02018188444444,1.904157224261917e-15,1.1396447768822322,-8.60351575258347,0.0,0.0,0.0,0.442304596741,4757.659273551805,135.93268287416436
14.2,6386307.799032721,3.8768474137471203,0.0,0.0,0.7592753418404881,135.6901171994616,8170.79908758936,6.070561482047434e-07,0.0,9.78905853273024,0.0,0.0,-0.0010360874069785101,0.0,0.0,0.0,-135.6901171994616,307.38609333936,0.5157555569267608,34822.57955333893,235.10784235888892,1.9155301191109713e-15,1.1458626177862747,-8.732914067120705,0.0,0.0,0.0,0.445155672712,4828.432622254485,136.83454471202072
14.3,6386294.1842568,3.9532558764645604,0.0,0.0,0.769070302484208,136.6053501556824,8157.1843065792,6.190218869367464e-07,0.0,9.78910032900936,0.0,0.0,-0.0010433914878685002,0.0,0.0,0.0,-136.6053501556824,307.44409421294404,0.5165549411383534,34888.63086022538,235.196096395,1.926854588457686e-15,1.1520385666113366,-8.863437213154915,0.0,0.0,0.0,0.448002787272,4899.821587326755,137.73569190690782
14.4,6386280.4780104,4.030646324467201,0.0,0.0,0.7789194202235761,137.519689063704,8143.478046889921,6.311414505433722e-07,0.0,9.789142406436001,0.0,0.0,-0.0010506957225784905,0.0,0.0,0.0,-137.519689063704,307.50248480076004,0.517359696463066,34955.125970429304,235.28494341611113,1.938129812650505e-15,1.1581720267975197,-8.995088627026263,0.0,0.0,0.0,0.450845897217,4971.828053230271,138.6361136457272
14.5,6386266.680354481,4.10902415280648,0.0,0.0,0.788822367834456,138.4331262087336,8129.6803983156005,6.434156853243026e-07,0.0,9.7891847647968,0.0,0.0,-0.0010580001119584786,0.0,0.0,0.0,-138.43312620873363,307.561264715712,0.5181698176388808,35022.06444833613,235.37438284,1.9493549658370523e-15,1.1642623982663838,-9.12787173368746,0.0,0.0,0.0,0.453684959633,5044.453898642755,139.53579917814264
