time,eiPosition_m_X,eiPosition_m_Y,eiPosition_m_Z,gePosition_m_X,gePosition_m_Y,gePosition_m_Z,eiVelocity_m_s_X,eiVelocity_m_s_Y,eiVelocity_m_s_Z,feVelocity_m_s_X,feVelocity_m_s_Y,feVelocity_m_s_Z,altitudeMsl_m,longitude_rad,latitude_rad,localGravity_m_s2,eulerAngle_rad_Yaw,eulerAngle_rad_Pitch,eulerAngle_rad_Roll,bodyAngularRateWrtEi_rad_s_Roll,bodyAngularRateWrtEi_rad_s_Pitch,bodyAngularRateWrtEi_rad_s_Yaw,altitudeRateWrtMsl_m_s,speedOfSound_m_s,airDensity_kg_m3,ambientPressure_Pa,ambientTemperature_K,aero_bodyForce_N_X,aero_bodyForce_N_Y,aero_bodyForce_N_Z,aero_bodyMoment_Nm_L,aero_bodyMoment_Nm_M,aero_bodyMoment_Nm_N,mach,dynamicPressure_Pa,trueAirspeed_m_s,feVelocity_m_s_Z_1
0.0,6387281.000000001,0.0,0.0,6387281.000000001,0.0,0.0,0.0,465.76787589315,0.0,0.0,0.0,0.0,9144.0,0.0,0.0,9.786072158144812,0.0,-0.0,0.0,0.0,0.0,1.1726615295546747e-20,-0.0,303.22990953514415,0.4590410846190738,30148.630867738,228.7993739345824,5.835232334292306e-17,0.19059315186566514,-0.0,-0.0,0.0,-0.0,0.0703624486923217,104.48346565623957,21.33598126792908,0.0
0.0099999997764825,6387280.999510699,4.657679411816314,3.0161034428373246e-20,6387280.999512397,6.532407923174333e-07,3.016103442837325e-20,-0.09786043510695606,465.768006456334,6.0321977126349185e-18,6.077144402328043e-20,0.00013066997770035067,0.09752079167265498,9143.999512398042,1.0227212367317195e-13,4.722045958315556e-27,9.786072159641359,-1.0971956723519119e-42,3.009265538104856e-36,-7.292116022721238e-07,0.0,0.0,1.1726615295546747e-20,-0.097520791672655,303.22991162934085,0.4590411116037508,30148.63305645277,228.79937709489656,5.84247453531552e-17,0.19059279391694262,-0.0008710118984538945,-0.0,0.0,-0.0,0.0703627541661262,104.48435606861801,21.3360715405426,0.09752079167265498
0.0199999995529651,6387280.998042795,9.315360128899048,1.2064358881329782e-19,6387280.998049585,2.613883877046419e-06,1.2064358881329782e-19,-0.1957202614649349,465.7681369478003,1.2064281636184239e-17,1.2146639158579931e-19,0.00026148182436078047,0.19504097431052758,9143.998049586484,4.092326418462867e-13,1.8888097901147206e-26,9.786072164131005,-3.5110266442952695e-41,4.81482486096681e-35,-1.4584234092326422e-06,0.0,0.0,1.1726615295546747e-20,-0.1950409743105276,303.2299179119552,0.45904119255810333,30148.639622623345,228.79938657587596,5.848100231480663e-17,0.19059638642997284,-0.0017420622153221212,-0.0,0.0,0.0,0.0703645050525665,104.48960721854198,21.336605326431275,0.19504097431052758
0.0299999993294477,6387280.995596295,13.973042150556282,2.714466364889215e-19,6387280.99561158,5.883373182786045e-06,2.714466364889215e-19,-0.29357949099547204,465.76826737172047,1.809633681889305e-17,1.8216916095607428e-19,0.0003924397094781578,0.29256055983504003,9143.995611580092,9.21107617909444e-13,4.249799510549491e-26,9.786072171613712,-1.0533081412281256e-40,9.629649721930419e-35,-2.187635421107618e-06,0.0,0.0,1.1726615295546747e-20,-0.29256055983504003,303.2299283829236,0.45904132748133636,30148.650566185774,228.79940237742477,5.869716340950099e-17,0.1906039288878854,-0.0026132055706507493,-0.0,0.0,0.0,0.0703677237033844,104.49919627492493,21.337582625595093,0.29256055983504003
0.0399999991059303,6387280.992171207,18.630725476126077,4.825700807323277e-19,6387280.99219838,1.0463182624891942e-05,4.825700807323278e-19,-0.391438123646021,465.76839773080076,2.41283389555883e-17,2.428554501861762e-19,0.0005235463378894413,0.3900795481935222,9143.992198381135,1.638127810201554e-12,7.55517224499366e-26,9.786072182089473,2.117582368133499e-22,3.08833449044778e-28,-2.9168476381278105e-06,0.0,0.0,1.1726615295546747e-20,-0.3900795481935222,303.22994304223573,0.4590415163733605,30148.665887133728,228.79942449952839,5.866900402143373e-17,0.19061542055315628,-0.0034844964652889178,-0.0,0.0,-0.0,0.0703724026679992,104.51313465331013,21.338999513137814,0.3900795481935222
0.050000000745058,6387280.987767535,23.28841010497358,7.540132958078525e-19,6387280.9878099905,1.6354813148166158e-05,7.540132958078525e-19,-0.48929615932669585,465.76852802774675,3.0160288955146135e-17,3.0352617366433175e-19,0.0006548044135998921,0.4875979392959544,9143.98780999075,2.5605282090108483e-12,1.18049181998862e-25,9.786072195558283,-7.022056249601724e-40,3.8518598887680716e-34,-3.6460600605282086e-06,0.0,0.0,1.1726615295546747e-20,-0.4875979392959544,303.22996188988634,0.45904175923416457,30148.685585467567,228.7994529421795,5.862081658198224e-17,0.19063086044198607,-0.004355989381966718,-0.0,0.0,0.0,0.0703785344958305,104.53141093815428,21.34086187640381,0.4875979392959544
0.0599999986588954,6387280.982385283,27.946096036490953,1.0857752376463267e-18,6387280.982446423,2.3559792758260302e-05,1.0857752376463269e-18,-0.5871535979102859,465.7686582652635,3.619210281489177e-17,3.6409733651397555e-19,0.0007862166397833572,0.5851157330149829,9143.98244642256,3.688548041491758e-12,1.6999021033054022e-25,9.7860722120201,-4.235164736261367e-22,-9.265000301047844e-28,-4.37527268854804e-06,0.0,0.0,1.1726615295546747e-20,-0.585115733014983,303.22998492581604,0.45904205606305976,30148.70966113305,228.79948770528978,5.887386768670943e-17,0.19065024732497574,-0.005227738779751033,-0.0,0.0,-0.0,0.0703861266374588,104.55404796054401,21.343163828048706,0.5851157330149829
0.0700000002980232,6387280.976024464,32.603783270097445,1.4778555765016833e-18,6387280.97610768,3.20796764307147e-05,1.4778555765016835e-18,-0.6850104392322733,465.7687884460553,4.222392200418407e-17,4.2471041817712354e-19,0.0009177857188513783,0.6826329291859367,9143.976107678836,5.022430757424361e-12,2.3137475586713085e-25,9.786072231474915,-1.96617630366597e-39,7.703719777523854e-34,-5.104485522430759e-06,0.0,0.0,1.1726615295546747e-20,-0.6826329291859367,303.230012150014,0.4590424068600009,30148.738114128508,228.79952878884453,5.926594177395896e-17,0.1906735797267333,-0.006099799088509953,-0.0,0.0,-0.0,0.0703951716423034,104.58103430493601,21.345909292968752,0.6826329291859367
0.0799999982118606,6387280.968685078,37.26147180523931,1.9302534208660254e-18,6387280.968793766,4.191604621707939e-05,1.930253420866026e-18,-0.7828666830908558,465.76891857282476,4.825565807052317e-17,4.852769785207545e-19,0.0010495143520374154,0.7801495276068501,9143.96879376526,6.5624240458291935e-12,3.022026790893705e-25,9.786072253922711,-4.4941178991541224e-39,1.5407439555032345e-33,-5.833698562424046e-06,0.0,0.0,1.1726615295546747e-20,-0.7801495276068501,303.230043562455,0.459042811624769,30148.770944438536,228.799576192807,5.9440774001459e-17,0.19070085592674674,-0.006972224703386893,-0.0,0.0,-0.0,0.0704056769609451,104.61235855578695,21.349098271163943,0.7801495276068501
0.0900000035762786,6387280.960367132,41.91916164138982,2.44296866602001e-18,6387280.960504688,5.307051114962178e-05,2.44296866602001e-18,-0.880722329246971,465.76904864827367,5.4287421267699585e-17,5.459072859842939e-19,0.0011814052394662179,0.8776655280384879,9143.960504688639,8.308779820048569e-12,3.8247396366715966e-25,9.786072279363475,-1.0111766699903174e-38,3.081487911002987e-33,-6.562911808779821e-06,0.0,0.0,1.1726615295546747e-20,-0.8776655280384879,303.23007916310826,0.4590432703570964,30148.808152044145,228.7996299171331,5.84130587968547e-17,0.19073207395979797,-0.007845069979294659,-0.0,0.0,0.0,0.0704176351428031,104.64803212864017,21.352726837738036,0.8776655280384879
0.1000000014901161,6387280.951070633,46.57685277804929,3.015999744171095e-18,6387280.951240456,6.554470728030993e-05,3.0159997441710957e-18,-0.9785773774243275,465.76917867510224,6.031892680658978e-17,6.063165683733987e-19,0.0013134610794607103,0.9751809302043762,9143.951240455788,1.0261754223850239e-11,4.721883642186378e-25,9.786072307797177,-1.1235297919843167e-38,3.0814879109990953e-33,-7.292125261754227e-06,0.0,0.0,1.1726615295546747e-20,-0.9751809302043765,303.23011895194327,0.4590437830567304,30148.84973692793,228.79968996177865,5.916581169988242e-17,0.19076723161650735,-0.00871838922542056,-0.0,0.0,-0.0,0.0704310536384582,104.68805502349564,21.35679695513916,0.9751809302043762
0.1099999994039535,6387280.9407955855,51.234545214745026,3.649346570085044e-18,6387280.9410010725,7.934029761584043e-05,3.649346570085044e-18,-1.0764318273094364,465.7693086560093,6.635039910543425e-17,6.66729263135925e-19,0.0014456845693044183,1.0726957337908343,9143.941001072386,1.2421607621255737e-11,5.713458674816152e-25,9.786072339223802,-1.2358829458529214e-38,3.081487910994794e-33,-8.021338921607623e-06,0.0,0.0,1.1726615295546747e-20,-1.0726957337908343,303.23016292893396,0.4590443497234956,30148.89569907911,228.79975632670713,5.911670923859711e-17,0.1908063264439209,-0.00959223669975377,-0.0,0.0,0.0,0.0704459175467491,104.73242724035336,21.36130862336731,1.0726957337908343
0.1199999973177909,6387280.929541999,55.89223895103127,4.343008398333469e-18,6387280.929786543,9.445897206999235e-05,4.343008398333469e-18,-1.1742856785516502,465.7694385936915,7.238197458986755e-17,7.27281817389898e-19,0.0015780784039245812,1.1702099384470108,9143.929786542973,1.478860458908124e-11,6.799463568418007e-25,9.786072373643336,-2.6964722632737666e-38,6.162975821980166e-33,-8.75055278860459e-06,0.0,0.0,1.1726615295546747e-20,-1.1702099384470108,303.23021109405903,0.45904497035729386,30148.94603849352,228.79982901188885,5.91679286557582e-17,0.19084935574624856,-0.010466666603632237,-0.0,0.0,0.0,0.0704622417688369,104.78113736367006,21.366261842422485,1.1702099384470108
0.1299999952316284,6387280.917309876,60.54993398648926,5.096984872925272e-18,6387280.917596877,0.0001109024476108971,5.096984872925272e-18,-1.2721389307632012,465.769568490844,7.841327598895348e-17,7.875969839559956e-19,0.0017106452767239504,1.2677235437849266,9143.917596876634,1.7363013939994755e-11,7.979897766642992e-25,9.786072411055752,-2.9211786987552065e-38,6.162975821969923e-33,-9.479766863013944e-06,0.0,0.0,1.1726615295546747e-20,-1.2677235437849268,303.2302634472775,0.4590456449577907,30149.00075514821,228.79990801726518,5.998026773928939e-17,0.1908963165858083,-0.011341733076317207,-0.0,0.0,-0.0,0.0704800188541412,104.83419680898899,21.371656612304687,1.2677235437849266
0.1400000005960464,6387280.904099224,65.20763032072718,5.911274502738601e-18,6387280.904432076,0.00012867246806179083,5.911274502738601e-18,-1.369991583519248,465.76969835015956,8.444449214132159e-17,8.478636274913405e-19,0.0018433878787490203,1.3652365493795184,9143.904432075638,2.0145108691322184e-11,9.254758936054968e-25,9.786072451461047,-8.470329472432652e-22,-4.323671693883724e-27,-1.0208981145108693e-05,0.0,0.0,1.1726615295546747e-20,-1.3652365493795187,303.2303199885775,0.4590463735250429,30149.05984905232,228.7999933428214,5.969563097077702e-17,0.19094720578355576,-0.012217490189587288,-0.0,0.0,0.0,0.0704992488026619,104.89160557631021,21.377490970565795,1.3652365493795184
0.1500000059604644,6387280.889910044,69.86532795338009,6.785876635447799e-18,6387280.890292145,0.0001477708041443293,6.785876635447799e-18,-1.4678436363579224,465.7698281743288,9.047602719075499e-17,9.084859200745963e-19,0.0019763088992444918,1.4627489547686863,9143.8902921468,2.313516607182911e-11,1.0624046056533175e-24,9.786072494859193,1.694065894483265e-21,9.265036738355947e-27,-1.093819563516608e-05,0.0,0.0,1.1726615295546747e-20,-1.4627489547686863,303.2303807179276,0.4590471560588709,30149.123320196184,228.80008498851353,6.023510248753534e-17,0.1910020199203525,-0.013093991942367218,-0.0,0.0,-0.0,0.0705199241638183,104.95336366563367,21.383764917205816,1.4627489547686863
0.1599999964237213,6387280.874742351,74.52302688411,7.720792107176572e-18,6387280.875177096,0.0001681992534785877,7.720792107176572e-18,-1.5656950887803813,465.76995796603984,9.650700640524826e-17,9.685891602603702e-19,0.0021094110243365344,1.5602607594533453,9143.875177095795,2.6333467521721307e-11,1.2087760438376688e-24,9.786072541250176,-1.438119355811246e-37,2.4651903287737144e-32,-1.1667410333467527e-05,0.0,0.0,1.1726615295546747e-20,-1.5602607594533455,303.2304456353008,0.45904799255917206,30149.191168576745,228.8001829543048,5.867174067748353e-17,0.19106075533782185,-0.013971292255384234,-0.0,0.0,0.0,0.0705420449376106,105.01947107695942,21.39047845222473,1.5602607594533453
0.1700000017881393,6387280.858596145,79.18072711260574,8.716016724129468e-18,6387280.859086934,0.00018995964053974604,8.71601672412947e-18,-1.6635459402508626,465.77008772797836,1.0253803446486973e-16,1.0287780609384249e-18,0.002242696938003056,1.6577719628974827,9143.85908693398,2.974029868586379e-11,1.3645895517072081e-24,9.786072590633962,-7.640010163035198e-38,1.2325951643841535e-32,-1.2396625240298693e-05,0.0,0.0,1.1726615295546747e-20,-1.6577719628974825,303.23051474064573,0.45904888302554503,30149.263394167057,228.80028724012175,6.037028984098587e-17,0.19112340813961654,-0.014849444965859984,-0.0,0.0,0.0,0.0705656185746193,105.08991639474411,21.397629613174438,1.6577719628974827
0.1800000071525573,6387280.841471434,83.838428638583,9.771552510936344e-18,6387280.842021661,0.0002130538165454709,9.771552510936344e-18,-1.7613961901967432,465.7702174628271,1.0856924472728424e-16,1.0891860148526235e-18,0.0023761693214499322,1.7552825645282124,9143.842021660217,3.3355949396149697e-11,1.5298454463830212e-24,9.78607264301055,8.4703294723605855e-22,5.559021946856364e-27,-1.3125840355949403e-05,0.0,0.0,1.1726615295546747e-20,-1.7552825645282124,303.23058803396447,0.4590498274582928,30149.33999699769,228.80039784597167,5.983446702310553e-17,0.19118997419202113,-0.01572850382222874,-0.0,0.0,-0.0,0.0705906376242637,105.16471103453105,21.405222324951172,1.7552825645282124
0.1899999976158142,6387280.823368222,88.49613146178429,1.0887400707071928e-17,6387280.823981285,0.0002374836596205114,1.0887400707071931e-17,-1.8592458380086032,465.7703471732661,1.146004942927474e-16,1.1496701595912844e-18,0.0025098308529030986,1.8527925637358462,9143.82398128473,3.718071369727006e-11,1.7045439220700576e-24,9.786072698379916,-1.7077674634512373e-37,2.465190328756509e-32,-1.3855055680713709e-05,0.0,0.0,1.1726615295546747e-20,-1.8527925637358464,303.23066551521015,0.4590508258571065,30149.42097704993,228.80051477178867,5.942199960305087e-17,0.19126044912590165,-0.016608522478907595,-0.0,0.0,-0.0,0.0706170946359634,105.24385499632027,21.413250700210572,1.8527925637358462
0.2000000029802322,6387280.804286519,93.15383558197891,1.2063560618242228e-17,6387280.80496581,0.000263251074658092,1.2063560618242233e-17,-1.9570948830402897,465.7704768619722,1.2063153950543292e-16,1.2099868789108682e-18,0.0026436842074006196,1.9503019598739495,9143.804965809784,4.121488982501391e-11,1.8886848702288744e-24,9.786072756742046,-1.7976502175726215e-37,2.4651903287501186e-32,-1.4584271214889837e-05,0.0,0.0,1.1726615295546747e-20,-1.9503019598739493,303.23074718437005,0.4590518782221298,30149.506334342157,228.80063801755796,6.110662952766089e-17,0.19133482833740387,-0.017489554491092497,-0.0,0.0,-0.0,0.0706450045108795,105.32734828011174,21.421718663848875,1.9503019598739495
0.209999993443489,6387280.784226327,97.81154099896287,1.3300031910611351e-17,6387280.7849752465,0.0002903579931813056,1.3300031910611353e-17,-2.05494332460899,465.77060653161897,1.2666250518351317e-16,1.2702610328116165e-18,0.0027777320570006804,2.0478107522594198,9143.784975246737,4.545878018456814e-11,2.0822682387624043e-24,9.786072818096912,-1.8875329975430416e-37,2.4651903287434e-32,-1.5313486958780195e-05,0.0,0.0,1.1726615295546747e-20,-2.0478107522594198,303.23083304139186,0.45905298455301996,30149.596068853636,228.80076758320618,6.113334152348352e-17,0.19141310698982647,-0.018371653309605895,-0.0,0.0,-0.0,0.0706743448972702,105.41517947036216,21.43062229096985,2.0478107522594198
0.2199999988079071,6387280.763187653,102.46924771255895,1.4596812180296455e-17,6387280.764009596,0.00031880637342972696,1.4596812180296455e-17,-2.1527911619953017,465.7707361848767,1.3269340847966404e-16,1.3305098180386156e-18,0.002911977070019196,2.1453189401725528,9143.764009596724,4.991269136408107e-11,2.2852936514933077e-24,9.786072882444508,-1.977415803400277e-37,2.4651903287363544e-32,-1.604270291269138e-05,0.0,0.0,1.1726615295546747e-20,-2.1453189401725528,303.23092308626735,0.45905414485001333,30149.690180610964,228.80090346872598,6.13777052988492e-17,0.19149528001446414,-0.019254872275778136,-0.0,0.0,-0.0,0.0707051306962966,105.50735998261486,21.439963544021605,2.1453189401725528
0.2300000041723251,6387280.741170505,107.12695572261661,1.5953901979313628e-17,6387280.742068866,0.000348598200463429,1.5953901979313628e-17,-2.250638394443311,465.770865824412,1.387241786038938e-16,1.390662490905338e-18,0.0030464219117921393,2.242826522857127,9143.742068866559,5.457693415093817e-11,2.4977611950318145e-24,9.786072949784808,-8.269194540730482e-37,9.860761314915925e-32,-1.6771919076934166e-05,0.0,0.0,1.1726615295546747e-20,-2.2428265228571274,303.2310173189636,0.4590553591130471,30149.788669616853,228.8010456740734,6.075302811421049e-17,0.19158134211256547,-0.02013926461638274,-0.0,0.0,-0.0,0.0707373544573783,105.60388981686981,21.44974046055603,2.242826522857127
0.2399999946355819,6387280.718174888,111.7846650290119,1.737129842408414e-17,6387280.719153067,0.0003797354857470778,1.737129842408414e-17,-2.348485021160672,465.7709954528878,1.4475522321682827e-16,1.4511267605743836e-18,0.0031810692432202195,2.340333499520478,9143.719153067592,5.945182346666113e-11,2.7196704181161335e-24,9.786073020117787,-4.314362985857755e-37,4.930380657442559e-32,-1.750113545182232e-05,0.0,0.0,1.1726615295546747e-20,-2.340333499520478,303.23111573942793,0.45905662734182157,30149.89153585516,228.80119419917494,6.031062377153954e-17,0.19167128775687878,-0.021024883438620138,-0.0,0.0,0.0,0.0707710087299346,105.7047575575837,21.459953040573126,2.340333499520478
0.25,6387280.694200806,116.44237563164758,1.8849002951988602e-17,6387280.695262198,0.0004122202676004677,1.8849002951988605e-17,-2.4463310413186927,465.7711250729633,1.507856771965612e-16,1.5110375559024386e-18,0.003315921721877679,2.437839869333584,9143.695262198693,6.453767843743515e-11,2.951021545987475e-24,9.78607309344344,-4.494128753356747e-37,4.9303806574265005e-32,-1.823035203767678e-05,0.0,0.0,1.1726615295546747e-20,-2.437839869333584,303.2312183476614,0.4590579495367424,30149.99877936731,228.80134904403812,6.129844570264391e-17,0.19176511119272602,-0.02191178172513611,-0.0,0.0,0.0,0.0708060935139656,105.80998603584318,21.470599321624757,2.437839869333584
0.2599999904632568,6387280.669248268,121.1000875304529,2.038701420553277e-17,6387280.67039627,0.00044605461062669334,2.038701420553277e-17,-2.5441764540524177,465.77125468729355,1.5681635027971577e-16,1.5712046664966378e-18,0.0034509820009034947,2.53534563143115,9143.670396268943,6.983482230459494e-11,3.1918143663268765e-24,9.786073169761742,-4.6738945729418755e-37,4.930380657409786e-32,-1.8959568834820805e-05,0.0,0.0,1.1726615295546747e-20,-2.53534563143115,303.23132514362067,0.4590593256976655,30150.1104001505,228.80151020860424,6.00983497052758e-17,0.191862806440398,-0.02280001232911539,-0.0,0.0,0.0,0.0708426162600517,105.91955242056159,21.481681266159057,2.53534563143115
0.270000010728836,6387280.643317277,125.75780072538367,2.1985331702768815e-17,6387280.644555287,0.00048124060607608057,2.1985331702768818e-17,-2.642021258460723,465.7713842985293,1.6284702042262345e-16,1.6314061038875717e-18,0.0035862527296250577,2.632850784911706,9143.644555287428,7.53435824815889e-11,3.4420488039005755e-24,9.786073249072665,-4.8536604446938346e-37,4.930380657392417e-32,-1.9688785843580765e-05,0.0,0.0,1.1726615295546747e-20,-2.632850784911706,303.2314361272625,0.4590607558244606,30150.226398203424,228.8016776928145,5.907629893933066e-17,0.19196436729656718,-0.023689627969408208,-0.0,0.0,0.0,0.0708805620670318,106.03345671173899,21.493196911727907,2.632850784911706
0.2800000011920929,6387280.616407842,130.41551521642214,2.3643951984299394e-17,6387280.617739254,0.0005177803716729386,2.3643951984299394e-17,-2.7398654536064093,465.7715139093175,1.688771561383418e-16,1.691110438541874e-18,0.0037217365529344914,2.7303553288376925,9143.61773925528,8.106429052685445e-11,3.701724317330533e-24,9.786073331376206,-5.033426368694326e-37,4.9303806573743924e-32,-2.0418003064290016e-05,0.0,0.0,1.1726615295546747e-20,-2.7303553288376925,303.23155129857753,0.45906223991745165,30150.346773561956,228.8018514966617,6.099318265478665e-17,0.19206978733586155,-0.02458068122571951,-0.0,0.0,-0.0,0.0709199383854866,106.15172174046194,21.50514429588318,2.7303553288376925
0.2899999916553497,6387280.588519971,135.07323100357712,2.5362876663911583e-17,6387280.589948184,0.0005556760515634695,2.5362876663911595e-17,-2.837709038516292,465.7716435222998,1.7490758246638692e-16,1.7511427695881664e-18,0.003857436111011439,2.827859262235562,9143.589948183855,8.69972821356805e-11,3.970841159510945e-24,9.786073416672334,-1.0426384690052177e-36,9.860761314711423e-32,-2.1147220497281918e-05,0.0,0.0,1.1726615295546747e-20,-2.827859262235561,303.23167065751227,0.4590637779764121,30150.4715262177,228.80203162007246,6.193503563193108e-17,0.1921790599132826,-0.025473224533860524,-0.0,0.0,0.0,0.0709607377648353,106.27432467564384,21.51752341862488,2.827859262235562
0.3000000119209289,6387280.559653664,139.73094808688367,2.7142108376461682e-17,6387280.561182074,0.0005949298162811729,2.7142108376461692e-17,-2.9355520121813155,465.771773140114,1.8093883892115104e-16,1.812042673228879e-18,0.003993354039738869,2.9253625840958755,9143.56118207429,9.31428971347833e-11,4.24939974320442e-24,9.78607350496104,-1.0785916747545743e-36,9.860761314672756e-32,-2.1876438142896816e-05,0.0,0.0,1.1726615295546747e-20,-2.9253625840958755,303.23179420405694,0.459065370001696,30150.6006562097,228.8022180630396,6.178508652829166e-17,0.19229217816549296,-0.026367310181046502,-0.0,0.0,-0.0,0.0710029527544975,106.40127693282801,21.530334279953003,2.9253625840958755
0.3100000023841858,6387280.529808932,144.38866646640338,2.898164865540651e-17,6387280.531440934,0.0006355438626602532,2.898164865540651e-17,-3.0333943735566393,465.77190276539255,1.8696957810727058e-16,1.8724628181019347e-18,0.004129492970009988,3.0228652933734113,9143.531440933399,9.950147946874412e-11,4.5374003087458616e-24,9.786073596242304,1.6940658944003882e-21,1.914783403475549e-26,-2.260565600147853e-05,0.0,0.0,1.1726615295546747e-20,-3.0228652933734113,303.23192193817755,0.4590670159933567,30150.734163553003,228.80241082551902,6.194014679361718e-17,0.192409135013289,-0.027262990301266145,-0.0,0.0,0.0,0.0710465908050537,106.53256709647113,21.543574917419434,3.0228652933734113
0.3199999928474426,6387280.498985779,149.04638614222395,3.088149292476061e-17,6387280.500724768,0.0006775204138183064,3.088149292476061e-17,-3.1312361215617592,465.77203240076324,1.9299945557439142e-16,1.9320588200392705e-18,0.004265855527797653,3.120367388987269,9143.500724767988,1.0607337719729724e-10,4.834842139977487e-24,9.786073690516107,1.6940658943932937e-21,1.9765505767345383e-26,-2.333487407337613e-05,0.0,0.0,1.1726615295546747e-20,-3.1203673889872685,303.2320538598393,0.4590687159514628,30150.872048264224,228.8026099074668,5.930451149112983e-17,0.19252992316345638,-0.028160316870708833,-0.0,0.0,0.0,0.0710916444659233,106.66821799765984,21.55724729347229,3.120367388987269
0.3300000131130218,6387280.467184211,153.7041071144594,3.284163421396943e-17,6387280.469033587,0.0007208617191388549,3.284163421396945e-17,-3.229077255080607,465.77216204884894,1.9902930973279265e-16,1.991669157684344e-18,0.0044024443339463915,3.217868869820973,9143.469033587151,1.1285894249261803e-10,5.141724145853653e-24,9.786073787782426,1.694065894385973e-21,2.038327628852925e-26,-2.406409235894218e-05,0.0,0.0,1.1726615295546747e-20,-3.2178688698209736,303.2321899689981,0.45907046987597194,30151.01431035137,228.8028153088244,6.167787435111166e-17,0.19265453511092848,-0.02905934170325412,-0.0,0.0,-0.0,0.0711381062865257,106.80820680530746,21.571345520767213,3.217868869820973
0.3400000035762787,6387280.434404235,158.36182938325004,3.4862079382490194e-17,6387280.436367394,0.0007655700541329382,3.48620793824902e-17,-3.3269177729616737,465.77229171226696,2.050598237184477e-16,2.051977037545517e-18,0.004539262004380354,3.315369734722602,9143.436367394284,1.1985853161762332e-10,5.4580474005799465e-24,9.78607388804124,3.388131788756858e-21,4.200179815915189e-26,-2.4793310858530968e-05,0.0,0.0,1.1726615295546747e-20,-3.315369734722602,303.2323302656337,0.4590722777671701,30151.160949849393,228.80302702956962,6.288863710944803e-17,0.19278296314067814,-0.029960116446023064,-0.0,0.0,0.0,0.0711859837174415,106.95253351941406,21.58587352420044,3.315369734722602
0.3499999940395355,6387280.400645857,163.01955294876228,3.69428290107466e-17,6387280.402726193,0.0008116477205602405,3.69428290107466e-17,-3.424757674018111,465.77242139362954,2.1109036972907827e-16,2.11235473004387e-18,0.004676311149548866,3.4128699825048834,9143.4027261928,1.2707250494495963e-10,5.783811995317885e-24,9.786073991292545,3.3881317887413187e-21,4.3237142712033765e-26,-2.5522529572503783e-05,0.0,0.0,1.1726615295546747e-20,-3.412869982504883,303.23247474972584,0.4590741396253583,30151.311966794892,228.80324506968086,6.11048564933731e-17,0.19291519933008772,-0.030862692575003858,-0.0,0.0,0.0,0.0712352693080902,107.10122097106623,21.600829341323852,3.4128699825048834
0.3600000143051147,6387280.365909083,167.67727781118853,3.908388211224934e-17,6387280.368109994,0.0008590970460826544,3.9083882112249346e-17,-3.5225969570278637,465.7725510955432,2.171207341826957e-16,2.172588728046696e-18,0.004813594373941228,3.5103696119453267,9143.368109994053,1.3450122690275286e-10,6.119017775919914e-24,9.786074097536307,3.388131788725328e-21,4.4472586236321393e-26,-2.62517485012254e-05,0.0,0.0,1.1726615295546747e-20,-3.510369611945327,303.23262342121984,0.45907605545041236,30151.467361190294,228.8034694290846,6.311279405421403e-17,0.19305123555143916,-0.03176712139074371,-0.0,0.0,0.0,0.0712859630584716,107.25424632917735,21.616209047241213,3.5103696119453267
0.3700000047683716,6387280.330193918,172.33500397074732,4.128524265310828e-17,6387280.332518801,0.0009079203845240931,4.128524265310829e-17,-3.6204356207337822,465.772680820609,2.2315140632865607e-16,2.2331683579153066e-18,0.004951114277126475,3.607868621786342,9143.33251880258,1.4214506601529734e-10,6.463665363631785e-24,9.78607420677251,-2.6605288199475046e-36,1.9721522628730707e-31,-2.6980967645065833e-05,0.0,0.0,1.1726615295546747e-20,-3.6078686217863423,303.2327762800902,0.4590780252425994,30151.62713307014,228.80370010775167,6.380349891815993e-17,0.19319106347373297,-0.032673454014099934,-0.0,0.0,-0.0,0.0713380500674247,107.41162100929073,21.632016566848755,3.607868621786342
0.3799999952316284,6387280.293500371,176.9927314276832,4.3546907990453125e-17,6387280.295952624,0.0009581201156280216,4.354690799045313e-17,-3.718273663843753,465.77281057142216,2.2918167100326714e-16,2.293378535104277e-18,0.005088873452297775,3.7053670107353622,9143.29595262293,1.5000439486508057e-10,6.817754344998318e-24,9.78607431900114,-2.732435400428889e-36,1.9721522628632386e-31,-2.771018700439334e-05,0.0,0.0,1.1726615295546747e-20,-3.7053670107353627,303.2329333263112,0.45908004900220106,30151.791282470513,228.80393710565272,6.119520283058583e-17,0.1933346745652543,-0.0335817413820737,-0.0,0.0,0.0,0.07139153778553,107.57333359586306,21.648247975250246,3.7053670107353622
0.3899999856948852,6387280.255828447,181.65046018226653,4.586887154450937e-17,6387280.258411461,0.0010096986449880845,4.5868871544509374e-17,-3.816111085030823,465.77294035057184,2.352107506902977e-16,2.3524418246632044e-18,0.005226874487104256,3.8028647774649738,9143.258411461911,1.580795900819337e-10,7.181283690206686e-24,9.786074434222176,-2.8043420021959768e-36,1.972152262853145e-31,-2.8439406579588407e-05,0.0,0.0,1.1726615295546747e-20,-3.802864777464973,303.23309455984725,0.4590821267293884,30151.9598094189,228.80418042274397,6.26764938917799e-17,0.1934820600960083,-0.03449203424370925,-0.0,0.0,-0.0,0.0714464262127876,107.73940691998095,21.66490130999756,3.8028647774649738
0.4000000059604645,6387280.217178151,186.30819023479367,4.825113394868412e-17,6387280.219895327,0.0010626584040828529,4.8251133948684117e-17,-3.9139478829333285,465.7730701606415,2.4124125505283014e-16,2.412967973081032e-18,0.005365119962888494,3.900361920613038,9143.219895327473,1.6637103234845737e-10,7.554253498756759e-24,9.786074552435599,-2.876248625286296e-36,1.9721522628427893e-31,-2.9168626371031512e-05,0.0,0.0,1.1726615295546747e-20,-3.9003619206130384,303.2332599806577,0.4590842584242835,30152.132713939154,228.804430058974,6.465191157588324e-17,0.1936332111401184,-0.03540438315606827,-0.0,0.0,-0.0,0.0715027004480362,107.90981815055783,21.681978533538818,3.900361920613038
0.4099999964237213,6387280.177549492,190.96592158558664,5.0693701067787814e-17,6387280.180404225,0.0011170018502063605,5.0693701067787814e-17,-4.011784056155031,465.77320000420815,2.4727206509273153e-16,2.4738380677491882e-18,0.005503612455033218,3.997858438782846,9143.180404225295,1.7487910638917218e-10,7.93666468919164e-24,9.786074673641386,-2.9481552697377773e-36,1.972152262832171e-31,-2.9897846379104882e-05,0.0,0.0,1.1726615295546747e-20,-3.997858438782846,303.2334295887113,0.4590864440871494,30152.309996066946,228.80468601430627,6.5137823265619e-17,0.1937881185781866,-0.03631883848027447,-0.0,0.0,-0.0,0.0715603604912757,108.08456728759364,21.699475720977784,3.997858438782846
0.4199999868869781,6387280.136942471,195.62365423499332,5.3196574368850547e-17,6387280.139938162,0.0011727314663988837,5.3196574368850565e-17,-4.109619603265254,465.77332988384234,2.53302514586663e-16,2.53438597296249e-18,0.005642354532337444,4.095354330543224,9143.139938162185,1.8360420095966898e-10,8.328517491541494e-24,9.786074797839516,-3.020061935588741e-36,1.9721522628212907e-31,-3.0627066604199474e-05,0.0,0.0,1.1726615295546747e-20,-4.095354330543224,303.2336033839722,0.45908868371820116,30152.4916558344,228.8049482886969,6.194719248235127e-17,0.19394677309991165,-0.03723545037763704,-0.0,0.0,0.0,0.071619413793087,108.26367716217503,21.717394834762572,4.095354330543224
0.4300000071525574,6387280.095357102,200.28138818338718,5.575974714947443e-17,6387280.098497143,0.0012298497611351925,5.575974714947443e-17,-4.207454522799015,465.77345980210856,2.593318898926679e-16,2.59389813649887e-18,0.005781348757293787,4.192849594428695,9143.098497142688,1.9254670879778402e-10,8.729810856829979e-24,9.786074925029977,-3.0919686228779095e-36,1.9721522628101485e-31,-3.1356287046707986e-05,0.0,0.0,1.1726615295546747e-20,-4.192849594428696,303.23378136641367,0.4590909773177929,30152.67769328532,228.80521688211672,6.327999048701767e-17,0.1941091652065255,-0.038154268805847366,-0.0,0.0,-0.0,0.0716798454523086,108.44712494321536,21.73573194999695,4.192849594428695
0.4399999976158142,6387280.0527933845,204.9391234311674,5.838321752287738e-17,6387280.056081174,0.001288359268844112,5.83832175228774e-17,-4.305288813257174,465.77358976156455,2.653619169262455e-16,2.654100565684797e-18,0.005920597686157618,4.290344228939611,9143.056081173618,2.017070267049757e-10,9.140544490027826e-24,9.78607505521275,-3.1638753316443956e-36,1.9721522627987439e-31,-3.208550770702661e-05,0.0,0.0,1.1726615295546747e-20,-4.290344228939611,303.23396353599924,0.45909332488616883,30152.86810845489,228.80549179452177,6.296679105480866e-17,0.19427528521351578,-0.03907534351525499,-0.0,0.0,-0.0,0.0717416554689407,108.63492204625796,21.75448706668091,4.290344228939611
0.449999988079071,6387280.009251327,209.59685997875857,6.106698697917126e-17,6387280.012690259,0.0013482625492849314,6.106698697917128e-17,-4.403122473106569,465.7737197647612,2.713919064868207e-16,2.7143041538558243e-18,0.006060103867630508,4.387838232542293,9143.01269026065,2.1108555544867392e-10,9.560718624804813e-24,9.786075188387818,-9.70734618578314e-36,5.916456788361228e-31,-3.2814728585555014e-05,0.0,0.0,1.1726615295546747e-20,-4.387838232542293,303.2341498926972,0.45909572642365,30153.062901384965,228.8057730258755,6.310759667392102e-17,0.19444512325316202,-0.039998724045220514,-0.0,0.0,-0.0,0.0718048363924026,108.8270570557595,21.773660184814453,4.387838232542293
0.4600000083446502,6387279.964730937,214.25459782661082,6.381105242784444e-17,6387279.968324411,0.0014095621875473451,6.381105242784446e-17,-4.50095550078017,465.77384981424285,2.774214176432067e-16,2.7740680658102102e-18,0.006199869844661938,4.485331603669184,9142.968324410596,2.2068269976228022e-10,9.990332777691622e-24,9.786075324555155,-1.3230755255071032e-35,7.888609051100591e-31,-3.354394968269814e-05,0.0,0.0,1.1726615295546747e-20,-4.485331603669184,303.23434043647075,0.45909818193050966,30153.262072113816,228.80606057613403,6.600738421822027e-17,0.19461866927722876,-0.04092445972054502,-0.0,0.0,-0.0,0.071869395673275,109.02355280280665,21.793249341949462,4.485331603669184
0.4699999988079071,6387279.919232219,218.9123369751998,6.661541523689601e-17,6387279.922983629,0.0014722607942594466,6.661541523689601e-17,-4.598787894677218,465.7739799125467,2.834505981946277e-16,2.8335401988229904e-18,0.006339898152093063,4.582824340718994,9142.922983629138,2.304988683777197e-10,1.0429387163257216e-23,9.786075463714749,-6.759191174409657e-36,3.944304525525913e-31,-3.427317099886786e-05,0.0,0.0,1.1726615295546747e-20,-4.582824340718993,303.2345351672878,0.45910069140709764,30153.465620686344,228.80635444526075,6.255913242191485e-17,0.1947959130596237,-0.04185259964798133,-0.0,0.0,0.0,0.0719353184103965,109.2243864563127,21.81325453808594,4.582824340718994
0.4799999892711639,6387279.87275518,223.57007742502623,6.948006791018515e-17,6387279.876667926,0.001536361005656888,6.948006791018516e-17,-4.696619653163387,465.77411006220296,2.894791427273793e-16,2.8924152392968177e-18,0.006480191318805168,4.680316442056851,9142.87666792649,2.4053447403629155e-10,1.0877880608299113e-23,9.786075605866566,-6.903004764559216e-36,3.944304525501005e-31,-3.5002392534472586e-05,0.0,0.0,1.1726615295546747e-20,-4.680316442056851,303.2347340850964,0.4591032548535285,30153.673547128707,228.80665463318985,6.420805890238933e-17,0.19497684419924952,-0.04278319271282667,-0.0,0.0,-0.0,0.0720026046037674,109.42955801627771,21.833671848327636,4.680316442056851
0.4900000095367431,6387279.825299827,228.22781917661635,7.240500966133367e-17,6387279.829377303,0.0016018654825088556,7.24050096613337e-17,-4.794450774570924,465.7742402657347,2.955095236245743e-16,2.9531656724985645e-18,0.006620751865640464,4.77780790601445,9142.829377302656,2.507899333204919e-10,1.1335812990111703e-23,9.786075751010609,-7.046818398066348e-36,3.9443045254755743e-31,-3.5731614289932954e-05,0.0,0.0,1.1726615295546747e-20,-4.77780790601445,303.23493718988874,0.4591058722704954,30153.88585151435,228.80696113992153,6.40161272366848e-17,0.19516145212234529,-0.043716287575584246,-0.0,0.0,-0.0,0.0720712468028068,109.63909031378833,21.854501272674565,4.77780790601445
0.5,6387279.776866167,232.88556223052151,7.539025014494706e-17,6387279.781111769,0.0016687769112267213,7.53902501449471e-17,-4.892281257198816,465.7743705256574,3.0153881881827145e-16,3.0128695346785563e-18,0.006761582306303084,4.875298730890218,9142.781111768989,2.6126566682761725e-10,1.180318582065066e-23,9.786075899146839,-7.190632075013976e-36,3.9443045254496174e-31,-3.6460836265666084e-05,0.0,0.0,1.1726615295546747e-20,-4.8752987308902185,303.23514448160773,0.45910854365807885,30154.102533867394,228.80727396538245,6.434015236166354e-17,0.19534972608589232,-0.04465193266873077,-0.0,0.0,0.0,0.0721412524580955,109.85296051775788,21.87574281112671,4.875298730890218
0.5099999904632568,6387279.727454204,237.5433065873181,7.84357862085028e-17,6387279.731871327,0.0017370980032751352,7.84357862085028e-17,-4.990111099312936,465.7745008444795,3.075680254523153e-16,3.0725240759007295e-18,0.006902685147636323,4.972788914949454,9142.731871327756,2.719620990775396e-10,1.2279998606781372e-23,9.786076050275254,-7.334445795485795e-36,3.9443045254231377e-31,-3.719005846209785e-05,0.0,0.0,1.1726615295546747e-20,-4.972788914949455,303.2353559602351,0.4591112690168756,30154.323594254198,228.80759310955818,6.01511034310334e-17,0.1955416551798006,-0.04559017619353417,-0.0,0.0,0.0,0.0722125992178917,110.07118004372968,21.89739450123596,4.972788914949454
0.5199999809265137,6387279.677063946,242.2010522476077,8.154161168197165e-17,6387279.681655993,0.0018068314954145265,8.154161168197165e-17,-5.087940299146219,465.7746312247018,3.1359735328191936e-16,3.132339159615864e-18,0.007044062888167196,5.0702784564245205,9142.681655992592,2.8287965855068175e-10,1.2766250382953459e-23,9.786076204395808,-7.478259559566291e-36,3.9443045253961334e-31,-3.79192808796576e-05,0.0,0.0,1.1726615295546747e-20,-5.070278456424521,303.23557162570404,0.45911404834686975,30154.549032691797,228.80791857236073,6.408607344487776e-17,0.19573722833037446,-0.04653106611698523,-0.0,0.0,-0.0,0.0722853019833564,110.29374889170377,21.91945634300232,5.0702784564245205
0.5299999713897705,6387279.625695402,246.85879921201675,8.470773166774817e-17,6387279.630465763,0.0018779801487308649,8.470773166774817e-17,-5.1857688548988,465.77476166881735,3.1962700748419717e-16,3.1925200731830934e-18,0.0071857180192846926,5.167767353514958,9142.630465762353,2.9401877753611565e-10,1.3261941948449073e-23,9.78607636150851,-7.622073367340708e-36,3.9443045253686053e-31,-3.864850351877642e-05,0.0,0.0,1.1726615295546747e-20,-5.167767353514957,303.2357914780104,0.45911688164887643,30154.778849264978,228.80825035379777,6.610617292041882e-17,0.19593643430235816,-0.047474650168779,-0.0,0.0,0.0,0.0723593458533287,110.52065564613679,21.94192441152954,5.167767353514958
0.5400000214576721,6387279.573348572,251.51654748119657,8.793415178904802e-17,6387279.578300648,0.0019505467495711803,8.793415178904804e-17,-5.283596764738201,465.7748921793115,3.256568410518984e-16,3.2529199215958497e-18,0.00732765302447736,5.265255604387695,9142.578300648398,3.053798922780414e-10,1.376707418409938e-23,9.78607652161332,-3.388131788360495e-21,-6.670846325915733e-26,-3.937772637989065e-05,0.0,0.0,1.1726615295546747e-20,-5.265255604387694,303.2360155170967,0.45911976892303397,30155.013044004005,228.808588453796,6.339912634811713e-17,0.1961392617026408,-0.04842097583841369,-0.0,0.0,0.0,0.0724347308278083,110.75191172257207,21.96480066926575,5.265255604387695
0.550000011920929,6387279.520023466,256.1742970558234,9.12208671178522e-17,6387279.525160652,0.0020245341091278493,9.12208671178522e-17,-5.381424026799479,465.77502275866186,3.3168633703949268e-16,3.3130218735554566e-18,0.007469870379402672,5.36274320717718,9142.525160651861,3.1696344291068617e-10,1.4281646318830523e-23,9.786076684710238,-3.3881317883359465e-21,-6.794381521424496e-26,-4.010694946344186e-05,0.0,0.0,1.1726615295546747e-20,-5.362743207177181,303.2362437429489,0.4591227101700604,30155.251616986538,228.8089328723483,6.664829847310426e-17,0.1963456989824643,-0.04937009037234112,-0.0,0.0,0.0,0.0725114494562149,110.98751712100962,21.988079228866578,5.36274320717718
0.5600000023841858,6387279.465720093,260.83204793659814,9.456788106510534e-17,6387279.471045786,0.002099945063195972,9.456788106510534e-17,-5.479250639185407,465.77515340933775,3.3771607244198886e-16,3.3734030402800634e-18,0.007612372551401842,5.460230159985577,9142.471045785229,3.2876987342032947e-10,1.4805658887135216e-23,9.786076850799223,0.0,0.0,-4.083617276987336e-05,0.0,0.0,1.1726615295546747e-20,-5.460230159985577,303.23647615550414,0.4591257053900614,30155.494568240905,228.80928360937418,6.502863536347166e-17,0.19655573444099297,-0.05032204077122886,-0.0,0.0,-0.0,0.0725894942879676,111.22747184144944,22.011764015228273,5.460230159985577
0.5699999928474426,6387279.410438457,265.4898001242464,9.797518554932371e-17,6387279.415956052,0.0021767824720694984,9.797518554932373e-17,-5.577076599966632,465.7752841338008,3.437453212165617e-16,3.4333374971214013e-18,0.007755162000470104,5.5577164608829035,9142.415956051917,3.4079963162902846e-10,1.5339110624246697e-23,9.786077019880269,0.0,0.0,-4.15653962996302e-05,0.0,0.0,1.1726615295546747e-20,-5.5577164608829035,303.23671275473833,0.459128754583659,30155.741897837685,228.80964066485174,6.394903061937494e-17,0.1967693562276098,-0.05127687378727837,-0.0,0.0,0.0,0.0726688727736473,111.47176446834821,22.03585110345459,5.5577164608829035
0.5799999833106995,6387279.354178563,270.1475536195182,1.0144278264534937e-16,6387279.359891456,0.00225504922088757,1.0144278264534937e-16,-5.674901907181855,465.77541493450417,3.4977448078942173e-16,3.4932227904237705e-18,0.007898241177593473,5.655202107907235,9142.359891456459,3.5305316924887073e-10,1.5882001855493178e-23,9.786077191953359,-3.3881317882596173e-21,-7.164908448702825e-26,-4.2294620053167934e-05,0.0,0.0,1.1726615295546747e-20,-5.655202107907235,303.2369535406225,0.45913185775142656,30155.993605843894,228.81000403875194,6.634329862739304e-17,0.19698655234519685,-0.052234635921649515,-0.0,0.0,0.0,0.0727495700120925,111.72040641724924,22.06033853109741,5.655202107907235
0.5899999737739563,6387279.29694042,274.8053084231883,1.049706771666937e-16,6387279.302852011,0.0023347482191842404,1.0497067716669374e-16,-5.772726558837998,465.775545813893,3.558047775660527e-16,3.554285447750529e-18,0.008041612525996143,5.752687099064853,9142.302852011348,3.655309418114469e-10,1.64343333349808e-23,9.786077367018455,0.0,0.0,-4.302384403094033e-05,0.0,0.0,1.1726615295546747e-20,-5.752687099064851,303.2371985130932,0.459135014893513,30156.249692292466,228.81037373099417,6.650059504230684e-17,0.19720731065327307,-0.05319537342196196,-0.0,0.0,0.0,0.0728315860033035,111.97339768815253,22.085226298156737,5.752687099064853
0.6000000238418579,6387279.238724033,279.4630645360558,1.0855886948467307e-16,6387279.244837716,0.0024158824006804804,1.0855886948467309e-16,-5.87055055291038,465.77567677440385,3.618342463504007e-16,3.614560397063908e-18,0.008185278480516764,5.850171432330423,9142.244837716582,3.782334086353031e-10,1.6996105121349095e-23,9.786077545075559,3.388131788206434e-21,7.41213695293183e-26,-4.375306823340816e-05,0.0,0.0,1.1726615295546747e-20,-5.850171432330423,303.2374476721404,0.4591382260107731,30156.510157273937,228.81074974157875,6.730066719024954e-17,0.19743161887036584,-0.05415913227986738,-0.0,0.0,0.0,0.0729149132966995,112.2307382810581,22.110512442184447,5.850171432330423
0.6100000143051147,6387279.17952941,284.1208219589439,1.1220736080083679e-16,6387279.1858485835,0.0024984547235267058,1.1220736080083686e-16,-5.968373887342895,465.7758078184649,3.678634997442515e-16,3.674660366089704e-18,0.008329241467261996,5.947655105647184,9142.18584858352,3.911610328639154e-10,1.7567317403228476e-23,9.786077726124635,3.388131788179166e-21,7.535751262220354e-26,-4.448229266103218e-05,0.0,0.0,1.1726615295546747e-20,-5.947655105647184,303.2377010177053,0.45914149110344693,30156.77500082938,228.81113207043242,6.571663257684984e-17,0.197659464577708,-0.05512595822873142,-0.0,0.0,-0.0,0.0729995444416999,112.4924281959659,22.136196963180545,5.947655105647184
0.6200000047683716,6387279.119356558,288.7785806927003,1.15916142076211e-16,6387279.125884617,0.002582468170302839,1.1591614207621103e-16,-6.066196560048188,465.775938948496,3.738925667412439e-16,3.7346144763212614e-18,0.008473503903814331,6.045138116927119,9142.1258846167,4.043142814656925e-10,1.8147968765989544e-23,9.786077910165671,3.3881317881514635e-21,7.659286723639625e-26,-4.521151731428016e-05,0.0,0.0,1.1726615295546747e-20,-6.045138116927118,303.2379585497583,0.4591448101721673,30157.04422303206,228.81152071752612,6.473665972389535e-17,0.19789083522168424,-0.05609589674137407,-0.0,0.0,0.0,0.0730854868888855,112.75845601733269,22.16227593624878,6.045138116927119
0.6299999952316284,6387279.05820548,293.43634073819675,1.1968521198292502e-16,6387279.064945823,0.0026679257473599116,1.1968521198292505e-16,-6.164018568907837,465.77607016690786,3.799219081693072e-16,3.7948836854451636e-18,0.00861806819944004,6.142620464051126,9142.064945822938,4.1769362513089813e-10,1.8738059002270978e-23,9.786078097198642,-1.8120427735100656e-35,7.888609050128955e-31,-4.594074219362507e-05,0.0,0.0,1.1726615295546747e-20,-6.142620464051126,303.2382202682595,0.45914818321745515,30157.31782394654,228.81191568281605,6.75628513158664e-17,0.1981257181170946,-0.05706899302790869,-0.0,0.0,0.0,0.0731727257370948,113.02883316070171,22.18874936138916,6.142620464051126
0.6399999856948853,6387278.996076187,298.09410209632904,1.2351457856689042e-16,6387279.0030322075,0.002754830485166527,1.2351457856689042e-16,-6.261839911772529,465.7762014761028,3.859517782531654e-16,3.855722349834524e-18,0.008762936754326899,6.2401021448692156,9142.003032207907,4.3129953832590387e-10,1.9337589372290585e-23,9.786078287223537,3.388131788094709e-21,7.906357761461455e-26,-4.666996729953815e-05,0.0,0.0,1.1726615295546747e-20,-6.240102144869215,303.23848617317407,0.4591516102399097,30157.595803644097,228.8123169662658,6.472633887720325e-17,0.1983641004500707,-0.05804529203366022,-0.0,0.0,0.0,0.0732612609863281,113.303559626073,22.215615276153564,6.2401021448692156
0.6499999761581421,6387278.932968682,302.751864768017,1.274042380809908e-16,6387278.94014378,0.0028431854384822056,1.2740423808099084e-16,-6.359660586462245,465.7763328784743,3.9198111751874536e-16,3.916071128946163e-18,0.00890811195986127,6.337583157200676,9141.940143780694,4.4513249932031517e-10,1.9946559289944356e-23,9.786078480240326,3.3881317880656565e-21,8.029893338025381e-26,-4.739919263249937e-05,0.0,0.0,1.1726615295546747e-20,-6.337583157200675,303.2387562644521,0.45915509123995507,30157.878162182165,228.81272456781673,6.904234734497252e-17,0.19860596928121493,-0.05902483843716663,-0.0,0.0,-0.0,0.0733510851860046,113.58263541344655,22.242873680541994,6.337583157200676
0.6600000262260437,6387278.868882976,307.4096287542044,1.3135419101384679e-16,6387278.876280544,0.002932993685594984,1.3135419101384679e-16,-6.457480590766446,465.77646437640686,3.980094767695742e-16,3.975480961706754e-18,0.009053596198697526,6.435063498834264,9141.876280544704,4.591929900676201e-10,2.056496883228892e-23,9.786078676248998,-5.694994130836994e-35,2.366582714977808e-30,-4.812841819298869e-05,0.0,0.0,1.1726615295546747e-20,-6.435063498834264,303.23903054206806,0.4591586262183449,30158.164899645275,228.81313848744728,6.421459323951775e-17,0.19885131154834101,-0.0600076766482604,-0.0,0.0,0.0,0.0734421983361244,113.86604910727907,22.270520649658202,6.435063498834264
0.6700000166893005,6387278.803819072,312.0673940558587,1.353644295784589e-16,6387278.811442512,0.003024258328529412,1.3536442957845895e-16,-6.5552999224442505,465.776595972276,4.0403800831417157e-16,4.035104293893194e-18,0.009199391844065001,6.532543167528401,9141.811442513563,4.734814962377398e-10,2.119281678074861e-23,9.786078875249506,-3.854188525437568e-35,1.5777218099712572e-30,-4.88576439814948e-05,0.0,0.0,1.1726615295546747e-20,-6.532543167528403,303.23930900595235,0.4591622151752819,30158.456016073622,228.8135587250695,6.671932118131574e-17,0.1991001140699751,-0.060993850806244275,-0.0,0.0,-0.0,0.0735345855355262,114.15382353865716,22.298558145950313,6.532543167528401
0.6800000071525574,6387278.73777698,316.72516067397106,1.3943495709598417e-16,6387278.745629686,0.0031169824931503083,1.3943495709598417e-16,-6.653118579224627,465.7767276684482,4.100665152672901e-16,4.094744379362825e-18,0.009345501260599569,6.630022161011331,9141.745629686138,4.879985072333072e-10,2.1830103655862616e-23,9.786079077241865,6.77626357595161e-21,1.6800921712530827e-25,-4.958686999850641e-05,0.0,0.0,1.1726615295546747e-20,-6.630022161011333,303.2395916560986,0.45916585811180005,30158.751511575207,228.81398528069107,6.659724183924944e-17,0.19935236354761107,-0.061983404778124876,-0.0,0.0,-0.0,0.0736282542347908,114.44593587649418,22.326982244522096,6.630022161011331
0.6899999976158142,6387278.670756702,321.3829286095563,1.435657660749107e-16,6387278.678842068,0.003211169329163001,1.4356576607491068e-16,-6.750936558806582,465.7768594672807,4.1609528109313403e-16,4.154684823259402e-18,0.009491926804135785,6.727500476981341,9141.678842068104,5.027445161896655e-10,2.2476828285334387e-23,9.78607928222605,6.7762635758899015e-21,1.7047993175002622e-25,-5.031609624451568e-05,0.0,0.0,1.1726615295546747e-20,-6.727500476981342,303.23987849247084,0.4591695550285713,30159.051386229003,228.81441815427561,6.721242821234149e-17,0.1996080465693724,-0.06297638215695625,-0.0,0.0,-0.0,0.0737231895327568,114.74239753633347,22.355790982925416,6.727500476981341
0.699999988079071,6387278.602758249,326.0406978636528,1.4775686396435136e-16,6387278.611079676,0.003306822009385528,1.4775686396435136e-16,-6.8487538588593395,465.77699137112165,4.221243434978456e-16,4.214963474488693e-18,0.009638670819627762,6.824978113106924,9141.611079676491,5.177200198609423e-10,2.3132991835998093e-23,9.786079490202015,-4.026765948384184e-35,1.5777218099281545e-30,-5.1045322720018294e-05,0.0,0.0,1.1726615295546747e-20,-6.8249781131069245,303.2401695149845,0.45917330592565364,30159.35564006458,228.81485734571316,6.860026897882787e-17,0.19986714961319152,-0.06397282626025752,-0.0,0.0,0.0,0.0738193839788436,115.04320851817504,22.384984361160278,6.824978113106924
0.7099999785423279,6387278.533781627,330.69846843732233,1.520082519942334e-16,6387278.542342509,0.0034039437301644155,1.5200825199423344e-16,-6.946570477022544,465.77712338230975,4.2815325461526704e-16,4.275132611468505e-18,0.009785735644683656,6.922455067026983,9141.542342510169,5.329255186851527e-10,2.379859450101341e-23,9.786079701169754,3.3881317878818803e-21,8.771107609733469e-26,-5.177454942551866e-05,0.0,0.0,1.1726615295546747e-20,-6.922455067026983,303.2404647236325,0.4591771108041246,30159.66427319454,228.8153028550115,6.719250650616168e-17,0.20012965904888433,-0.06497278012848595,-0.0,0.0,-0.0,0.0739168524742126,115.34835740647554,22.414560416778563,6.922455067026983
0.7200000286102295,6387278.463826843,335.3562403316501,1.5631993276370787e-16,6387278.472630577,0.0035025377112014896,1.5631993276370787e-16,-7.044386410906433,465.7772555031744,4.3418304021623603e-16,4.336218151412821e-18,0.00993312360616986,7.019931336351008,9141.472630577078,5.483615167570743e-10,2.447363668791602e-23,9.786079915129251,6.776263575699351e-21,1.7789286915709246e-25,-5.250377636151592e-05,0.0,0.0,1.1726615295546747e-20,-7.019931336351008,303.24076411836893,0.4591809696645741,30159.977285692312,228.81575468211946,7.018186085229465e-17,0.20039556114201987,-0.06597628652362718,-0.0,0.0,-0.0,0.0740155652165412,115.65786703232163,22.444517187332153,7.019931336351008
0.7300000190734863,6387278.392893899,340.0140135477443,1.6069190471274077e-16,6387278.401943884,0.0036026071953459715,1.606919047127408e-16,-7.142201658092048,465.77738773603556,4.402109797656754e-16,4.3954997074095414e-18,0.010080837022359273,7.117406918659286,9141.401943884039,5.64028521795697e-10,2.515811815308322e-23,9.78608013208049,-4.199343534618478e-35,1.577721809883164e-30,-5.3233003528521486e-05,0.0,0.0,1.1726615295546747e-20,-7.117406918659285,303.2410676991522,0.45918488250766926,30160.29467763794,228.8162128269933,7.03317821245621e-17,0.20066484205657825,-0.06698338792784393,-0.0,0.0,0.0,0.0741155296564102,115.97171456462667,22.47485467282105,7.117406918659286
0.7400000095367432,6387278.32098281,344.67178808673674,1.651241636995875e-16,6387278.330282441,0.003704155448733011,1.6512416369958752e-16,-7.240016216131412,465.77752008320374,4.462403895162361e-16,4.456293682051517e-18,0.010228878201268143,7.214881811503072,9141.330282440133,5.799270451659247e-10,2.58520382487052e-23,9.786080352023431,0.0,0.0,-5.396223092704496e-05,0.0,0.0,1.1726615295546747e-20,-7.214881811503072,303.2413754659312,0.45918884933396664,30160.616449102876,228.81667728957467,6.7513702485126e-17,0.20093748785806986,-0.0679941265422091,-0.0,0.0,0.0,0.0742167457938194,116.28992283447728,22.505568948348998,7.214881811503072
0.75,6387278.248093577,349.32956394978163,1.696167108158015e-16,6387278.257646251,0.003807185760298656,1.6961671081580155e-16,-7.337830082547725,465.7776525469796,4.522690101604935e-16,4.516340919621421e-18,0.010377249441834198,7.3123560124048,9141.257646251037,5.960576018026246e-10,2.655539714631226e-23,9.78608057495806,-4.3143953500230187e-35,1.5777218098521223e-30,-5.469145855760124e-05,0.0,0.0,1.1726615295546747e-20,-7.312356012404801,303.24168741866896,0.45919287014422555,30160.94260017536,228.81714806982708,6.542475118024886e-17,0.20121348451633128,-0.06900854428551324,-0.0,0.0,0.0,0.0743191987276077,116.61246901078684,22.536660013916016,7.3123560124048
0.7599999904632568,6387278.174226209,353.98734113805676,1.741695403076129e-16,6387278.184035322,0.003911701442403475,1.7416954030761292e-16,-7.435643254835567,465.7777851296546,4.58297120031595e-16,4.575919906727762e-18,0.010525953033223545,7.409829518858265,9141.184035321288,6.124207103082813e-10,2.72681939457312e-23,9.786080800884369,-4.371921285221635e-35,1.5777218098362859e-30,-5.542068642070868e-05,0.0,0.0,1.1726615295546747e-20,-7.409829518858265,303.24200355733336,0.4591969449392821,30161.27313095025,228.81762516772153,6.79885247202439e-17,0.20149281790857426,-0.0700266827931565,-0.0,0.0,-0.0,0.0744228884577751,116.93936450909864,22.568125907073973,7.409829518858265
0.7699999809265137,6387278.099380716,358.6451196527626,1.7878265190477995e-16,6387278.109449663,0.004017705829793128,1.7878265190477998e-16,-7.533455730461078,465.7779178335101,4.643250031903354e-16,4.635314859367023e-18,0.01067499125462287,7.507302328328828,9141.109449663385,6.290168927902421e-10,2.7990428605305265e-23,9.786081029802315,-4.4294472388059693e-35,1.5777218098202416e-30,-5.614991451689262e-05,0.0,0.0,1.1726615295546747e-20,-7.507302328328828,303.242323881858,0.45920107371954816,30161.60804148834,228.81810858317758,6.75219703045155e-17,0.20177547382262132,-0.07104858341611663,-0.0,0.0,-0.0,0.074527807533741,117.27060932941278,22.599964665374756,7.507302328328828
0.7799999713897705,6387278.023557099,363.3028994951222,1.8345604249345216e-16,6387278.033889279,0.004125202279806209,1.8345604249345216e-16,-7.631267506862171,465.77805066081777,4.703535141442324e-16,4.695380441988586e-18,0.010824366375863108,7.604774438253595,9141.03388927846,6.458466748932707e-10,2.872210063818749e-23,9.786081261711901,-4.4869732108174723e-35,1.5777218098039858e-30,-5.687914284667493e-05,0.0,0.0,1.1726615295546747e-20,-7.604774438253596,303.24264839222496,0.45920525648607835,30161.947331902924,228.8185983161883,6.789268014396268e-17,0.20206143795927217,-0.07207428721998456,-0.0,0.0,-0.0,0.0746339485049247,117.6062034717291,22.63217628881836,7.604774438253595
0.7900000214576721,6387277.946755368,367.96068066638145,1.881897180383643e-16,6387277.957354178,0.004234194172997897,1.8818971803836432e-16,-7.729078581448708,465.7781836138397,4.763818807341465e-16,4.755344654102348e-18,0.010974080656864995,7.702245846041635,9140.95735417673,6.629105858971991e-10,2.946321097889386e-23,9.78608149661309,-4.5444992012978943e-35,1.5777218097875209e-30,-5.760837141058442e-05,0.0,0.0,1.1726615295546747e-20,-7.702245846041636,303.24297708837736,0.45920949323943866,30162.291002268023,228.81909436668778,6.913717665369876e-17,0.20235069593585436,-0.07310383498408682,-0.0,0.0,0.0,0.0747413039207458,117.94614693604771,22.66475685250855,7.702245846041635
0.800000011920929,6387277.8689755285,372.6184631678087,1.9298368224200946e-16,6387277.879844363,0.004344684912031309,1.9298368224200946e-16,-7.826888951602716,465.7783166948277,4.824101276881149e-16,4.815232384099351e-18,0.011124136347361905,7.7997165490741605,9140.879844362738,6.802091585433263e-10,3.021376020776973e-23,9.786081734505865,-4.6020252102892513e-35,1.5777218097708458e-30,-5.833760020915692e-05,0.0,0.0,1.1726615295546747e-20,-7.79971654907416,303.24330997028216,0.45921378398052415,30162.63905268472,228.8195967346472,6.717614751914344e-17,0.2026432332887137,-0.07413726720067731,-0.0,0.0,0.0,0.0748498812317848,118.29043972236862,22.697706356445313,7.7997165490741605
0.8100000023841858,6387277.79021759,377.2762470006948,1.9783792070903396e-16,6387277.801359845,0.004456677922162433,1.9783792070903396e-16,-7.924698614678566,465.7784499060239,4.884380227333262e-16,4.874811521216621e-18,0.011274535687107751,7.897186544704727,9140.801359845571,6.977429291103687e-10,3.0973746071748184e-23,9.78608197539021,-4.659551237833842e-35,1.5777218097539615e-30,-5.906682924292825e-05,0.0,0.0,1.1726615295546747e-20,-7.897186544704728,303.243647037887,0.45921812870999357,30162.991483235295,228.8201054200081,6.60475779811144e-17,0.20293903547641898,-0.07517462407420464,-0.0,0.0,-0.0,0.0749596655368805,118.63907041514842,22.731022838180547,7.897186544704727
0.8199999928474426,6387277.710481558,381.93403216635306,2.0275244539113897e-16,6387277.7219006345,0.004570176650893696,2.0275244539113902e-16,-8.022507568003181,465.7785832496606,4.944676060261136e-16,4.936122385516771e-18,0.011425280906223455,7.994655830259433,9140.721900634308,7.155124373602113e-10,3.17431704426979e-23,9.786082219266087,-4.717077283974239e-35,1.5777218097368671e-30,-5.979605851243596e-05,0.0,0.0,1.1726615295546747e-20,-7.994655830259432,303.2439882911392,0.4592225274285196,30163.34829400351,228.82062042271204,7.425116110090316e-17,0.2032380878825111,-0.07621594552064714,-0.0,0.0,-0.0,0.0750706568360328,118.99206184547383,22.764704335266114,7.994655830259433
0.8299999833106995,6387277.629767442,386.5918186661189,2.0772727061239403e-16,6387277.641466735,0.004685184568251117,2.077272706123941e-16,-8.120315808876233,465.7787167279595,5.004966206265838e-16,4.9969082025049916e-18,0.01157637422436543,8.092124403037108,9140.641466734627,7.335182265813104e-10,3.252203556391717e-23,9.786082466133486,-9.549206697506572e-35,3.155443619439126e-30,-6.052528801822634e-05,0.0,0.0,1.1726615295546747e-20,-8.092124403037106,303.2443337300007,0.4592269801369785,30163.70948509,228.82114174272274,7.072438120156694e-17,0.20354037581829112,-0.07726127116692837,-0.0,0.0,-0.0,0.0751828402280807,119.34940259780149,22.798750847702028,8.092124403037108
0.8399999737739563,6387277.548075246,391.24960650135034,2.1276238222122535e-16,6387277.560058152,0.004801705166091405,2.1276238222122545e-16,-8.21812333457034,465.7788503431328,5.065262891874459e-16,5.058391791945218e-18,0.011727817851764966,8.189592260309539,9140.560058151073,7.517608434801915e-10,3.3310339220531444e-23,9.78608271599239,-4.832129432214115e-35,1.577721809702049e-30,-6.125451776084221e-05,0.0,0.0,1.1726615295546747e-20,-8.189592260309539,303.24468335443777,0.45923148683632387,30164.075056602065,228.8216693800112,7.237271121755403e-17,0.20384588452572558,-0.0783106403503948,-0.0,0.0,0.0,0.0752962157130241,119.7110812565881,22.83315845059204,8.189592260309539
0.8500000238418579,6387277.465404978,395.90739567342683,2.1785778565610992e-16,6387277.477674889,0.004919741958656211,2.1785778565610992e-16,-8.315930142331265,465.77898409738225,5.125539630058795e-16,5.1179246197180956e-18,0.011879613987911593,8.287059399321638,9140.47767488932,7.702408382682519e-10,3.410808226471711e-23,9.78608296884278,-4.889655534400111e-35,1.577721809684326e-30,-6.198374774083681e-05,0.0,0.0,1.1726615295546747e-20,-8.287059399321636,303.24503716441194,0.4592360475274608,30164.445008643404,228.82220333454114,7.059592289565123e-17,0.20415459918036732,-0.07936409211837345,-0.0,0.0,0.0,0.075410783290863,120.0771206529203,22.867925181488037,8.287059399321638
0.8600000143051147,6387277.381756646,400.5651861837501,2.2301347435901335e-16,6387277.394316964,0.005039298481602031,2.2301347435901345e-16,-8.41373622937811,465.77911799289956,5.185826658533093e-16,5.178530627581064e-18,0.012031764822107481,8.384525817291653,9140.394316964132,7.889587645098577e-10,3.491526367047063e-23,9.786083224684614,-4.947181655354939e-35,1.5777218096663923e-30,-6.271297795876341e-05,0.0,0.0,1.1726615295546747e-20,-8.384525817291655,303.2453951598457,0.45924066221080617,30164.819341278486,228.82274360621736,7.418570464040858e-17,0.2044665048943949,-0.08042166522779395,-0.0,0.0,-0.0,0.0755265280604362,120.44749795571144,22.903051040390014,8.384525817291653
