time,eiPosition_m_X,eiPosition_m_Y,eiPosition_m_Z,eiVelocity_m_s_X,eiVelocity_m_s_Y,eiVelocity_m_s_Z,feVelocity_m_s_X,feVelocity_m_s_Y,feVelocity_m_s_Z,altitudeMsl_m,longitude_rad,latitude_rad,localGravity_m_s2,eulerAngle_rad_Yaw,eulerAngle_rad_Pitch,eulerAngle_rad_Roll,bodyAngularRateWrtEi_rad_s_Roll,bodyAngularRateWrtEi_rad_s_Pitch,bodyAngularRateWrtEi_rad_s_Yaw,speedOfSound_m_s,airDensity_kg_m3,ambientPressure_Pa,ambientTemperature_K,aero_bodyForce_N_X,aero_bodyForce_N_Y,aero_bodyForce_N_Z,aero_bodyMoment_Nm_L,aero_bodyMoment_Nm_M,aero_bodyMoment_Nm_N,mach,dynamicPressure_Pa
0.0,6387281.000012401,0.0,0.0,0.0,465.76787589444,0.0,0.0,0.0,-0.0,9144.0,0.0,0.0,9.78607215813912,0.0,0.0,0.0,0.0,0.0,0.0,303.2301256063032,0.4590404150549219,30148.940285576737,228.79937393444447,-0.0,0.19059291351543736,-0.0,0.0,0.0,0.0,0.0703624020118,104.48331268071308
0.1,6387280.951061521,46.576852777934405,0.0,-0.978577365500232,465.76917867364807,0.0,0.0,0.0013134584321716082,0.9751809182804401,9143.95124044296,1.0261716210384274e-11,0.0,9.786072307781787,0.0,0.0,-7.292125261714993e-06,0.0,0.0,0.0,303.2303350231056,0.4590431134840986,30149.159156726313,228.79968996166667,-0.0,0.1907669930892319,-0.008718378216611632,0.0,0.0,0.0,0.0704310006253,104.68790040162281
0.2,6387280.80430032,93.15383558141521,0.0,-1.957094871142536,465.77047685952004,0.0,0.0,0.002643680371045752,1.9503019479755521,9143.80496582568,4.121479759553345e-11,0.0,9.786072756709794,0.0,0.0,-1.4584271214796962e-05,0.0,0.0,0.0,303.2309632561392,0.4590512086247458,30149.81576002442,228.8006380177778,-0.0,0.19133458911117218,-0.017489532513998388,0.0,0.0,0.0,0.0706449516974,105.32718952249317
0.3,6387280.559667841,139.73094808583042,0.0,-2.93555200032444,465.77177313429604,0.0,0.0,0.00399334900194744,2.9253625722390244,9143.56118209176,9.314273477946969e-11,0.0,9.786073504953622,0.0,0.0,-2.187643814277464e-05,0.0,0.0,0.0,303.232010276448,0.4590647003629648,30150.910091688518,228.80221806277777,-0.0,0.19229193775012088,-0.026367277101876262,0.0,0.0,0.0,0.0710029022067,106.40111896678701
0.4,6387280.217164081,186.30819023326802,0.0,-3.9139478711284803,465.773070155832,0.0,0.0,0.0053651137057176,3.90036190880592,9143.2198953372,1.6637078365856745e-10,0.0,9.78607455242184,0.0,0.0,-2.916862637078542e-05,0.0,0.0,0.0,303.2334760541616,0.45908358872761673,30152.44216311412,228.8044300588889,-0.0,0.19363296905227104,-0.035404338774546955,0.0,0.0,0.0,0.0715026480116,107.9096571488551
0.5,6387279.776880481,232.8855622282488,0.0,-4.892281245481441,465.774370517976,0.0,0.0,0.006761574806414401,4.875298719182401,9142.781111779921,2.61265315245114e-10,0.0,9.786075899114449,0.0,0.0,-3.646083626531353e-05,0.0,0.0,0.0,303.2353605563616,0.45910787388723057,30154.412000731107,228.80727396555557,-0.0,0.1953494818523372,-0.04465187672025903,0.0,0.0,0.0,0.0721411982854,109.85280132084938
0.6,6387279.2387256,279.4630645331544,0.0,-5.870550541303681,465.77567676580804,0.0,0.0,0.00818526970914336,5.85017142070056,9142.24483772928,3.782329370639217e-10,0.0,9.786077545061936,0.0,0.0,-4.3753068233020694e-05,0.0,0.0,0.0,303.2376637486056,0.45913755614948737,30156.819645716525,228.81074974166665,-0.0,0.19743137203137873,-0.054159064437217574,0.0,0.0,0.0,0.0729148596615,112.23057693783072
0.7,6387278.6027604,326.040697860912,0.0,-6.848753847377281,465.776991362112,0.0,0.0,0.00963866074320384,6.82497810162432,9141.611079708,5.17719410633501e-10,0.0,9.786079490172867,0.0,0.0,-5.104532271948946e-05,0.0,0.0,0.0,303.24038559309844,0.4591726359570976,30159.66515404238,228.81485734555557,-0.0,0.19986689972325156,-0.06397274613813404,0.0,0.0,0.0,0.0738193347756,115.04303704968966
0.8,6387277.868984881,372.618463161888,0.0,-7.82688894027768,465.77831668432805,0.0,0.0,0.0111241249280328,7.799716537767121,9140.8798443912,6.802083933721732e-10,0.0,9.786081734477726,0.0,0.0,-5.833760020835058e-05,0.0,0.0,0.0,303.2435260508256,0.45921311388831626,30162.948596140548,228.81959673444445,-0.0,0.20264297991826047,-0.07413717435701721,0.0,0.0,0.0,0.0748498294669,118.29026172371049
0.9,6387277.037368561,419.19636162998404,0.0,-8.8049533027836,465.7796550184561,0.0,0.0,0.012643945766129521,8.77438421108472,9140.051138758801,8.662200361279286e-10,0.0,9.786084277946042,0.0,0.0,-6.562990122006122e-05,0.0,0.0,0.0,303.2470850785056,0.45925899065436615,30166.670056854833,228.82496786388887,-0.0,0.20574548124753655,-0.08469382997968695,0.0,0.0,0.0,0.0760011630217,121.97235749586343
1.0,6387276.1079724,465.77439467337604,0.0,-9.78294414317088,465.78100855296003,0.0,0.0,0.01420030707469608,9.74897832909096,9139.12497000408,1.0763094681645682e-09,0.0,9.786087120547341,0.0,0.0,-7.292222630946154e-05,0.0,0.0,0.0,303.251062631028,0.4593102670963455,30170.829635345253,228.83097068666666,-0.0,0.20915951931078028,-0.09568132108098372,0.0,0.0,0.0,0.0772678764251,126.08945686087996
1.1,6387275.0807964,512.352563916648,0.0,-10.76085841520736,465.78237936657604,0.0,0.0,0.015795288774429123,10.72349584451736,9138.10134562512,1.3110652012570701e-09,0.0,9.786090262251141,0.0,0.0,-8.021457606525114e-05,0.0,0.0,0.0,303.2554586599296,0.4593669441878049,30175.42744494439,228.83760515555556,-0.0,0.2128697333365188,-0.10713535322532733,0.0,0.0,0.0,0.0786443344808,130.64171779536534
1.2,6387273.95581008,558.9308711886,0.0,-11.73869283775152,465.783769437456,0.0,0.0,0.01743086449498056,11.69793347533848,9136.98027348576,1.5711074819716217e-09,0.0,9.786093703057462,0.0,0.0,-8.750695110754548e-05,0.0,0.0,0.0,303.260273114004,0.4594290230275319,30180.463613013733,228.84487122055555,-0.0,0.21686053783045778,-0.11908876137381065,0.0,0.0,0.0,0.0801248187146,135.62932331921553
1.3,6387272.733074401,605.509318510056,0.0,-12.716443914381601,465.7851806340241,0.0,0.0,0.01910890080323448,12.672287723974321,9135.761761724161,1.8570866198217094e-09,0.0,9.786097442905344,0.0,0.0,-9.479935208665421e-05,0.0,0.0,0.0,303.265505938692,0.4594965048447051,30185.938280895796,228.85276882833335,-0.0,0.221116343783763,-0.13157159222300568,0.0,0.0,0.0,0.0817036090556,141.05248108815613
1.4,6387271.412528399,652.0879080786241,0.0,-13.694107951957921,465.78661472107206,0.0,0.0,0.02083115783476128,13.6465548962184,9134.44581884424,2.16968131398955e-09,0.0,9.786101481794795,0.0,0.0,-0.00010209177968133591,0.0,0.0,0.0,303.2711570760816,0.4595693909921939,30191.851603722625,228.86129792611112,-0.0,0.2256217467087292,-0.144611225556008,0.0,0.0,0.0,0.0833750532828,146.91142302554312
1.5,6387269.994233041,698.6666422717441,0.0,-14.67168107845368,465.788073353664,0.0,0.0,0.022599291100550162,14.620731118885681,9133.03245377664,2.509597000598773e-09,0.0,9.786105819695342,0.0,0.0,-0.00010938423459705266,0.0,0.0,0.0,303.27722646551763,0.4596476829496508,30198.203750607292,228.870458455,-0.0,0.23036168102320786,-0.15823252373470995,0.0,0.0,0.0,0.0851336240572,153.20640498337087
1.6,6387268.47818832,745.2455236192561,0.0,-15.64915925962752,465.789558092376,0.0,0.0,0.024414854238469202,15.5948123565156,9131.52167578728,2.8775642344713155e-09,0.0,9.786110456606995,0.0,0.0,-0.00011667671756422473,0.0,0.0,0.0,303.28371404177284,0.4597313823188732,30204.99490411723,228.88025035722222,-0.0,0.23532154205909847,-0.1724579995494402,0.0,0.0,0.0,0.0869739640088,159.9377064353594
1.7,6387266.86442472,791.824554809496,0.0,-16.626538314476882,465.79107039110403,0.0,0.0,0.0262793024990496,16.56879442682544,9129.913494599281,3.2743371211515513e-09,0.0,9.78611539243832,0.0,0.0,-0.00012396922933718345,0.0,0.0,0.0,303.2906197374864,0.45982049082689547,30212.225260657255,228.89067357000002,-0.0,0.2404872782077041,-0.18730799408199444,0.0,0.0,0.0,0.0888909198002,167.10563020068537
1.8,6387265.1528812805,838.403738661864,0.0,-17.60381392962456,465.79261161840003,0.0,0.0,0.028193996768906642,17.542673015157842,9128.20792036248,3.7006918074408318e-09,0.0,9.786120627219809,0.0,0.0,-0.00013126177069172767,0.0,0.0,0.0,303.2979434810304,0.4599150103223816,30219.895030134427,228.90172802888893,-0.0,0.24584545645582537,-0.20280085775804135,0.0,0.0,0.0,0.0908795663705,174.71050218973807
1.9,6387263.3436494395,884.983078139016,0.0,-18.58098167218128,465.79418304528,0.0,0.0,0.030160207964187842,18.5164436872824,9126.40496359248,4.157425038341807e-09,0.0,9.786126160890507,0.0,0.0,-0.00013855434242512378,0.0,0.0,0.0,303.305685197424,0.4600149427756246,30228.00443605379,228.91341366666666,-0.0,0.2513833049467896,-0.2189531292608234,0.0,0.0,0.0,0.0929352226955,182.75267117764557
2.0,6387261.43669872,931.562576316384,0.0,-19.55803700166336,465.79578586351204,0.0,0.0,0.03217912164640321,19.49010190137432,9124.50463535352,4.645352784060264e-09,0.0,9.78613199338947,0.0,0.0,-0.0001458469453527896,0.0,0.0,0.0,303.3138448083336,0.46012029027854723,30236.553715278995,228.9257304122222,-0.0,0.2570887362468741,-0.2357797083676973,0.0,0.0,0.0,0.0950534604256,191.23250860078377
2.1,6387259.4320596,978.1422363943681,0.0,-20.53497528066072,465.79742118256803,0.0,0.0,0.0342518427430152,20.463643018560482,9122.50694713656,5.165308941096189e-09,0.0,9.786138124747179,0.0,0.0,-0.00015313958030899254,0.0,0.0,0.0,303.32242223085365,0.4602310550431553,30245.543118319543,228.93867819222223,-0.0,0.26295035485434887,-0.2532940199538411,0.0,0.0,0.0,0.0972301067026,200.15040836812804
2.2,6387257.329701601,1024.7220616709042,0.0,-21.511791784346638,465.79909003267204,0.0,0.0,0.0363794002765632,21.43706231264256,9120.411910828801,5.718144106551398e-09,0.0,9.786144554872212,0.0,0.0,-0.000160432248144057,0.0,0.0,0.0,303.3314173799448,0.46034723940256883,30254.972908947788,228.95225693166668,-0.0,0.2689574521858862,-0.2715081673958486,0.0,0.0,0.0,0.099461242352,209.50678669750286
2.3,6387255.12968568,1071.302055550608,0.0,-22.48848170907312,465.80079337699203,0.0,0.0,0.038562752021611205,22.41035497847904,9118.219538896561,6.304724426666008e-09,0.0,9.786151283764573,0.0,0.0,-0.0001677249497243644,0.0,0.0,0.0,303.3408301650816,0.46046884580792935,30264.84336434255,228.96646655,-0.0,0.27509999191077394,-0.2904330744108377,0.0,0.0,0.0,0.101743196509,219.30208196092863
2.4,6387252.83201184,1117.8822215264881,0.0,-23.46504018005184,465.80253211164006,0.0,0.0,0.040802789038708806,23.383516139818564,9115.929844202401,6.925930517227587e-09,0.0,9.78615831136332,0.0,0.0,-0.0001750176859311315,0.0,0.0,0.0,303.3506604933,0.46059587683149256,30275.15477508912,228.98130696611113,-0.0,0.28136858810525434,-0.31007861496498346,0.0,0.0,0.0,0.104072538591,229.53675454959907
2.5,6387250.43668008,1164.462563179944,0.0,-24.441462257998804,465.80430706872,0.0,0.0,0.043100340040651205,24.35654085591408,9113.54284021848,7.582656453671274e-09,0.0,9.786165637637977,0.0,0.0,-0.00018231045765622155,0.0,0.0,0.0,303.3609082673688,0.46072833516353595,30285.90744503562,228.99677809333335,-0.0,0.2877544783038629,-0.33045373133732625,0.0,0.0,0.0,0.106446068382,240.21128674795642
2.6,6387247.943720881,1211.043084174672,0.0,-25.417742945352245,465.80611902547207,0.0,0.0,0.0454561755575712,25.329424127618882,9111.05854075224,8.275808827327904e-09,0.0,9.78617326255808,0.0,0.0,-0.0001896032658080784,0.0,0.0,0.0,303.37157338639923,0.4608662236128741,30297.10169138877,229.01287984333334,-0.0,0.2942494931496574,-0.35156654074186505,0.0,0.0,0.0,0.108860804863,251.32618262213037
2.7,6387245.35316472,1257.623788244472,0.0,-26.393877191393283,465.80796870122407,0.0,0.0,0.0478710118923288,26.30216090269008,9108.4769602512,9.006305866685636e-09,0.0,9.7861811860322,0.0,0.0,-0.0001968961113064906,0.0,0.0,0.0,303.3826557452352,0.46100954510634323,30308.737844570234,229.029612125,-0.0,0.3008460240191712,-0.37342443112178886,0.0,0.0,0.0,0.111313974284,262.8819679136438
2.8,6387242.66495064,1304.204679193248,0.0,-27.3698598970008,465.809856769584,0.0,0.0,0.05034551484516721,27.274746080574,9105.79811362008,9.775076617451714e-09,0.0,9.78618940806035,0.0,0.0,-0.00020418899507648262,0.0,0.0,0.0,303.39415523506324,0.46115830268983216,30320.81624840815,229.04697484222223,-0.0,0.30753698970300897,-0.3960341468502489,0.0,0.0,0.0,0.113802997894,274.8791899474827
2.9,6387239.879170081,1350.785760898056,0.0,-28.34568591894912,465.81178385234404,0.0,0.0,0.052880303214340806,28.247174516307602,9103.02201628176,1.0583060179791235e-08,0.0,9.786197928612062,0.0,0.0,-0.0002114819180605323,0.0,0.0,0.0,303.40607174402163,0.46131249952570536,30333.33725984985,229.06496789722223,-0.0,0.31431580297034456,-0.41940186515036115,0.0,0.0,0.0,0.116325479622,287.31841754447544
3.0,6387236.99582304,1397.3670372847203,0.0,-29.32135007329128,465.813750528624,0.0,0.0,0.055475952063876004,29.219441024480883,9100.14868411632,1.1431204998344655e-08,0.0,9.786206747595909,0.0,0.0,-0.00021877488120460804,0.0,0.0,0.0,303.4184051550672,0.461472138894349,30346.301249201257,229.0835911888889,-0.0,0.32117633764629794,-0.4435332640453502,0.0,0.0,0.0,0.118879193942,300.2002409384597
3.1,6387234.01490952,1443.9485123430723,0.0,-30.2968471387728,465.815757344016,0.0,0.0,0.0581329957727904,30.19154038219344,9097.17813364392,1.232046820181266e-08,0.0,9.786215864981424,0.0,0.0,-0.00022606788546864097,0.0,0.0,0.0,303.4311553481088,0.461637224194171,30359.708599839607,229.10284461111112,-0.0,0.32811289665502186,-0.4684335826635342,0.0,0.0,0.0,0.121462074099,313.5252717054198
3.2,6387230.93646,1490.530190108664,0.0,-31.2721718596968,465.817804795344,0.0,0.0,0.060851930869428,31.163467332072,9094.110381780962,1.3251814988739886e-08,0.0,9.78622528070766,0.0,0.0,-0.0002333609318143075,0.0,0.0,0.0,303.44432219878803,0.4618077589405703,30373.559708596487,229.1227280566667,-0.0,0.3351201813469894,-0.4941076746521257,0.0,0.0,0.0,0.124072200804,327.29414269023005
3.3,6387227.760504961,1537.112074671912,0.0,-32.2473189477528,465.819893355048,0.0,0.0,0.0636332186588352,32.1352165847088,9090.94544608392,1.422621805576252e-08,0.0,9.786234994713675,0.0,0.0,-0.00024065402121724666,0.0,0.0,0.0,303.4579055790888,0.46198374676439063,30387.854985326907,229.14324141333333,-0.0,0.34219326232266367,-0.5205600554738372,0.0,0.0,0.0,0.12670779148,341.50750794536765
3.4,6387224.48701392,1583.694170162856,0.0,-33.2222830857048,465.822023452896,0.0,0.0,0.066477287656284,33.1067828201856,9087.68334456648,1.524465706517815e-08,0.0,9.786245006999485,0.0,0.0,-0.0002479471546565882,0.0,0.0,0.0,303.4719053570328,0.46216519141552836,30402.594853196602,229.16438456611112,-0.0,0.3493275518717615,-0.5477949441645615,0.0,0.0,0.0,0.129367190107,356.16604266579594
3.5,6387221.11604784,1630.276480760304,0.0,-34.1970589273608,465.82419549732003,0.0,0.0,0.06938453583943921,34.0781606917008,9084.32409579096,1.6308118150110025e-08,0.0,9.786255317443175,0.0,0.0,-0.00025524033311844315,0.0,0.0,0.0,303.4863213960696,0.4623520967588091,30417.779748586254,229.18615739722225,-0.0,0.35651877809794846,-0.5758163003265625,0.0,0.0,0.0,0.132048857682,371.2704431348594
3.6,6387217.64760672,1676.859010673544,0.0,-35.171641100316,465.82640986322406,0.0,0.0,0.0723553327267896,35.0493448250208,9080.8677188988,1.74175934525533e-08,0.0,9.786265926044774,0.0,0.0,-0.0002625335575941584,0.0,0.0,0.0,303.50115355690565,0.4625444667770805,30433.410121091485,229.2085597838889,-0.0,0.36376296073163344,-0.6046278567028014,0.0,0.0,0.0,0.134751363307,386.82142666634877
3.7,6387214.08172104,1723.4417641545363,0.0,-36.146024208391204,465.82866690112803,0.0,0.0,0.0753900212966688,36.0203298218328,9077.31423348864,1.857408069327354e-08,0.0,9.786276832712847,0.0,0.0,-0.0002698268290803171,0.0,0.0,0.0,303.5164016950656,0.4627423055681194,30449.486433379247,229.23159160166668,-0.0,0.37105638861173673,-0.6342331480681367,0.0,0.0,0.0,0.137473375891,402.81973155279024
3.8,6387210.4183908,1770.024745488768,0.0,-37.1202028301088,465.83096693716806,0.0,0.0,0.0784889197596672,36.991110259440006,9073.66365973824,1.9778582770852264e-08,0.0,9.786288037355975,0.0,0.0,-0.0002771201485822289,0.0,0.0,0.0,303.5320656627216,0.46294561734720924,30466.00916152295,229.2552527211111,-0.0,0.3783955987857208,-0.6646355366598065,0.0,0.0,0.0,0.140213656444,419.2661170161286
3.9,6387206.65767696,1816.607958986112,0.0,-38.0941715223504,465.83331027004806,0.0,0.0,0.0816523231899216,37.9616806932,9069.91601843496,2.1032107386284032e-08,0.0,9.786299540004656,0.0,0.0,-0.0002844135171069487,0.0,0.0,0.0,303.54814530838803,0.4631544064455937,30482.978794667328,229.27954301055556,-0.0,0.38577735716249484,-0.69583823471212,0.0,0.0,0.0,0.142971050954,436.1613631574535
4.0,6387202.799579521,1863.1914089960642,0.0,-39.0679248206616,465.83569718628,0.0,0.0,0.0848805050317416,38.932035656829605,9066.07133079288,2.233566669282853e-08,0.0,9.7863113405065,0.0,0.0,-0.0002917069356667675,0.0,0.0,0.0,303.5646404760072,0.46336867730944564,30500.39583517205,229.3044623338889,-0.0,0.3931986406341227,-0.7278443243844898,0.0,0.0,0.0,0.145744483795,453.50627091007635
4.1,6387198.84409848,1909.77509988336,0.0,-40.0414572395568,465.83812794189606,0.0,0.0,0.08817371848584,39.9021696627096,9062.12961866616,2.369027696935472e-08,0.0,9.786323438831053,0.0,0.0,-0.0002990004052774669,0.0,0.0,0.0,303.5815510055592,0.46358843450295995,30518.260798659623,229.3300105527778,-0.0,0.40065662058759965,-0.7606567753630448,0.0,0.0,0.0,0.148532951656,471.3016619945228
4.2,6387194.7912948,1956.3590360523601,0.0,-41.0147632734336,465.84060278073605,0.0,0.0,0.0915321977901024,40.8720772043232,9058.09090439664,2.50969583126393e-08,0.0,9.78633583488689,0.0,0.0,-0.0003062939269583192,0.0,0.0,0.0,303.5988767333664,0.46381368270423023,30536.574213871754,229.35618752333335,-0.0,0.40814864771551057,-0.7942784604738882,0.0,0.0,0.0,0.151335517941,489.54837886969534
4.3,6387190.641168481,2002.9432219165683,0.0,-41.987837397487205,465.843121928352,0.0,0.0,0.0949561593985536,41.841752754732006,9053.95521096624,2.6556734350609127e-08,0.0,9.786348528643547,0.0,0.0,-0.00031358750173383275,0.0,0.0,0.0,303.616617491484,0.4640444267088563,30555.336622812974,229.38299310055555,-0.0,0.41567223803749265,-0.8287121694948261,0.0,0.0,0.0,0.154151307628,508.24728469744156
4.4,6387186.3937195195,2049.5276619230162,0.0,-42.9606740677104,465.84568558896,0.0,0.0,0.0984458030685792,42.8111907684048,9049.722561783601,2.807063197198968e-08,0.0,9.786361520009606,0.0,0.0,-0.0003208811306320063,0.0,0.0,0.0,303.6347731083096,0.46428067142685225,30574.548580702754,229.41042713444446,-0.0,0.4232250600462101,-0.8639606214324581,0.0,0.0,0.0,0.156979502527,527.3992632884494
4.5,6387182.049039361,2096.112360524832,0.0,-43.9332677221128,465.84829396372805,0.0,0.0,0.1020013128640224,43.780385681522404,9045.39298089744,2.963968107375595e-08,0.0,9.786374808924123,0.0,0.0,-0.00032817481468083894,0.0,0.0,0.0,303.65334340797364,0.4645224218841922,30594.210655927665,229.43848947111113,-0.0,0.4308049228902083,-0.9000264753891838,0.0,0.0,0.0,0.159819336937,547.0052190672949
4.6,6387177.6070975205,2142.69732221172,0.0,-44.905612780416,465.850947223344,0.0,0.0,0.1056228580805568,44.7493319125872,9040.9664929356,3.126491432219684e-08,0.0,9.786388395326158,0.0,0.0,-0.0003354685549135655,0.0,0.0,0.0,303.6723282103392,0.4647696832228107,30614.323430089207,229.46717995444445,-0.0,0.43840976552114275,-0.9369123402514286,0.0,0.0,0.0,0.162670093647,567.0660770135493
4.7,6387173.06792448,2189.282551473384,0.0,-45.87770364466321,465.85364553240004,0.0,0.0,0.10931059409973601,45.718023861204,9036.44312298312,3.294736692916399e-08,0.0,9.786402279093812,0.0,0.0,-0.00034276235236691167,0.0,0.0,0.0,303.6917273319168,0.46502246069957165,30634.887498051714,229.49649842333335,-0.0,0.44603764672086627,-0.9746207832524708,0.0,0.0,0.0,0.165531100264,587.5827826522026
4.8,6387168.431550721,2235.8680528239124,0.0,-46.8495346992192,465.856389046344,0.0,0.0,0.11306466317873042,46.686455910823206,9031.82289682608,3.468807644001421e-08,0.0,9.786416460196625,0.0,0.0,-0.0003500562080758575,0.0,0.0,0.0,303.7115405846448,0.46528075968678384,30655.903467846598,229.526444715,-0.0,0.4536867359398717,-1.0131543376589687,0.0,0.0,0.0,0.168401725847,608.5563019674798
4.9,6387163.698037201,2282.4538307926323,0.0,-47.82110031138,465.85917790233606,0.0,0.0,0.11688519517666561,47.654622426912006,9027.10584067728,3.648808253411844e-08,0.0,9.786430938512696,0.0,0.0,-0.0003573501230823647,0.0,0.0,0.0,303.731767776804,0.4655445856727164,30677.371960720222,229.55701866055557,-0.0,0.46135530488659443,-1.0525155095633947,0.0,0.0,0.0,0.171281377812,629.9876213980526
5.0,6387158.86735344,2329.039889918016,0.0,-48.7923948313728,465.862012225344,0.0,0.0,0.1207723082294496,48.622517757868806,9022.2919813896,3.834842683671515e-08,0.0,9.786445714011569,0.0,0.0,-0.00036464409842664955,0.0,0.0,0.0,303.75240871240806,0.46581394426005235,30699.29361122965,229.58822009000002,-0.0,0.46904171979151027,-1.0927067839692022,0.0,0.0,0.0,0.174169499084,651.8777477700069
5.1,6387153.939560399,2375.626234756824,0.0,-49.7634125926608,465.864892137288,0.0,0.0,0.12472610937095521,49.590136235328,9017.38134633408,4.027015273949057e-08,0.0,9.786460786540863,0.0,0.0,-0.00037193813515241876,0.0,0.0,0.0,303.77346319150803,0.4660888411669197,30721.669067051153,229.6200488277778,-0.0,0.4767444343104428,-1.1337306302310008,0.0,0.0,0.0,0.177065565492,674.2277082729023
5.2,6387148.91465808,2422.212869868864,0.0,-50.7341479110288,465.8678177418,0.0,0.0,0.128746695109092,50.5574721735504,9012.37396355232,4.225430523250348e-08,0.0,9.786476156100601,0.0,0.0,-0.0003792322343051247,0.0,0.0,0.0,303.79493100988805,0.4663692822268913,30744.49898921958,229.65250469555556,-0.0,0.48446198297678067,-1.1755895068764297,0.0,0.0,0.0,0.179969083364,697.0385503879528
5.3,6387143.792737921,2468.799799832232,0.0,-51.704595086412006,465.87078913641597,0.0,0.0,0.13283415195920642,51.5245198709472,9007.269861512641,4.430193074291673e-08,0.0,9.786491822568886,0.0,0.0,-0.00038652639693021953,0.0,0.0,0.0,303.8168119599792,0.46665527338692336,30767.784051841103,229.68558751166668,-0.0,0.49219297521862015,-1.2182858659654128,0.0,0.0,0.0,0.182879587325,720.3113418736617
5.4,6387138.573769441,2515.387029228072,0.0,-52.674748401067205,465.873806409528,0.0,0.0,0.136988556935724,52.4912736076416,9002.06906935392,4.64140769824555e-08,0.0,9.786507785823815,0.0,0.0,-0.00039382062407664623,0.0,0.0,0.0,303.839105829336,0.466946820710963,30791.52494247624,229.71929709055556,-0.0,0.49993608981183246,-1.2618221569423202,0.0,0.0,0.0,0.185796638265,744.0471707035779
5.5,6387133.2577831205,2561.9745626466724,0.0,-53.64460212109681,465.876869637336,0.0,0.0,0.14120997800995921,53.4577276488216,8996.77161679416,4.859179280341768e-08,0.0,9.78652404583494,0.0,0.0,-0.0004011149167933475,0.0,0.0,0.0,303.86181240216,0.46724393037685613,30815.722361756816,229.7536332427778,-0.0,0.5076900698001946,-1.3062008301545105,0.0,0.0,0.0,0.188719821472,768.2471450279911
5.6,6387127.84483992,2608.5624046874646,0.0,-54.614150495534396,465.87997888994397,0.0,0.0,0.1454984745337872,54.4238762410824,8991.377534008561,5.083612805904745e-08,0.0,9.78654060248036,0.0,0.0,-0.00040840927612752106,0.0,0.0,0.0,303.8849314583856,0.4675466086763474,30840.377023673256,229.788595775,-0.0,0.5154537178069639,-1.351424339917157,0.0,0.0,0.0,0.191648744917,792.9123931308403
5.7,6387122.334970321,2655.150559959024,0.0,-55.583387756344806,465.88313423440803,0.0,0.0,0.1498540976310072,55.389713615169605,8985.88685190384,5.314813347333374e-08,0.0,9.786557455668657,0.0,0.0,-0.0004157037031333456,0.0,0.0,0.0,303.90846277368,0.46785486201765697,30865.489655430934,229.82418449055555,-0.0,0.5232258917245516,-1.3974951473556594,0.0,0.0,0.0,0.194583037666,818.0440633722567
5.8,6387116.72817432,2701.739033072976,0.0,-56.552308119338406,465.886335719496,0.0,0.0,0.1542768905627976,56.3552339850648,8980.2996018744,5.552886051360124e-08,0.0,9.786574605308415,0.0,0.0,-0.0004229981988597642,0.0,0.0,0.0,303.932406119748,0.46816869692238844,30891.060997545937,229.86039919,-0.0,0.5310055007200188,-1.4444157228833046,0.0,0.0,0.0,0.197522348425,843.6433241502601
5.9,6387111.0245128805,2748.3278286439922,0.0,-57.5209057823424,465.889583393976,0.0,0.0,0.15876688906360562,57.3204315467664,8974.61581586328,5.797936127147891e-08,0.0,9.786592051277742,0.0,0.0,-0.00043029276436095564,0.0,0.0,0.0,303.956761264332,0.46848812002655954,30917.0918037493,229.89723966777777,-0.0,0.5387915015741915,-1.4921885484743067,0.0,0.0,0.0,0.200466344195,869.7113638528783
6.0,6387105.22401648,2794.91695129284,0.0,-58.4891749270296,465.89287730052007,0.0,0.0,0.1633241216575296,58.285300480728004,8968.83552651456,6.050068834735917e-08,0.0,9.786609793546184,0.0,0.0,-0.00043758740068760806,0.0,0.0,0.0,303.9815279715168,0.46881313808111724,30943.582841082767,229.93470571777777,-0.0,0.5465828952743217,-1.5408161196833012,0.0,0.0,0.0,0.203414709029,896.2493908102673
6.1,6387099.32668512,2841.5064056463843,0.0,-59.45710971739441,465.896217469608,0.0,0.0,0.1679486099469648,59.24983494850561,8962.95876692952,6.309389473939499e-08,0.0,9.78662783196136,0.0,0.0,-0.0004448821088939004,0.0,0.0,0.0,304.0067060005104,0.4691437579509075,30970.534889946688,229.9727971272222,-0.0,0.5543787239003326,-1.5903009474735634,0.0,0.0,0.0,0.206367142885,923.2586332276782
6.2,6387093.33261024,2888.096196331488,0.0,-60.424704300057606,465.89960393172004,0.0,0.0,0.17264036888478962,60.2140290958056,8956.98557084952,6.576003373755839e-08,0.0,9.786646166431861,0.0,0.0,-0.0004521768900340116,0.0,0.0,0.0,304.0322951068632,0.46947998661570567,30997.948743860594,230.01151368111113,-0.0,0.5621780677023376,-1.6406455598495047,0.0,0.0,0.0,0.209323360573,950.7403391710936
6.3,6387087.24176136,2934.686327975016,0.0,-61.391952804571204,465.903036702096,0.0,0.0,0.17739940702552082,61.1778770503512,8950.915972656001,6.850015882241133e-08,0.0,9.786664796835792,0.0,0.0,-0.00045947174515862977,0.0,0.0,0.0,304.05829504216325,0.46982183116867043,31025.825209846236,230.05085516111112,-0.0,0.5699800424317061,-1.691852503351277,0.0,0.0,0.0,0.212283090771,978.6957764858314
6.4,6387081.054229921,2981.276805216024,0.0,-62.35884934280881,465.906515802072,0.0,0.0,0.1822257267587904,62.14137292218721,8944.7500071876,7.131532356562195e-08,0.0,9.78668372311222,0.0,0.0,-0.0004667666753236791,0.0,0.0,0.0,304.084705554036,0.4701692988178898,31054.165108092475,230.0908213438889,-0.0,0.5777837968723019,-1.743924344362548,0.0,0.0,0.0,0.215246075123,1007.1262327438754
6.5,6387074.7700159205,3027.867632681376,0.0,-63.325388009270405,465.910041240792,0.0,0.0,0.1871193245269728,63.1045108042896,8938.487709984001,7.420658153571688e-08,0.0,9.786702945139247,0.0,0.0,-0.00047406168158159315,0.0,0.0,0.0,304.11152638584,0.47052239688432007,31082.96927209884,230.13141200333334,-0.0,0.5855885105051657,-1.7968636703204188,0.0,0.0,0.0,0.218212067399,1036.0330152103613
6.6,6387068.389149841,3074.4588150223203,0.0,-64.291562880168,465.913613015208,0.0,0.0,0.19208019102787682,64.0672847710416,8932.129117164,7.717498620697483e-08,0.0,9.78672246279499,0.0,0.0,-0.00048135676498655083,0.0,0.0,0.0,304.1387572766664,0.47088113280436206,31112.23854877135,230.17262690888887,-0.0,0.5933933914134032,-1.8506730907963411,0.0,0.0,0.0,0.221180832722,1065.4174507765415
6.7,6387061.91172312,3121.05035682,0.0,-65.25736801403521,465.91723112836803,0.0,0.0,0.1971083114018928,65.02968887914801,8925.674265364562,8.02215908716368e-08,0.0,9.786742275957549,0.0,0.0,-0.0004886519265909857,0.0,0.0,0.0,304.1663979619488,0.47124551412728477,31141.973798326755,230.21446582666667,-0.0,0.6011976742804858,-1.9053552384480366,0.0,0.0,0.0,0.224152146845,1095.2808859023312
6.8,6387055.33770528,3167.64226279272,0.0,-66.2227974511176,465.92089557417603,0.0,0.0,0.2022036654075576,65.99171716794001,8919.1231918932,8.334744855211582e-08,0.0,9.786762384565995,0.0,0.0,-0.0004959471674490764,0.0,0.0,0.0,304.19444817254885,0.4716155485152251,31172.175894244607,230.25692851888888,-0.0,0.6090006185486858,-1.960912769909142,0.0,0.0,0.0,0.227125795486,1125.6246865684268
6.9,6387048.66715728,3214.234537482,0.0,-67.18784521337281,465.92460634044005,0.0,0.0,0.20736622758462242,66.9533636569368,8912.47593466704,8.655361192106091e-08,0.0,9.786782788467956,0.0,0.0,-0.0005032424886115114,0.0,0.0,0.0,304.2229076359752,0.47199124374576473,31202.84572336306,230.30001474333335,-0.0,0.6168015067287533,-2.017348366576543,0.0,0.0,0.0,0.23010157371,1156.4502382092737
7.0,6387041.90014008,3260.82718558176,0.0,-68.15250530447041,465.92836340887203,0.0,0.0,0.2125959674064528,67.91462234858881,8905.73253209088,8.984113321880314e-08,0.0,9.786803487541542,0.0,0.0,-0.0005105378911324695,0.0,0.0,0.0,304.25177607486,0.4723726077098687,31233.984185926758,230.343724255,-0.0,0.6245996428030038,-2.0746647352998506,0.0,0.0,0.0,0.233079285351,1187.758945665187
7.1,6387035.03668416,3307.42021172496,0.0,-69.1167717091824,465.932166761184,0.0,0.0,0.2178928494181032,68.875487226144,8898.893023301041,9.321106417586277e-08,0.0,9.786824481695339,0.0,0.0,-0.0005178333760643843,0.0,0.0,0.0,304.28105320848243,0.4727596484098241,31265.59219549103,230.38805680444446,-0.0,0.6323943507351647,-2.132864609021942,0.0,0.0,0.0,0.236058742481,1219.5522331009538
7.2,6387028.076789521,3354.0136204836003,0.0,-70.0806383939928,465.936016366896,0.0,0.0,0.22325683337164803,69.8359522539528,8891.95744798248,9.666445593755129e-08,0.0,9.786845770776981,0.0,0.0,-0.0005251289444561985,0.0,0.0,0.0,304.3107387515496,0.47315237396387794,31297.67067901769,230.43301213833334,-0.0,0.640184973118115,-2.191950747343888,0.0,0.0,0.0,0.239039764909,1251.8315439723171
7.3,6387021.020578081,3400.6074165211203,0.0,-71.0440993055736,465.93991219857605,0.0,0.0,0.2286878743450536,70.796011377468,8884.925846399281,1.0020235898892204e-07,0.0,9.786867354695058,0.0,0.0,-0.0005324245973586004,0.0,0.0,0.0,304.3408324145016,0.4735507926021146,31330.22057673139,230.47858999944447,-0.0,0.6479708698616607,-2.2519259370453932,0.0,0.0,0.0,0.242022179721,1284.598340949369
7.4,6387013.867988881,3447.20160447048,0.0,-72.007148372004,465.943854222696,0.0,0.0,0.23418592285800244,71.75565852294,8877.7982594556,1.038258230833864e-07,0.0,9.786889233327674,0.0,0.0,-0.0005397203358222782,0.0,0.0,0.0,304.3713339047304,0.4739549126680017,31363.242842311127,230.52479012777778,-0.0,0.6557514170182042,-2.312792992516273,0.0,0.0,0.0,0.245005820851,1317.8541058447283
7.5,6387006.61914384,3493.7961889036806,0.0,-72.9697795012464,465.94784239963207,0.0,0.0,0.23975092497643918,72.7148875968072,8870.574728634721,1.0753589717185331e-07,0.0,9.78691140655295,0.0,0.0,-0.0005470161608979203,0.0,0.0,0.0,304.4022429241416,0.4743647426189057,31396.738442890248,230.57161225722223,-0.0,0.6635260056484473,-2.374554756183485,0.0,0.0,0.0,0.247990528676,1351.6003395560851
7.6,6386999.27404296,3540.3911744841603,0.0,-73.9319865829752,465.951876683664,0.0,0.0,0.2453828224101072,73.6736924869152,8863.25529606,1.1133362933378884e-07,0.0,9.786933874218507,0.0,0.0,-0.0005543120736292333,0.0,0.0,0.0,304.43355917159283,0.4747802910235149,31430.708358817054,230.61905611944448,-0.0,0.6712940407849564,-2.437214098835846,0.0,0.0,0.0,0.250976149644,1385.8385620135327
7.7,6386991.832777681,3586.9865657839205,0.0,-74.8937634858336,465.955957029072,0.0,0.0,0.2510815526067312,74.632067060688,8855.8400044644,1.1522006671037007e-07,0.0,9.786956636202465,0.0,0.0,-0.0005616080750669055,0.0,0.0,0.0,304.46528234136963,0.4752015665644161,31465.15358394209,230.66712144222222,-0.0,0.6790549404580009,-2.5007739199887906,0.0,0.0,0.0,0.253962535924,1420.5703120838066
7.8,6386984.29531752,3633.5823674054404,0.0,-75.85510405895761,465.96008338708805,0.0,0.0,0.25684704883400883,75.590005165128,8848.32889719048,1.1919625543833705e-07,0.0,9.78697969241341,0.0,0.0,-0.0005689041662546438,0.0,0.0,0.0,304.4974121237952,0.4756285780375797,31500.075125570234,230.71580794888888,-0.0,0.6868081347703238,-2.565237148111225,0.0,0.0,0.0,0.256949545081,1455.7971475176166
7.9,6386976.66175392,3680.17858398168,0.0,-76.8160021313664,465.9642556998,0.0,0.0,0.262679240259468,76.54750062803521,8840.722018190401,1.2326324058454308e-07,0.0,9.787003042668498,0.0,0.0,-0.0005762003482413913,0.0,0.0,0.0,304.5299482052304,0.4760613343502977,31535.474004317097,230.7651153588889,-0.0,0.6945530650475314,-2.630606740914666,0.0,0.0,0.0,0.25993703977,1491.520644877826
8.0,6386968.932117361,3726.77522008464,0.0,-77.7764515113528,465.968473912344,0.0,0.0,0.26857805202361923,77.5045472561784,8833.01941202592,1.2742206608329718e-07,0.0,9.78702668684584,0.0,0.0,-0.0005834966220656184,0.0,0.0,0.0,304.562890267464,0.4764998445227303,31571.35125430051,230.81504338722223,-0.0,0.7022891830507579,-2.6968856855311674,0.0,0.0,0.0,0.262924887455,1527.742399467632
8.1,6386961.1064688,3773.3722802863203,0.0,-78.7364459873976,465.97273796071204,0.0,0.0,0.2745434053082304,78.46113883590479,8825.22112389888,1.3167377467388154e-07,0.0,9.787050624823552,0.0,0.0,-0.0005907929887745231,0.0,0.0,0.0,304.5962379886272,0.4769441176879054,31607.707922996884,230.86559174611114,-0.0,0.7100159501937784,-2.7640769987090437,0.0,0.0,0.0,0.265912960137,1564.4640252443796
8.2,6386953.184869201,3819.96976921968,0.0,-79.6959793263408,465.97704777480004,0.0,0.0,0.2805752173978968,79.4172691328352,8817.3271996512,1.360194078380686e-07,0.0,9.787074856479743,0.0,0.0,-0.0005980894494083216,0.0,0.0,0.0,304.629991042584,0.477394163090173,31644.545071337016,230.9167601427778,-0.0,0.7177328368624308,-2.8321837269774517,0.0,0.0,0.0,0.268901134109,1601.6871547668961
8.3,6386945.16728808,3866.56769136528,0.0,-80.655045274296,465.98140329060004,0.0,0.0,0.28667340174008643,80.372931891864,8809.337685673441,1.40460005741478e-07,0.0,9.78709938163157,0.0,0.0,-0.0006053860050054847,0.0,0.0,0.0,304.66414909954085,0.477849990088297,31681.86377375391,230.96854828055558,-0.0,0.7254393217429348,-2.9012089467575986,0.0,0.0,0.0,0.271889289724,1639.4134390901518
8.4,6386937.053877841,3913.16605138656,0.0,-81.61363755665042,465.985804431912,0.0,0.0,0.29283786799543204,81.32812083594,8801.2526290572,1.4499660717249004e-07,0.0,9.787124200187629,0.0,0.0,-0.0006126826566079739,0.0,0.0,0.0,304.6987118245224,0.47831160814978624,31719.66511803917,231.02095585944446,-0.0,0.7331348911946922,-2.9711557644783935,0.0,0.0,0.0,0.27487731117,1677.6445477173804
8.5,6386928.84457752,3959.76485379456,0.0,-82.5717498768456,465.990251122536,0.0,0.0,0.299068522091376,82.28282966728561,8793.07207750368,1.496302494836027e-07,0.0,9.787149311965072,0.0,0.0,-0.0006199794052490241,0.0,0.0,0.0,304.73367887950565,0.47877902685656376,31757.95020553451,231.07398257555556,-0.0,0.7408190386675702,-3.0420273166609655,0.0,0.0,0.0,0.277865086272,1716.3821684947432
8.6,6386920.539539521,4006.3641031308002,0.0,-83.52937591668241,465.994743286272,0.0,0.0,0.305365266263928,83.2370520664824,8784.796079323682,1.543619685334866e-07,0.0,9.787174716811531,0.0,0.0,-0.0006272762519688518,0.0,0.0,0.0,304.7690499215904,0.47925225590135895,31796.720150940248,231.1276281188889,-0.0,0.7484912641636662,-3.1138267699764897,0.0,0.0,0.0,0.280852506297,1755.6280075347208
8.7,6386912.13873336,4052.96380396728,0.0,-84.4865093363208,465.99928083168004,0.0,0.0,0.31172799910308,84.1907816918616,8776.424683529041,1.5919279863165817e-07,0.0,9.787200414635608,0.0,0.0,-0.0006345731977989462,0.0,0.0,0.0,304.804824603,0.4797313050892538,31835.976082506797,231.18189217833333,-0.0,0.7561510736857288,-3.1865573212995657,0.0,0.0,0.0,0.283839465771,1795.3837891490798
8.8,6386903.64225048,4099.56396081504,0.0,-85.44314377428002,466.00386367646405,0.0,0.0,0.31815661558694397,85.14401217980881,8767.957939649761,1.6412377247809116e-07,0.0,9.787226405223976,0.0,0.0,-0.0006418702437725425,0.0,0.0,0.0,304.84100257687203,0.4802161843356216,31875.719141891062,231.23677443666668,-0.0,0.7637979787834388,-3.2602221977349077,0.0,0.0,0.0,0.286825862314,1835.6512557435371
8.9,6386895.05012136,4146.16457818512,0.0,-86.3992728459144,466.008491732232,0.0,0.0,0.32465100712137607,86.09673714537361,8759.395897947361,1.6915592111033323e-07,0.0,9.78725268848523,0.0,0.0,-0.0006491673909211303,0.0,0.0,0.0,304.877583484152,0.48070690366818764,31915.950484395806,231.29227457277779,-0.0,0.7714314960641053,-3.33482465662624,0.0,0.0,0.0,0.289811596475,1876.4321677363619
9.0,6386886.36240696,4192.76566064952,0.0,-87.35489014524241,466.01316490144796,0.0,0.0,0.331211061573504,87.048950180136,8750.73860926248,1.7429027384556098e-07,0.0,9.787279264206049,0.0,0.0,-0.0006564646402744537,0.0,0.0,0.0,304.914566968224,0.48120347322599977,31956.671278634505,231.3483922627778,-0.0,0.7790511467656356,-3.410367985542953,0.0,0.0,0.0,0.29279657159,1917.7283034769814
9.1,6386877.579168241,4239.3672126888005,0.0,-88.3099892428128,466.01788309267204,0.0,0.0,0.337836663290016,88.0006448531208,8741.98612516728,1.7952785822647475e-07,0.0,9.787306132295026,0.0,0.0,-0.0006637619928587664,0.0,0.0,0.0,304.95195266332803,0.4817059032583963,31997.88270681864,231.40512717722223,-0.0,0.786656456351748,-3.4868555022845507,0.0,0.0,0.0,0.295780693634,1959.5414591502192
9.2,6386868.70043568,4285.96923878352,0.0,-89.26456368661921,466.022646199224,0.0,0.0,0.34452769313373605,88.95181471079759,8733.13849781304,1.8486969996597176e-07,0.0,9.787333292538843,0.0,0.0,-0.0006710594497003219,0.0,0.0,0.0,304.989740206752,0.482214204126553,32039.585964614038,231.46247898333334,-0.0,0.7942469541116308,-3.5642905548228248,0.0,0.0,0.0,0.298763871092,2001.8734486805345
9.3,6386859.72627024,4332.57174341424,0.0,-90.21860700179519,466.02745412052,0.0,0.0,0.35128402851105606,89.90245327708081,8724.19577996064,1.9031682289635688e-07,0.0,9.787360744815617,0.0,0.0,-0.0006783570118236285,0.0,0.0,0.0,305.027929220544,0.4827283863024523,32081.78226128452,231.52044734388892,-0.0,0.8018221727951894,-3.642676521275165,0.0,0.0,0.0,0.301746014831,2044.7261036410498
9.4,6386850.65673288,4379.174731092,0.0,-91.1721126897,466.03230675292804,0.0,0.0,0.35810554338107997,90.8525540515008,8715.158025072,1.9587024890965244e-07,0.0,9.787388488972983,0.0,0.0,-0.000685654680249704,0.0,0.0,0.0,305.06651933589603,0.4832484603673365,32124.472819500374,231.5790319177778,-0.0,0.8093816482616358,-3.7220168098333875,0.0,0.0,0.0,0.304727037986,2088.1012731673677
9.5,6386841.491854081,4425.7782062364,0.0,-92.1250742288328,466.037203980624,0.0,0.0,0.36499210827696005,91.80211051103281,8706.025287279599,2.015309979047149e-07,0.0,9.78741652479762,0.0,0.0,-0.0006929524559978205,0.0,0.0,0.0,305.10551016876,0.4837744370148007,32167.658875529898,231.63823235888887,-0.0,0.8169249191547687,-3.8023148587103552,0.0,0.0,0.0,0.307706855849,2132.0008238378678
9.6,6386832.23172528,4472.38217335848,0.0,-93.0774850733088,466.04214569997606,0.0,0.0,0.37194359033637603,92.7511161085728,8696.79762132552,2.0730008773836535e-07,0.0,9.787444852167651,0.0,0.0,-0.0007002503400872503,0.0,0.0,0.0,305.144901335088,0.48430632704770044,32211.3416791436,231.69804831833335,-0.0,0.8244515265782533,-3.8835741360421188,0.0,0.0,0.0,0.31068538576,2176.426639587524
9.7,6386822.87637696,4518.98663687784,0.0,-94.0293386540784,466.04713178601605,0.0,0.0,0.37895985329848797,93.69956427324242,8687.47508265288,2.131785341730298e-07,0.0,9.78747347090023,0.0,0.0,-0.0007075483335337749,0.0,0.0,0.0,305.184692450832,0.4848441413786666,32255.52249375788,231.75847944166665,-0.0,0.8319610138153835,-3.965798139807847,0.0,0.0,0.0,0.313662547011,2221.380621616932
9.8,6386813.4258700805,4565.591601183601,0.0,-94.9806283774032,466.05216212292,0.0,0.0,0.38604075752222405,94.647448410084,8678.05772728392,2.1916735081216202e-07,0.0,9.787502380843,0.0,0.0,-0.000714846437351431,0.0,0.0,0.0,305.224883119752,0.4853878910326831,32300.20259614772,231.81952537111113,-0.0,0.8394529260266026,-4.048990397731967,0.0,0.0,0.0,0.316638260755,2266.864688263032
9.9,6386803.8802656,4612.1970707563205,0.0,-95.9313476254656,466.057236591816,0.0,0.0,0.393186160010664,95.5947619000608,8668.5456119724,2.2526754906359161e-07,0.0,9.78753158181312,0.0,0.0,-0.0007221446525490184,0.0,0.0,0.0,305.265472945608,0.4859375871414169,32345.383276829747,231.88118574444445,-0.0,0.8469268099959552,-4.133154467164062,0.0,0.0,0.0,0.319612449914,2312.8807749081357
10.0,6386794.23962448,4658.80304998512,0.0,-96.8814897566736,466.06235506164,0.0,0.0,0.4003959143958,96.54149809883761,8658.938794142641,2.3148013807669206e-07,0.0,9.787561073658232,0.0,0.0,-0.0007294429801388283,0.0,0.0,0.0,305.306461529112,0.48649324094888763,32391.065839727045,231.94346019500003,-0.0,0.8543822138730892,-4.218293934963218,0.0,0.0,0.0,0.322585039097,2359.430833884168
10.1,6386784.50400768,4705.40954322864,0.0,-97.8310481032224,466.067517410472,0.0,0.0,0.40766987096292,97.48765033830482,8649.23733182856,2.3780612469002092e-07,0.0,9.78759085616501,0.0,0.0,-0.0007367414211244252,0.0,0.0,0.0,305.34784846792803,0.4870548638068292,32437.251602504348,232.0063483522222,-0.0,0.8618186869241569,-4.304412417369023,0.0,0.0,0.0,0.325555954523,2406.5168343290234
10.2,6386774.67344568,4752.01655490648,0.0,-98.7800159738376,466.07272350115204,0.0,0.0,0.415007876653656,98.43321192535922,8639.44128376512,2.442465133841959e-07,0.0,9.7876209291811,0.0,0.0,-0.0007440399765128639,0.0,0.0,0.0,305.38963335057605,0.48762246717778196,32483.94189618497,232.06984984,-0.0,0.8692357793005061,-4.39151355987702,0.0,0.0,0.0,0.328525123944,2454.140762114747
10.3,6386764.74799944,4798.62408937728,0.0,-99.72838665133679,466.077973202616,0.0,0.0,0.42240977506598404,99.3781761415992,8629.55070935784,2.508023062242992e-07,0.0,9.787651292523664,0.0,0.0,-0.0007513386473059633,0.0,0.0,0.0,305.431815765576,0.4881960626320002,32531.138065533876,232.13396428000001,-0.0,0.8766330418296148,-4.4796010370607755,0.0,0.0,0.0,0.331492476576,2502.3046196943183
10.4,6386754.72779088,4845.23215099968,0.0,-100.676153393544,466.083266377704,0.0,0.0,0.429875406463368,100.3225362427152,8619.5656686828,2.574745028144985e-07,0.0,9.787681946009865,0.0,0.0,-0.000758637434502052,0.0,0.0,0.0,305.474395295352,0.48877566185002963,32578.84146881824,232.19869128833335,-0.0,0.8840100257971274,-4.568678552456229,0.0,0.0,0.0,0.334457943033,2551.0104260202534
10.5,6386744.61278952,4891.84074410184,0.0,-101.62330943268,466.088602880112,0.0,0.0,0.43740460775952,101.2662854603184,8609.48622245616,2.6426410023696097e-07,0.0,9.787712889456861,0.0,0.0,-0.000765936339099458,0.0,0.0,0.0,305.517371516232,0.48936127662012985,32627.053477999005,232.26403047666668,-0.0,0.8913662827466851,-4.658749838414897,0.0,0.0,0.0,0.337421455261,2600.2602163961774
10.6,6386734.403147761,4938.44987301192,0.0,-102.5698479753624,466.09398257268,0.0,0.0,0.444997212542784,102.2094169988928,8599.31243215608,2.711720930064742e-07,0.0,9.787744122712295,0.0,0.0,-0.0007732353620930192,0.0,0.0,0.0,305.560744007592,0.48995291883982095,32675.775478491465,232.3299814527778,-0.0,0.898701364288653,-4.749818655819191,0.0,0.0,0.0,0.340382946481,2650.056042390638
10.7,6386724.0988656,4985.05954205808,0.0,-103.515762201996,466.09940530605604,0.0,0.0,0.45265305105784803,103.15192403792881,8589.04435987032,2.7819947301285085e-07,0.0,9.787775645532374,0.0,0.0,-0.0007805345044723372,0.0,0.0,0.0,305.604512336616,0.49055060051536775,32725.008869356796,232.39654382,-0.0,0.9060148219221902,-4.841888794109106,0.0,0.0,0.0,0.343342351132,2700.3999716695284
10.8,6386713.700004,5031.66975550752,0.0,-104.46104526768721,466.10487093088807,0.0,0.0,0.460371950205744,104.09379973100882,8578.68206841816,2.8534722947729497e-07,0.0,9.787807457795216,0.0,0.0,-0.0007878337672287591,0.0,0.0,0.0,305.648676070488,0.4911543337602341,32774.75506334991,232.46371717666668,-0.0,0.913306206848425,-4.934964070837396,0.0,0.0,0.0,0.346299604815,2751.2940879098987
10.9,6386703.206654401,5078.28051765792,0.0,-105.40569030072001,466.11037929172807,0.0,0.0,0.4681537335408,105.03503720428321,8568.225621198,2.926163488913158e-07,0.0,9.787839559226548,0.0,0.0,-0.0007951331513483958,0.0,0.0,0.0,305.693234767248,0.49176413079714404,32825.01548677584,232.53150111833335,-0.0,0.9205750698281118,-5.029048331758542,0.0,0.0,0.0,0.349254644243,2802.740490661104
11.0,6386692.61887776,5124.89183280696,0.0,-106.34969040255599,466.11593023617604,0.0,0.0,0.47599822127064,105.9756295589088,8557.67508246168,3.0000781496611287e-07,0.0,9.78787194970449,0.0,0.0,-0.000802432657815613,0.0,0.0,0.0,305.738187991032,0.492380003955505,32875.79157948975,232.5998952338889,-0.0,0.9278209609903575,-5.124145450383924,0.0,0.0,0.0,0.352207407193,2854.7412951963793
11.1,6386681.9367350405,5171.5037051304,0.0,-107.2930386487488,466.121523602688,0.0,0.0,0.483905230240944,106.91556986800082,8547.03051704016,3.075226085854524e-07,0.0,9.787904629015731,0.0,0.0,-0.0008097322876077953,0.0,0.0,0.0,305.783535293784,0.4930019656724386,32927.0847950884,232.66889910944445,-0.0,0.9350434297080715,-5.220259328026311,0.0,0.0,0.0,0.355157832461,2907.2986324122853
11.2,6386671.16031768,5218.1161389259205,0.0,-108.23572808742001,466.127159232768,0.0,0.0,0.49187457393544803,107.85485117937601,8536.29199046544,3.1516170774458095e-07,0.0,9.787937596946955,0.0,0.0,-0.0008170320417075628,0.0,0.0,0.0,305.8292762244,0.493630028493296,32978.89660067082,232.73851232611113,-0.0,0.9422420244289329,-5.317393893310553,0.0,0.0,0.0,0.358105859815,2960.414648661132
11.3,6386660.28962568,5264.72913836928,0.0,-109.1777517401736,466.13283695572807,0.0,0.0,0.4999060624668,108.79346651220001,8525.45956900104,3.2292608750484624e-07,0.0,9.787970853315318,0.0,0.0,-0.000824331921087064,0.0,0.0,0.0,305.87541032872804,0.49426420507011193,33031.22847707766,232.80873446111113,-0.0,0.9494162925508405,-5.415553102173575,0.0,0.0,0.0,0.361051429957,3014.0915056456397
11.4,6386649.32478096,5311.3427076972,0.0,-110.1191026008768,466.138556603928,0.0,0.0,0.507999502564368,109.7314088597304,8514.53331958104,3.308167199413379e-07,0.0,9.788004397937998,0.0,0.0,-0.0008316319267201928,0.0,0.0,0.0,305.921937143472,0.4949045081621197,33084.08191879544,232.87956508611114,-0.0,0.9565657802840181,-5.514740937553015,0.0,0.0,0.0,0.363994484481,3068.3313802561465
11.5,6386638.265814,5357.956851085441,0.0,-111.05977363626961,466.14431800972807,0.0,0.0,0.516154697562048,110.66867118718321,8503.51330990152,3.3883457408354587e-07,0.0,9.788038230540714,0.0,0.0,-0.0008389320595738613,0.0,0.0,0.0,305.968856211432,0.4955509506347208,33137.45843376503,232.95100376833335,-0.0,0.9636900325131192,-5.614961409164801,0.0,0.0,0.0,0.366934965836,3123.1364644317573
11.6,6386627.11284672,5404.57157270976,0.0,-111.99975778566001,466.150120993296,0.0,0.0,0.524371447398264,111.6052464320376,8492.39960826816,3.469806158630007e-07,0.0,9.788072351001588,0.0,0.0,-0.0008462323206149821,0.0,0.0,0.0,306.016167063216,0.4962035454605153,33191.35954376471,233.02305007222222,-0.0,0.9707885926860222,-5.71621855323626,0.0,0.0,0.0,0.36987281729,3178.5089650310642
11.7,6386615.865909601,5451.18687668496,0.0,-112.93904796000962,466.155965380896,0.0,0.0,0.53264954859768,112.5411275046456,8481.19228374864,3.5525580806789494e-07,0.0,9.788106759076838,0.0,0.0,-0.0008535327108087222,0.0,0.0,0.0,306.06386922943204,0.4968623057177563,33245.78678412286,233.09570355555556,-0.0,0.9778610026848309,-5.8185164324171605,0.0,0.0,0.0,0.372807982898,3234.451103664567
11.8,6386604.5250636,5497.8027671563195,0.0,-113.8776370434576,466.16185099269603,0.0,0.0,0.540988794252912,113.4763072870128,8469.89140614216,3.636611102819967e-07,0.0,9.788141454522657,0.0,0.0,-0.0008608332311097766,0.0,0.0,0.0,306.11196223154406,0.49752724459138,33300.7417039095,233.16896377222224,-0.0,0.9849068027102216,-5.921859135245916,0.0,0.0,0.0,0.375740407466,3290.9651165653995
11.9,6386593.09040016,5544.41924823864,0.0,-114.8155178902728,466.16777763972,0.0,0.0,0.549388974018432,114.41077863279841,8458.497045888,3.721974788322898e-07,0.0,9.788176437186705,0.0,0.0,-0.0008681338824780766,0.0,0.0,0.0,306.160445587968,0.4981983753714599,33356.22586564901,233.2428302727778,-0.0,0.9919255311880302,-6.026250776149593,0.0,0.0,0.0,0.378670036524,3348.0532544169537
12.0,6386581.561980241,5591.03632404672,0.0,-115.75268332851121,466.17374513908806,0.0,0.0,0.557849874098376,115.3445343682296,8447.0092742484,3.8086586673486814e-07,0.0,9.788211706825177,0.0,0.0,-0.0008754346658665719,0.0,0.0,0.0,306.209318820168,0.49887571145423776,33412.24084575102,233.31730260111112,-0.0,0.9989167246313574,-6.131695495088048,0.0,0.0,0.0,0.381596816293,3405.7177822092444
12.1,6386569.93989528,5637.6539986344,0.0,-116.6891261557488,466.179753295728,0.0,0.0,0.56637127722216,116.277567289968,8435.42816312568,3.8966722364781245e-07,0.0,9.788247263255245,0.0,0.0,-0.0008827355822229763,0.0,0.0,0.0,306.258581437416,0.49955926634057696,33468.7882341753,233.39238029833336,-0.0,1.0058799175827413,-6.238197457287035,0.0,0.0,0.0,0.384520693661,3463.9609790856925
12.2,6386558.2241757605,5684.272276055521,0.0,-117.6248391424344,466.185801920664,0.0,0.0,0.57495296264448,117.2098701666336,8423.753785123201,3.98602495803122e-07,0.0,9.788283106202641,0.0,0.0,-0.0008900366324950035,0.0,0.0,0.0,306.308232942888,0.5002490536375092,33525.86963452749,233.46806289944445,-0.0,1.0128146424673672,-6.3457608529713205,0.0,0.0,0.0,0.387441616151,3522.7851381659643
12.3,6386546.4149436,5730.891160363921,0.0,-118.5598150291464,466.19189081272805,0.0,0.0,0.583594706108736,118.14143573850001,8411.98621366728,4.076726259665722e-07,0.0,9.788319235454052,0.0,0.0,-0.0008973378176251313,0.0,0.0,0.0,306.358272848904,0.5009450870556571,33583.48666405908,233.5443499361111,-0.0,1.0197204295352396,-6.45438989700881,0.0,0.0,0.0,0.3903595319,3582.1925663975467
12.4,6386534.512229281,5777.510655552481,0.0,-119.4940465284216,466.198019776848,0.0,0.0,0.592296279847032,119.0722567156656,8400.12552279384,4.168785533696467e-07,0.0,9.78835565082664,0.0,0.0,-0.0009046391385540923,0.0,0.0,0.0,306.40870064644804,0.5016473804102651,33641.64095376322,233.6212409338889,-0.0,1.0265968067544249,-6.564088828777116,0.0,0.0,0.0,0.393274389633,3642.185584383375
12.5,6386522.51615472,5824.13076564456,0.0,-120.4275263229264,466.20418860576,0.0,0.0,0.601057452561888,120.0023257801872,8388.17178739224,4.2622121366764955e-07,0.0,9.788392352076622,0.0,0.0,-0.0009119405962138921,0.0,0.0,0.0,306.459515835648,0.5023559476222308,33700.33414823105,233.698735415,-0.0,1.0334432997265366,-6.674861911763209,0.0,0.0,0.0,0.39618613864,3702.766526228618
12.6,6386510.4267504,5870.75149460256,0.0,-121.3602470660664,466.21039709219997,0.0,0.0,0.6098779893988081,120.9316355842512,8376.12508296144,4.3570153887163733e-07,0.0,9.788429338990682,0.0,0.0,-0.0009192421915382822,0.0,0.0,0.0,306.510717901392,0.5030708027144962,33759.56790574746,233.77683289666666,-0.0,1.0402594315933207,-6.786713433252046,0.0,0.0,0.0,0.399094728753,3763.937739334794
12.7,6386498.24413824,5917.3728463584,0.0,-122.29220138229121,466.216645028904,0.0,0.0,0.6187576519279919,121.8601787507832,8363.985485823361,4.4532045730129516e-07,0.0,9.788466611294552,0.0,0.0,-0.0009265439254575226,0.0,0.0,0.0,306.562306337712,0.5037919598156563,33819.34389824321,233.85553289055557,-0.0,1.047044722974382,-6.8996477041486415,0.0,0.0,0.0,0.402000110327,3825.701584256125
12.8,6386485.96834872,5963.99482490496,0.0,-123.22338186557042,466.222932202512,0.0,0.0,0.627696198135192,122.7879478728384,8351.75307300096,4.550788935290864e-07,0.0,9.7885041688054,0.0,0.0,-0.0009338457988931476,0.0,0.0,0.0,306.614280620352,0.5045194331558356,33879.66381134282,233.93483490444444,-0.0,1.0537986918648747,-7.013669058488761,0.0,0.0,0.0,0.404902234217,3888.060434517599
12.9,6386473.59947328,6010.6174341132,0.0,-124.1537810812224,466.229258396616,0.0,0.0,0.6366933823973281,123.7149355139064,8339.42792230968,4.6497776831392987e-07,0.0,9.788542011279437,0.0,0.0,-0.0009411478127684361,0.0,0.0,0.0,306.66664023115203,0.5052532370692652,33940.52934436456,234.01473844055556,-0.0,1.060520853573227,-7.1287818532165135,0.0,0.0,0.0,0.40780105176,3951.0166764186542
13.0,6386461.137603361,6057.240677884561,0.0,-125.0833915631712,466.235623388712,0.0,0.0,0.6457489554581041,124.64113420760641,8327.01011220504,4.750179985558214e-07,0.0,9.788580138472875,0.0,0.0,-0.0009484499679979409,0.0,0.0,0.0,306.719384642808,0.5059933859937673,34001.94221022468,234.09524299777777,-0.0,1.0672107206455212,-7.244990467917455,0.0,0.0,0.0,0.410696514757,4014.5727088656026
13.1,6386448.5828304,6103.864560059521,0.0,-126.01220581668962,466.24202695629606,0.0,0.0,0.654862664415816,125.5665364573824,8314.499721996,4.852004972364928e-07,0.0,9.788618550111442,0.0,0.0,-0.0009557522654979594,0.0,0.0,0.0,306.77251332496803,0.5067398944681784,34063.90413553322,234.17634806833334,-0.0,1.0738678027943227,-7.362299304373765,0.0,0.0,0.0,0.413588575455,4078.730943184894
13.2,6386435.9352153605,6150.489084539521,0.0,-126.940216315656,466.248468876864,0.0,0.0,0.6640342526898241,126.4911347358936,8301.896831723041,4.955261733565797e-07,0.0,9.788657246012312,0.0,0.0,-0.0009630547061725726,0.0,0.0,0.0,306.826025741184,0.507492777134926,34126.41686054607,234.25805314111113,-0.0,1.0804916068230597,-7.48071278629736,0.0,0.0,0.0,0.416477186531,4143.493802917234
13.3,6386423.194819201,6197.11425510408,0.0,-127.8674155043832,466.25494891572004,0.0,0.0,0.6732634600114081,127.41492148653842,8289.2015220972,5.059959318850073e-07,0.0,9.788696225931693,0.0,0.0,-0.0009703572909310967,0.0,0.0,0.0,306.87992135196,0.508252048737452,34189.482139260756,234.34035769944444,-0.0,1.0870816365681972,-7.600235358974028,0.0,0.0,0.0,0.419362301072,4208.863723645211
13.4,6386410.36173336,6243.74007559368,0.0,-128.7937957957896,466.261466844264,0.0,0.0,0.682550022396336,128.3378891213208,8276.41387471344,5.16610673694413e-07,0.0,9.788735489564841,0.0,0.0,-0.000977660020674122,0.0,0.0,0.0,306.9341996178,0.5090177241207279,34253.101739272795,234.42326122166665,-0.0,1.0936373928325123,-7.720871488907575,0.0,0.0,0.0,0.422243872566,4274.843152787418
13.5,6386397.436079761,6290.36654972688,0.0,-129.7193495726184,466.268022418656,0.0,0.0,0.69189367212048,129.26003002146,8263.53397183728,5.273712955087863e-07,0.0,9.78877503672892,0.0,0.0,-0.0009849628962952568,0.0,0.0,0.0,306.988859990064,0.5097898182322854,34317.277441871454,234.5067631811111,-0.0,1.1001583733183722,-7.842625663463966,0.0,0.0,0.0,0.425121854882,4341.43454940692
13.6,6386384.41791936,6336.99368131368,0.0,-130.644069186828,466.274615407248,0.0,0.0,0.701294137701528,130.18133653769522,8250.56189652672,5.382786898406376e-07,0.0,9.788814867119193,0.0,0.0,-0.0009922659186898549,0.0,0.0,0.0,307.04390191706403,0.5105683461196402,34382.01104199189,234.5908630477778,-0.0,1.1066440725743547,-7.965502390515469,0.0,0.0,0.0,0.427996202256,4408.6403839958075
13.7,6386371.30728264,6383.62147407264,0.0,-131.5679469592872,466.281245557056,0.0,0.0,0.710751143868504,131.1018009899808,8237.49773260176,5.493337449351473e-07,0.0,9.788854980522345,0.0,0.0,-0.0009995690887445437,0.0,0.0,0.0,307.099324841016,0.5113533229313215,34447.30434821514,234.67556028500002,-0.0,1.1130939819285253,-8.089506198129277,0.0,0.0,0.0,0.430866869282,4476.463138288449
13.8,6386358.10435248,6430.24993166136,0.0,-132.4909751797752,466.28791263033605,0.0,0.0,0.720264411549576,132.0214156668768,8224.341564644401,5.605373447090788e-07,0.0,9.78889537669459,0.0,0.0,-0.0010068724073442055,0.0,0.0,0.0,307.155128204136,0.5121447639153273,34513.15918281596,234.7608543511111,-0.0,1.1195075894439543,-8.214641634122687,0.0,0.0,0.0,0.433733810893,4544.905305031676
13.9,6386344.80912888,6476.8790577984,0.0,-133.413146106372,466.29461636800806,0.0,0.0,0.729833657832432,132.9401728255488,8211.0934780596,5.718903686879475e-07,0.0,9.788936055331183,0.0,0.0,-0.0010141758753684854,0.0,0.0,0.0,307.211311439496,0.5129426844211848,34579.57738166712,234.8467447011111,-0.0,1.125884379851995,-8.340913265573796,0.0,0.0,0.0,0.436596982355,4613.969387798047
14.0,6386331.421733761,6523.5088561413595,0.0,-134.3344519666776,466.301356520136,0.0,0.0,0.7394585959520881,133.8580646923776,8197.753558922881,5.833936919536605e-07,0.0,9.788977016188339,0.0,0.0,-0.001021479493691794,0.0,0.0,0.0,307.267873980168,0.5137470998968586,34646.56079438303,234.9332307827778,-0.0,1.1322238345033515,-8.468325678777019,0.0,0.0,0.0,0.439456339249,4683.657900756021
14.1,6386317.94225856,6570.13933031736,0.0,-135.25488495567842,466.30813282764,0.0,0.0,0.7491389352665041,134.7750834611304,8184.32189422416,5.950481850747032e-07,0.0,9.789018259052746,0.0,0.0,-0.0010287832631850505,0.0,0.0,0.0,307.324815253128,0.5145580258902972,34714.111284128216,235.0203120411111,-0.0,1.1385254313235975,-8.596883478486887,0.0,0.0,0.0,0.442311837462,4753.973368449709
14.2,6386304.370794721,6616.77048392304,0.0,-136.174437237576,466.31494503144,0.0,0.0,0.7588743812169599,135.6912212953992,8170.798571593441,6.0685471405378e-07,0.0,9.789059783589183,0.0,0.0,-0.0010360871847139381,0.0,0.0,0.0,307.382134679256,0.5153754780473704,34782.23072771306,235.10798791444444,-0.0,1.1447886447597975,-8.72659128774013,0.0,0.0,0.0,0.445163433179,4824.918325583411
14.3,6386290.7074032,6663.40232052456,0.0,-137.09310094456802,466.321792863312,0.0,0.0,0.7686646353250081,136.60647032616242,8157.183679575121,6.188141402580006e-07,0.0,9.789101589584343,0.0,0.0,-0.0010433912591406495,0.0,0.0,0.0,307.439831679432,0.5161994721170243,34850.921015689586,235.19625783722222,-0.0,1.1510129457271276,-8.85745374732187,0.0,0.0,0.0,0.448011082867,4896.495316767858
14.4,6386276.952205921,6710.0348436576005,0.0,-138.010868176848,466.32867605808,0.0,0.0,0.7785093951406561,137.5208226523944,8143.47730744512,6.309273203682656e-07,0.0,9.78914367673348,0.0,0.0,-0.0010506954873203962,0.0,0.0,0.0,307.497905665392,0.5170300239347886,34920.18405211206,235.28512123722223,-0.0,1.1571978015688424,-8.989475515409788,0.0,0.0,0.0,0.450854743269,4968.706896434016
14.5,6386263.10526384,6756.668056888321,0.0,-138.9277310029104,466.33559433837604,0.0,0.0,0.78840835423932,138.43427034137042,8129.67954521088,6.431951063024724e-07,0.0,9.789186044792807,0.0,0.0,-0.0010579998701066439,0.0,0.0,0.0,307.556356048872,0.5178671494454528,34990.02175472849,235.37457753944446,-0.0,1.1633426760117924,-9.122661267307212,0.0,0.0,0.0,0.453694371393,5041.555628330353
14.6,6386249.1666988805,6803.30196369144,0.0,-139.84368145833122,466.34254743292803,0.0,0.0,0.7983612021791521,139.34680542836162,8115.790483794241,6.556183451683904e-07,0.0,9.789228693488065,0.0,0.0,-0.0010653044083458773,0.0,0.0,0.0,307.615182235512,0.5187108646927597,35060.43605488489,235.46462616166667,-0.0,1.1694470291174932,-9.257015694642442,0.0,0.0,0.0,0.456529924504,5115.044085494105
14.7,6386235.136572001,6849.936567541681,0.0,-140.75871154729202,466.349535058272,0.0,0.0,0.8083676244858001,140.25841991602562,8101.810214818081,6.681978791851226e-07,0.0,9.789271622514503,0.0,0.0,-0.0010726091028793454,0.0,0.0,0.0,307.67438362790404,0.5195611858080664,35131.428897573125,235.5552665177778,-0.0,1.1755103172465398,-9.392543505279791,0.0,0.0,0.0,0.459361360112,5189.174850059761
14.8,6386221.014974641,6896.5718718528005,0.0,-141.6728132416656,466.356556933992,0.0,0.0,0.81842730261888,141.1691057756256,8087.738830758721,6.809345456359799e-07,0.0,9.78931483159786,0.0,0.0,-0.0010799139545448059,0.0,0.0,0.0,307.73395961949603,0.5204181290258056,35203.00224138308,235.64649801611114,-0.0,1.1815319930230217,-9.52924942278579,0.0,0.0,0.0,0.462188635966,5263.950512780253
14.9,6386206.80202872,6943.20788003856,0.0,-142.5859784801016,466.363612770528,0.0,0.0,0.8285399139445441,142.07885494459202,8073.576424884961,6.938291767899431e-07,0.0,9.789358320494348,0.0,0.0,-0.0010872189641765264,0.0,0.0,0.0,307.793909606784,0.5212817106731783,35275.158058406865,235.73832005888892,-0.0,1.187511505281143,-9.667138185939892,0.0,0.0,0.0,0.465011710047,5339.373673026961
15.0,6386192.49782568,6989.844595512721,0.0,-143.49819916955042,466.37070227832004,0.0,0.0,0.838705131705,142.9876593289608,8059.32309125808,7.068825998458113e-07,0.0,9.789402088899232,0.0,0.0,-0.0010945241326000474,0.0,0.0,0.0,307.85423297712,0.5221519471701535,35347.89833447822,235.83073204555558,-0.0,1.1934482990385336,-9.806214548245162,0.0,0.0,0.0,0.467830540557,5415.4469383587875
