time,eiPosition_m_X,eiPosition_m_Y,eiPosition_m_Z,gePosition_m_X,gePosition_m_Y,gePosition_m_Z,eiVelocity_m_s_X,eiVelocity_m_s_Y,eiVelocity_m_s_Z,feVelocity_m_s_X,feVelocity_m_s_Y,feVelocity_m_s_Z,altitudeMsl_m,longitude_rad,latitude_rad,localGravity_m_s2,eulerAngle_rad_Yaw,eulerAngle_rad_Pitch,eulerAngle_rad_Roll,bodyAngularRateWrtEi_rad_s_Roll,bodyAngularRateWrtEi_rad_s_Pitch,bodyAngularRateWrtEi_rad_s_Yaw,altitudeRateWrtMsl_m_s,speedOfSound_m_s,airDensity_kg_m3,ambientPressure_Pa,ambientTemperature_K,aero_bodyForce_N_X,aero_bodyForce_N_Y,aero_bodyForce_N_Z,aero_bodyMoment_Nm_L,aero_bodyMoment_Nm_M,aero_bodyMoment_Nm_N,mach,dynamicPressure_Pa,trueAirspeed_m_s
0.0,6387281.000000211,0.0,0.0,6387281.000000211,0.0,0.0,0.0,465.7678758931653,0.0,0.0,0.0,0.0,9144.000000001135,0.0,0.0,9.786072158121431,0.0,2.220446049250313e-16,0.0,0.0,0.0,1.6191747942405682e-20,-0.0,303.22998396963123,0.459050104915564,30149.23809906436,228.79937386033285,0.0,0.0,-0.0,0.0,0.0,0.0,0.0,0.0,0.0
0.1,6387280.951070686,46.57678747038719,-1.392244777399762e-24,6387280.951240508,2.3704490504383725e-07,-1.392244777399762e-24,-0.9786063113075395,465.76787232516654,-5.568984526910152e-23,-5.568984548507419e-23,7.111341024591175e-06,0.9752098783759647,9143.951240299095,3.711202103890537e-14,1.6303520605432137e-29,9.786072307774276,0.0,2.220446049309347e-16,-7.292115037112004e-06,0.0,0.0,1.6191747942405682e-20,-0.9752098783759647,303.2301933871599,0.45905280335960824,30149.456969734427,228.7996898885525,6.403357158788084e-20,6.508388158039549e-16,-0.00039818835709301646,0.0,0.0,0.0,0.0032160711554101,0.21828748250929658,0.975197228627791
0.2000000000000001,6387280.804279942,93.15357422716276,-2.2276027470137343e-23,6387280.804959227,1.8963543475340128e-06,-2.2276027470137343e-23,-1.9572071955362311,465.7678616209914,-4.455219876381693e-22,-4.455219944361045e-22,2.8445264869067447e-05,1.9504143295695502,9143.804959019682,2.9689540908576315e-13,2.608576298952607e-28,9.786072756739506,0.0,2.2204460494864226e-16,-1.4584230296895436e-05,0.0,0.0,1.6191747942405682e-20,-1.95041432956955,303.2308216482316,0.45906089888507456,30150.113599239845,228.80063798732633,2.5613737794558373e-19,2.1959061845839546e-14,-0.0015927726532369165,0.0,0.0,0.0,0.0064321110867799,0.8731604691382908,1.9503890302991675
0.3000000000000002,6387280.559629606,139.73035955671483,-1.1277329718430806e-22,6387280.561157999,6.400174574368923e-06,-1.1277329718430806e-22,-2.935797225343603,465.7678437806981,-1.5036548515286788e-21,-1.503654903126232e-21,6.40014749486047e-05,2.925607926134756,9143.561157791162,1.0020187015565486e-12,1.3206023856097843e-27,9.786073505012189,0.0,2.22044604978146e-16,-2.1876346002017594e-05,0.0,0.0,1.6191747942405682e-20,-2.925607926134756,303.2318687433073,0.45907439162103547,30151.208003491673,228.8022181461881,5.763206937628282e-19,1.6698921601387779e-13,-0.0035838105624512876,0.0,0.0,0.0,0.0096480885698442,1.9646505768750677,2.9255699777940936
0.4000000000000003,6387280.217121038,186.30714274543158,-3.5642332402348604e-22,6387280.219838183,1.5170709939194094e-05,-3.5642332402348604e-22,-3.914370972859932,465.7678188042844,-3.564279115522043e-21,-3.564279333261607e-21,0.00011377947619663144,3.9007852400983403,9143.21983797496,2.375143945004252e-12,4.1738026974871484e-27,9.786074552588243,0.0,2.2204460501943316e-16,-2.9168462375142462e-05,0.0,0.0,1.6191747942405682e-20,-3.9007852400983403,303.23333466229747,0.4590932818574528,30152.74021507906,228.80443035645936,1.02459897654686e-18,7.045428905363546e-13,-0.006371398206180813,0.0,0.0,0.0,0.0128639723798899,3.492810499646558,3.900734643365289
0.5000000000000003,6387279.77675613,232.88392307970096,-8.70186730574028e-22,6387279.781001671,2.963010461555968e-05,-8.70186730574028e-22,-4.892923009424664,465.76778669174735,-6.961633838232427e-21,-6.961634502501533e-21,0.00017777857656056664,4.875940842696245,9142.781001462767,4.638923866102044e-12,1.0190095536924164e-26,9.786075899462013,0.0,2.220446050724852e-16,-3.646057963892281e-05,0.0,0.0,1.6191747942405682e-20,-4.875940842696246,303.23521939113806,0.45911757000106745,30154.71027969204,228.80727460608253,1.6009938661613935e-18,2.1498628428034337e-12,-0.009955670150428647,0.0,0.0,0.0,0.0160797312915284,5.457714006746816,4.875877598474657
0.6000000000000004,6387279.238537335,279.46069984591026,-1.8044511361436088e-21,6387279.244650915,5.120042545984598e-05,-1.8044511361436088e-21,-5.871447905322816,465.767747443083,-1.2030022582727796e-20,-1.2030024235600347e-20,0.0002559978846742886,5.851069304109995,9142.244650707195,8.015999222630548e-12,2.1130556032364682e-26,9.786077545626146,0.0,2.220446051372786e-16,-4.3752698015998074e-05,0.0,0.0,1.6191747942405682e-20,-5.851069304109995,303.23752291165994,0.4591472565737032,30157.11825598473,228.8107508794229,2.305533184174498e-18,5.3509919367182246e-12,-0.014336799401700273,0.0,0.0,0.0,0.0192953340784768,7.859455940614003,5.850993413529676
0.7000000000000005,6387278.602467634,326.03747233044635,-3.3430384133489245e-21,6387278.610788894,8.130363965481165e-05,-3.3430384133489245e-21,-6.849940229521424,465.76770105828655,-1.9103829539016994e-20,-1.9103833111765057e-20,0.00034843631230094735,6.826165193203164,9141.61078868544,1.2728995337306855e-11,3.9147782445683804e-26,9.78607949107174,0.0,2.220446052137845e-16,-5.104481772899547e-05,0.0,0.0,1.6191747942405682e-20,-6.826165193203165,303.2402452017446,0.4591823422142818,30159.964215739834,228.81485915750375,3.1382509330305907e-18,1.1567135328800399e-11,-0.01951499740185625,0.0,0.0,0.0,0.0225107495133258,10.69815221400774,6.826076657619874
0.8000000000000006,6387277.868550554,372.61423981969625,-5.703213556835542e-21,6387277.879419141,0.00012136159507907383,-5.703213556835542e-21,-7.828394549406068,465.76764753735233,-2.851753564411701e-20,-2.8517542609830874e-20,0.00045509257239824185,7.8012230772578866,9140.879418932222,1.900051905838023e-11,6.678600002702664e-26,9.786081735788215,0.0,2.220446053019691e-16,-5.833693900051953e-05,0.0,0.0,1.6191747942405682e-20,-7.8012230772578866,303.2433862351833,0.4592228276770011,30163.248243722097,228.81959941779294,4.0991872950231825e-18,2.255525908476841e-11,-0.025490514021722116,0.0,0.0,0.0,0.0257259463673239,13.973939806507241,7.801121898253327
0.9000000000000007,6387277.03679017,419.1910016000457,-9.135695163863e-21,6387277.050545726,0.00017279600249067847,-9.135695163863e-21,-8.806805430517366,465.7675868802739,-4.0605734699217383e-20,-4.0605747251917143e-20,0.0005759651800825049,8.776237521711375,9140.050545518186,2.70531560042342e-11,1.0698118374497604e-25,9.786084279763385,0.0,2.2204460540179295e-16,-6.562906205315557e-05,0.0,0.0,1.6191747942405682e-20,-8.776237521711375,303.24694598177075,0.4592687138325358,30166.97043777714,228.82497163434275,5.1883886310934556e-18,4.0650678788645034e-11,-0.03226363755362026,0.0,0.0,0.0,0.028940893410147,17.686976760415725,8.776123701093189
1.0000000000000009,6387276.107191096,465.7677569578796,-1.3924667526440308e-20,6387276.124173265,0.00023702840946839327,-1.3924667526440308e-20,-9.785167436287624,465.7675190870439,-5.570314948343817e-20,-5.57031707416897e-20,0.0007110524522649005,9.751203089892554,9139.124173055614,3.7109466517556095e-11,1.6306119988836254e-25,9.786087122983437,0.0,2.220446055132117e-16,-7.292118710946627e-05,0.0,0.0,1.6191747942405682e-20,-9.751203089892556,303.2509244072809,0.4593200016677242,30171.13090880782,228.83097577775317,6.405907479436352e-18,6.88505984292972e-11,-0.03983469470269856,0.0,0.0,0.0,0.0321555594096755,21.837442176008665,9.751076629694325
1.0999999999999897,6387275.0797584895,512.3445051795826,-2.0387794334648286e-20,6387275.100306916,0.000315480185043763,-2.0387794334648286e-20,-10.763475127777442,465.767444157654,-7.41446478637225e-20,-7.414468210069161e-20,0.000860352506998611,10.726114342758692,9138.10030670634,4.939198329325659e-11,2.3874596653545896e-25,9.78609026543293,0.0,2.220446056361755e-16,-8.021331439198106e-05,0.0,0.0,1.6191747942405682e-20,-10.72611434275869,303.25532147343347,0.4593766922851338,30175.729780740898,228.8376118151202,7.751802553912862e-18,1.1089971227239829e-10,-0.04820405057705978,0.0,0.0,0.0,0.035369913131774,26.42553620612128,10.725975245239914
1.1999999999999786,6387273.95449806,558.921245551538,-2.8876233990734534e-20,6387273.978952386,0.0004095724994908126,-2.8876233990734534e-20,-11.741723063412469,465.76736209209474,-9.62652589003238e-20,-9.626531179956804e-20,0.001023863263576769,11.700965838632142,9136.978952177229,6.412320824822463e-11,3.3814763288570904e-25,9.786093707094775,0.0,2.2204460577062936e-16,-8.750544412320675e-05,0.0,0.0,1.6191747942405682e-20,-11.700965838632143,303.26013713791457,0.45943878690331913,30180.76719055005,228.84487971006544,9.226138742279706e-18,1.713735843062497e-10,-0.05737210867675357,0.0,0.0,0.0,0.0385839233400667,31.451480050113677,11.700814106278234
1.2999999999999676,6387272.731416056,605.497977360129,-3.977465653351919e-20,6387272.760115925,0.0005207263053577524,-3.977465653351919e-20,-12.719905798720228,465.76727289035546,-1.2240018894744702e-19,-1.2240026788156236e-19,0.0012015824420645285,12.675752132937184,9135.760115716768,8.152560958557046e-11,4.657707774485828e-25,9.786097447950272,0.0,2.2204460591651326e-16,-9.479757652560653e-05,0.0,0.0,1.6191747942405682e-20,-12.675752132937182,303.26537135439196,0.4595062868570137,30186.24328827391,228.85277942275806,1.0828987104232014e-17,2.5576463545308686e-10,-0.06733931088160164,0.0,0.0,0.0,0.0417975587957114,36.915515947198394,12.675587768459456
1.3999999999999566,6387271.410519256,652.0746998917368,-5.350126217260112e-20,6387271.443804316,0.0006503623168802528,-5.350126217260112e-20,-13.698017886066976,465.76717655242874,-1.528848377485363e-19,-1.5288495208787613e-19,0.0013935075689874568,13.650467777936878,9134.443804107106,1.0182161860541126e-10,6.265126250835803e-25,9.786101487979119,0.0,2.220446060737616e-16,-0.00010208971182161557,0.0,0.0,1.6191747942405682e-20,-13.650467777936884,303.2710240725502,0.45957919359757715,30192.158237054904,228.86131090996628,1.2560424869266561e-17,3.705338793286698e-10,-0.07810613743791366,0.0,0.0,0.0,0.045010788257171,42.817907169156285,13.650290784272553
1.4999999999999456,6387269.991815009,698.6514124327406,-7.050780143180231e-20,6387270.030024903,0.0007999009865314085,-7.050780143180231e-20,-14.67605387439474,465.76707307830094,-1.880548145256546e-19,-1.8805497596943423e-19,0.0015996359650590655,14.625107322470118,9133.030024692456,1.252336260673647e-10,8.256632828848011e-25,9.786105827159322,0.0,2.220446062423035e-16,-0.00010938185023362203,0.0,0.0,1.6191747942405682e-20,-14.625107322470118,303.2770952379696,0.4596575086914305,30198.512213015158,228.87047412487345,1.4420535434301946e-17,5.232586168378603e-10,-0.08967310694368752,0.0,0.0,0.0,0.0482235804800071,49.15893801222384,14.62491770278228
1.5999999999999346,6387268.4753111955,745.2281142695218,-9.127959690123566e-20,6387268.518785564,0.0009707624921459511,-9.127959690123566e-20,-15.654008308958366,465.76696246795984,-2.282459540625073e-19,-2.282461769949314e-19,0.0018199647546576839,15.59966531168867,9131.518785355238,1.519839802085743e-10,1.0689059949028832e-24,9.786110465467296,0.0,2.2204460642206315e-16,-0.00011667399198397734,0.0,0.0,1.6191747942405682e-20,-15.59966531168867,303.2835847922301,0.45974123382138327,30205.305405367184,228.88026901723254,1.6409408361171258e-17,7.226678132707902e-10,-0.10204077633301697,0.0,0.0,0.0,0.0514359042166437,55.93891378854575,15.599463069366292
1.6999999999999236,6387266.861016243,791.8048046884583,-1.1633556659733724e-19,6387266.910094735,0.0011643667102349167,-1.1633556659733724e-19,-16.63187573106279,465.766844721392,-2.737943327806185e-19,-2.737946346563891e-19,0.0020544908624016652,16.57413628679446,9129.910094526307,1.8229498259963485e-10,1.3623174156965847e-24,9.786115402877805,0.0,2.220446066129593e-16,-0.00012396613729497886,0.0,0.0,1.6191747942405682e-20,-16.57413628679446,303.29049267286825,0.4598303707860733,30212.538016371804,228.89069553329972,1.8527139373877657e-17,9.787436438946016e-10,-0.11520974085902659,0.0,0.0,0.0,0.0546477282161508,63.15816081681928,16.573921425452355
1.7999999999999126,6387265.148939125,838.3814829759258,-1.4622824893015056e-19,6387265.203961384,0.0013821331980103109,-1.4622824893015056e-19,-17.609650677800285,465.76671983858387,-3.250362848080895e-19,-3.2503668655882963e-19,0.002303211014079117,17.548514784776824,9128.203961174726,2.1638888536413373e-10,1.7123679027056828e-24,9.786120639363991,0.0,2.220446068149054e-16,-0.0001312582863888803,0.0,0.0,1.6191747942405682e-20,-17.548514784776817,303.2978188134225,0.459924921500545,30220.21026138847,228.90175361590084,2.0773830355691198e-17,1.3027991656124412e-09,-0.1291806340758176,0.0,0.0,0.0,0.057859021224014,70.81702641239767,17.54828730825565
1.899999999999901,6387263.339089365,884.9581484182997,-1.8154382927709614e-19,6387263.400395035,0.0016254811748039502,-1.8154382927709614e-19,-18.587327681787983,465.76658781952045,-3.8230841804049537e-19,-3.8230894450973875e-19,0.002566121735140454,18.522795338150022,9126.400394825945,2.5448788830337323e-10,2.1259218274361885e-24,9.78612617489735,0.0,2.220446070278097e-16,-0.00013855043948788302,0.0,0.0,1.6191747942405682e-20,-18.522795338150022,303.30556314335655,0.46002488799524655,30228.322368797737,228.9134432043136,2.3149589345987185e-17,1.7075723867832896e-09,-0.14395412781880865,0.0,0.0,0.0,0.0610697519819269,78.91587887651198,18.52255525051627
1.9999999999998903,6387261.431477031,931.5348003019549,-2.22902168162414e-19,6387261.499405757,0.0018958295010183424,-2.22902168162414e-19,-19.564901270905484,465.7664486641863,-4.459476301933256e-19,-4.4594831059697175e-19,0.0028432193509119676,19.496972474690867,9124.49940554816,2.9681413563461115e-10,2.6102379054483913e-24,9.786132009447728,0.0,2.220446072515751e-16,-0.00014584259681413078,0.0,0.0,1.6191747942405682e-20,-19.496972474690864,303.3137255881192,0.46013027241679677,30236.874580067386,228.92576423435557,2.5654530536954072e-17,2.207309695440817e-09,-0.15953093218426276,0.0,0.0,0.0,0.0642798892275587,87.45510748504863,19.496719780236816
2.09999999999988,6387259.426112744,978.1114379132619,-2.7095683104140904e-19,6387259.501004173,0.002194596656032525,-2.7095683104140904e-19,-20.542365968032474,465.76630237256506,-5.162911248455467e-19,-5.162919932570962e-19,0.0031344999865901306,20.471040717176344,9122.501003964811,3.4358971256569904e-10,3.172969545137518e-24,9.786138142983335,0.0,2.2204460748609935e-16,-0.00015313475858970627,0.0,0.0,1.6191747942405682e-20,-20.471040717176344,303.3223060690926,0.4602410770273018,30245.86714970117,228.93871663830353,2.828877427003645e-17,2.817850361820752e-09,-0.1759117955071696,0.0,0.0,0.0,0.0674894016943438,96.43512247642364,20.470775420420075
2.1999999999998687,6387257.323007658,1024.6880605385913,-3.263951196885808e-19,6387257.405201435,0.0025232007221489203,-3.263951196885808e-19,-21.519716290786864,465.7661489446397,-5.936764274736202e-19,-5.936775233335673e-19,0.0034399595677787735,21.444994583121737,9120.405201226205,3.9503664281545566e-10,3.82216521529627e-24,9.786144575470791,0.0,2.2204460773127485e-16,-0.0001604269250366363,0.0,0.0,1.6191747942405682e-20,-21.444994583121737,303.331304503715,0.460357304205939,30255.300345371765,228.95230034507725,3.10524470323069e-17,3.55670586459848e-09,-0.19309750433868306,0.0,0.0,0.0,0.0706982581112345,105.85635503921445,21.444716688807105
2.2999999999998577,6387255.122173483,1071.264667464313,-3.899381051886708e-19,6387255.212009254,0.0028830593634405818,-3.899381051886708e-19,-22.496946751262545,465.7659883803926,-6.784414014757293e-19,-6.78442770131949e-19,0.003759593819004954,22.418828584518415,9118.212009044697,4.5137688533564216e-10,4.5662688314479045e-24,9.78615130687502,0.0,2.2204460798698865e-16,-0.00016771909637687787,0.0,0.0,1.6191747942405682e-20,-22.418828584518415,303.3407208053322,0.4604789564470129,30265.174447767724,228.9665152800114,3.394568145243117e-17,4.443156604539608e-09,-0.21108888342103108,0.0,0.0,0.0,0.0739064272025116,115.7192572984055,22.41853809761501
2.3999999999998467,6387252.82362249,1117.8412579767917,-4.623406625295972e-19,6387252.921439901,0.0032755897993728563,-4.623406625295972e-19,-23.474051855767787,465.7658206798051,-7.709242641852597e-19,-7.709259574516972e-19,0.004093398262708422,23.392537227572213,9115.921439692425,5.128323302147325e-10,5.414120160937817e-24,9.786158337159293,0.0,2.220446082531225e-16,-0.00017501127283232347,0.0,0.0,1.6191747942405682e-20,-23.392537227572216,303.35055488320836,0.460606036360097,30275.489750609664,228.9813613648702,3.6968616296525644e-17,5.498347291455905e-09,-0.229886795661757,0.0,0.0,0.0,0.0771138776875649,126.02430230126643,23.392234153275375
2.499999999999836,6387250.42736748,1164.417831362395,-5.443915067961932e-19,6387250.533506177,0.0037022087970161113,-5.443915067961932e-19,-24.45102610456374,465.7656458428579,-8.714636028732645e-19,-8.71465679620924e-19,0.004441368221546426,24.36611501244195,9113.533505967262,5.796247974923033e-10,6.3749552467708935e-24,9.786165666285298,0.0,2.220446085295531e-16,-0.00018230345462479043,0.0,0.0,1.6191747942405682e-20,-24.366115012441952,303.36080664267456,0.460738546671928,30286.24656080931,228.99683851806807,4.0121396463963237e-17,6.745350535849659e-09,-0.24949214210763632,0.0,0.0,0.0,0.0803205782806375,136.77198400305446,24.36579935617272
2.5999999999998247,6387247.9334218195,1210.994386907484,-6.369132309636261e-19,6387248.048221448,0.004164332636632807,-6.369132309636261e-19,-25.427863991602795,465.76546386953106,-9.803983907395167e-19,-9.804009175084888e-19,0.004803498815419599,25.339556432977794,9111.048221239347,6.519760318048683e-10,7.458406850181528e-24,9.786173294213,0.0,2.2204460881615147e-16,-0.00018959564197602283,0.0,0.0,1.6191747942405682e-20,-25.339556432977798,303.3714759849305,0.46087649022384025,30297.445198266396,229.012946654368,4.340417298262751e-17,8.209280603520665e-09,-0.269905861915167,0.0,0.0,0.0,0.0835264976906552,147.96281725083625,25.339228200382887
2.6999999999998137,6387245.341799418,1257.5709238984211,-7.407623452893022e-19,6387245.465599627,0.004663377102301636,-7.407623452893022e-19,-26.404560004267566,465.76527475980413,-1.0980680028910962e-18,-1.0980710545313269e-18,0.005179784963060846,26.31285597646024,9108.465599418167,7.301077009514702e-10,8.67450491192228e-24,9.78618122090076,0.0,2.2204460911278363e-16,-0.00019688783510769147,0.0,0.0,1.6191747942405682e-20,-26.31285597646024,303.38256280718826,0.4610198699736022,30309.085996023317,229.02968568509493,4.681710300429632e-17,9.917363662244413e-09,-0.2911289323218618,0.0,0.0,0.0,0.0867316046209722,159.59733776775053,26.312515173412056
2.799999999999802,6387242.652514731,1304.1474416215653,-8.568293183020157e-19,6387242.785655166,0.005200757459166427,-8.568293183020157e-19,-27.38110862310981,465.76507851365534,-1.2248122323086674e-18,-1.224815892644543e-18,0.005570221381048374,27.286008123339055,9105.7856549571,8.142413923652e-10,1.0033677032256668e-23,9.786189446305306,0.0,2.2204460941931013e-16,-0.00020418003424138337,0.0,0.0,1.6191747942405682e-20,-27.286008123339055,303.3940670026545,0.4611686889951756,30321.169300251422,229.04705551810613,5.0360349799663755e-17,1.1899033261714116e-08,-0.31316236861529356,0.0,0.0,0.0,0.0899358677691561,171.67610213603842,27.285654755935596
2.899999999999792,6387239.865582784,1350.7239393632706,-9.86038619387053e-19,6387240.008403093,0.005777888424179711,-9.86038619387053e-19,-28.3575043215897,465.7648751310632,-1.3609713057989942e-18,-1.3609756683202383e-18,0.005974802582737916,28.259007346972506,9103.008402884076,9.045986085661888e-10,1.1546748969640939e-23,9.786197970381643,0.0,2.2204460973558626e-16,-0.00021147223959859822,0.0,0.0,1.6191747942405682e-20,-28.25900734697251,303.40598846040143,0.461322950477029,30333.695470119965,229.0650560575926,5.4034082752969165e-17,1.4186028803530797e-08,-0.3360072240996941,0.0,0.0,0.0,0.0931392558268078,184.19968777873387,28.258641421537416
2.9999999999997806,6387236.981019144,1397.3004164098936,-1.1293487629658662e-18,6387237.133858974,0.0063961841596112574,-1.1293487629658662e-18,-29.333741565815227,465.7646646120048,-1.5068858999339251e-18,-1.5068910685150656e-18,0.006393522878639158,29.231848113366844,9100.133858765226,1.0014007661786768e-09,1.3224945158078668e-23,9.786206793083165,0.0,2.2204461006146184e-16,-0.0002187644514007555,0.0,0.0,1.6191747942405682e-20,-29.23184811336684,303.41832706552464,0.4614826577241659,30346.664877967032,229.08368720431451,5.783847735679219e-17,1.68124784649975e-08,-0.35966459006359,0.0,0.0,0.0,0.0963417374793,197.16869294192034,29.23146963644934
3.0999999999997696,6387233.998839932,1443.8768720477885,-1.287752354268927e-18,6387234.162038931,0.007057058246284764,-1.287752354268927e-18,-30.30981481428192,465.7644469564571,-1.6628971569749273e-18,-1.6629032466133749e-18,0.006826376376503406,30.204524880915937,9097.162038721937,1.1048691917742417e-09,1.5079889243131873e-23,9.786215914361605,0.0,2.220446103967816e-16,-0.0002260566698691804,0.0,0.0,1.6191747942405682e-20,-30.20452488091594,303.4310826990728,0.4616478141571931,30360.077909230316,229.1029488554906,6.177371520632987e-17,1.9814984417499642e-08,-0.38413559574421396,0.0,0.0,0.0,0.0995432814055806,210.58373667522167,30.20413385929078
3.1999999999997586,6387230.919061827,1490.4533055633024,-1.4622761367003018e-18,6387231.092959643,0.00776192365832571,-1.4622761367003018e-18,-31.285718517612754,465.7642221643954,-1.8293467007826236e-18,-1.8293538383710893e-18,0.007273356979112768,31.177032100141275,9094.092959434238,1.2152251179515554e-09,1.712360463657154e-23,9.786225334167025,0.0,2.220446107413847e-16,-0.00023334889522510737,0.0,0.0,1.6191747942405682e-20,-31.17703210014128,303.444255238035,0.4618184233121455,30373.934962439518,229.12284090477627,6.583998399351355e-17,2.3232737549002597e-08,-0.40942140829092055,0.0,0.0,0.0,0.1027438562779618,224.44545881174648,31.17662854080877
3.299999999999748,6387227.741702062,1537.0297162427837,-1.6539810407923776e-18,6387227.926638346,0.008512192751066506,-1.6539810407923776e-18,-32.26144711829828,465.7639902357968,-2.00657665271056e-18,-2.006584977830996e-18,0.007734458387602575,32.14936421343206,9090.926638137405,1.3326896814760412e-09,1.9368515089649234e-23,9.78623505244781,0.0,2.220446110951051e-16,-0.00024064112768966964,0.0,0.0,1.6191747942405682e-20,-32.14936421343205,303.4578445553581,0.4619944888406885,30388.23644923968,229.14336324228543,7.003747750094651e-17,2.7107562254707555e-08,-0.43552323272748966,0.0,0.0,0.0,0.1059434307618991,238.75451994742258,32.148948123617984
3.399999999999737,6387224.466778419,1583.606103372578,-1.863962234749196e-18,6387224.663092815,0.009309277228568398,-1.863962234749196e-18,-33.23699505043715,465.76375117063543,-2.1949296474831187e-18,-2.1949393132230445e-18,0.008209674097010108,33.12151565478567,9087.6630926072,1.4574839182282152e-09,2.1827445284971673e-23,9.78624506915074,0.0,2.220446114577712e-16,-0.0002479333674839079,0.0,0.0,1.6191747942405682e-20,-33.12151565478567,303.4718505200129,0.46217601451095336,30402.982794466134,229.16451575468645,7.436639559572723e-17,3.148406100032325e-08,-0.46244231191371443,0.0,0.0,0.0,0.1091419735157545,253.51160141994023,33.12108704194129
3.4999999999997256,6387221.094309254,1630.1824662390256,-2.093349176576714e-18,6387221.302341417,0.010154588134347666,-2.093349176576714e-18,-34.21235673947684,465.7635049688855,-2.3947488490563276e-18,-2.3947600228603266e-18,0.008698997396594126,34.09348084954853,9084.30234120755,1.5898287617849136e-09,2.4513621446958568e-23,9.786255384220825,0.0,2.220446118292064e-16,-0.0002552256148287529,0.0,0.0,1.6191747942405682e-20,-34.09348084954853,303.48627299679146,0.46236300420490023,30418.174435937566,229.1862983248924,7.8826944222497e-17,3.640970087105656e-08,-0.49017992650217085,0.0,0.0,0.0,0.1123394531906535,268.7174052850518,34.09303972135055
3.5999999999997145,6387217.624313465,1676.7588041284673,-2.343305667798297e-18,6387217.84440304,0.01104953584311157,-2.343305667798297e-18,-35.187526601954566,465.7632516305215,-2.606377966461346e-18,-2.6063908309997795e-18,0.009202421372499445,35.06525421415693,9080.844402831523,1.7299450421585398e-09,2.744067197086402e-23,9.786265997601502,0.0,2.220446122092283e-16,-0.00026251786994503596,0.0,0.0,1.6191747942405682e-20,-35.06525421415693,303.50111184656413,0.4625554619216154,30433.81182473149,229.2087108324443,8.341933539717087e-17,4.193486411991268e-08,-0.518737394899232,0.0,0.0,0.0,0.1155358384301812,284.37265429520124,35.0648005785074
3.699999999999704,6387214.056810508,1723.3351163272407,-2.615029908753651e-18,6387214.289297147,0.011995530015307584,-2.615029908753651e-18,-36.162499045238654,465.76299115551626,-2.8301612696300327e-18,-2.830176023697232e-18,0.009719938903826225,36.03683015587841,9077.289296938769,1.8780534787142064e-09,3.062262807034019e-23,9.786276909234486,0.0,2.2204461259764926e-16,-0.00026981013305347486,0.0,0.0,1.6191747942405682e-20,-36.03683015587842,303.5163669261209,0.46275339177524405,30449.89542502397,229.23175315326796,8.814378719960425e-17,4.811299183726126e-08,-0.5481160732194665,0.0,0.0,0.0,0.1187310978702264,300.47809187452424,36.036364020904784
3.799999999999693,6387210.391820414,1769.9114021216806,-2.90975455547941e-18,6387210.637043768,0.012993979582121479,-2.90975455547941e-18,-37.13726846727009,465.76272354384304,-3.066443605201889e-18,-3.0664604646407523e-18,0.010251542663192793,37.00820307255335,9073.637043558956,2.03437467785399e-09,3.4073924443522725e-23,9.786288119059805,0.0,2.220446129942764e-16,-0.0002771024043746757,0.0,0.0,1.6191747942405682e-20,-37.00820307255335,303.5320380881599,0.4629567979948151,30466.425714083405,229.25542515965162,9.300052376627641e-17,5.500066666476063e-08,-0.578317355240143,0.0,0.0,0.0,0.1219252001387758,317.03448209390706,37.00772444660841
3.8999999999996815,6387206.629363771,1816.48766079812,-3.2287467781694263e-18,6387206.887663488,0.01404629273111365,-3.2287467781694263e-18,-38.11182925630453,465.7624487954742,-3.3155704123112056e-18,-3.3155896109627542e-18,0.010797225117079359,37.97936735233693,9069.887663279264,2.199129130801017e-09,3.780939995761471e-23,9.786299627015808,0.0,2.2204461339891135e-16,-0.0002843946841291313,0.0,0.0,1.6191747942405682e-20,-37.97936735233693,303.5481251813442,0.46316568492494875,30483.403182336246,229.2797267203274,9.7989775282905e-17,6.265769705560109e-08,-0.6093426723553015,0.0,0.0,0.0,0.1251181138556829,334.0426096458101,37.9788762439987
3.9999999999996714,6387202.769461706,1863.0638916428854,-3.573308321212795e-18,6387203.04117744,0.015153876882854057,-3.573308321212795e-18,-39.086175790654394,465.7621669103816,-3.577887738355204e-18,-3.577909529034682e-18,0.011356978525190074,38.950317373441294,9066.041177231893,2.372537209974236e-09,4.1844298351946484e-23,9.786311433039211,0.0,2.220446138113501e-16,-0.00029168697253721204,0.0,0.0,1.6191747942405682e-20,-38.950317373441294,303.564628050358,0.46338005702657376,30500.828333433612,229.30465770055162,1.0311177797686048e-16,7.114721624738643e-08,-0.641193493528583,0.0,0.0,0.0,0.1283098076324331,351.5032798184078,38.949813791513115
4.099999999999704,6387198.812135935,1909.6400939423033,-3.944775564807705e-18,6387199.097607337,0.016318138669847815,-3.944775564807705e-18,-40.06030243843157,465.76187788853696,-3.853742254740914e-18,-3.853766910238875e-18,0.011930794939249643,39.92104750387821,9062.09760712814,2.554819165721739e-09,4.619426895948838e-23,9.786323537064993,0.0,2.220446142313836e-16,-0.00029897926981917156,0.0,0.0,1.6191747942405682e-20,-39.92104750387821,303.5815465357645,0.4635999188750398,30518.701684106643,229.33021796188422,1.0836677410877022e-16,8.053579177923072e-08,-0.6738713252410238,0.0,0.0,0.0,0.1315002500719931,369.4173184669693,39.920531457388584
4.199999999999737,6387194.757408736,1956.2162669826987,-4.344519588148844e-18,6387195.056975458,0.017540483913568272,-4.344519588148844e-18,-41.03420355729027,465.7615817299114,-4.143481272610637e-18,-4.1435090867212895e-18,0.012518666201788525,40.891552101201974,9058.056975249303,2.74619512275773e-09,5.0875367446790714e-23,9.786335939026431,0.0,2.220446146587971e-16,-0.00030627157619513067,0.0,0.0,1.6191747942405682e-20,-40.891552101201974,303.59888047404695,0.46382527516064365,30537.023764217945,229.35640736224758,1.1375501196433658e-16,9.0893537607924e-08,-0.7073777114401726,0.0,0.0,0.0,0.1346894097685881,387.7855719859645,40.891023599404576
4.299999999999771,6387190.60530293,2002.792410050392,-4.7739462341863354e-18,6387190.919304625,0.01882231761273288,-4.7739462341863354e-18,-42.007873494170354,465.76127843447557,-4.447452758546166e-18,-4.447484047121099e-18,0.013120583948728871,41.86182551225268,9053.91930441489,2.9468850783596243e-09,5.590405657232627e-23,9.78634863885518,0.0,2.2204461509337057e-16,-0.00031356389188508824,0.0,0.0,1.6191747942405682e-20,-41.86182551225267,303.6166296977494,0.4640561306904153,30555.795116916033,229.38322575613253,1.1927674584625394e-16,1.0229416131318595e-07,-0.7417142334898287,0.0,0.0,0.0,0.1378772553074319,406.6089072815115,41.86128456462632
4.399999999999804,6387186.355841926,2049.3685224316996,-5.234496175953928e-18,6387186.684618246,0.020165043907870203,-5.234496175953928e-18,-42.981306585041,465.76096800220023,-4.7660053502499916e-18,-4.766040452280103e-18,0.013736539605375206,42.83186207289992,9049.684618037127,3.1571088968531474e-09,6.129720696320941e-23,9.786361636481123,0.0,2.2204461553487837e-16,-0.0003208562171089086,0.0,0.0,1.6191747942405682e-20,-42.83186207289992,303.6347940352456,0.46429249038509524,30575.016298398757,229.4106729942449,1.2493223606470052e-16,1.1481512376981074e-07,-0.7768825101109174,0.0,0.0,0.0,0.1410637552646225,425.8882117389623,42.8313086891485
4.4999999999998375,6387182.009049692,2095.944603412937,-5.72764498446417e-18,6387182.352940289,0.0215700660722905,-5.72764498446417e-18,-43.95449715464451,465.7606504330558,-5.0994883722028084e-18,-5.099527650922393e-18,0.014366524388146368,43.80165610778664,9045.352940080074,3.377086308231189e-09,6.70720979102648e-23,9.786374931832476,0.0,2.220446159830894e-16,-0.00032814855208632176,0.0,0.0,1.6191747942405682e-20,-43.801656107786634,303.6533733109182,0.46453435928143216,30594.687878109646,229.43874892377048,1.3072174892884415e-16,1.2853770170949527e-07,-0.8128841973286668,0.0,0.0,0.0,0.1442488782068569,445.62439319394724,43.80109029783907
4.599999999999871,6387177.564950767,2142.520652280414,-6.254903198168108e-18,6387177.924295292,0.023038786482909603,-6.254903198168108e-18,-44.9274395162411,465.760325727011,-5.448251851297953e-18,-5.448295695313635e-18,0.0150105293011679,44.77120193007387,9040.924295083478,3.607036903618355e-09,7.324641818141724e-23,9.78638852483576,0.0,2.220446164377673e-16,-0.00033544089703691973,0.0,0.0,1.6191747942405682e-20,-44.77120193007387,303.67236734505997,0.4647817425308656,30614.810438640576,229.46745338822035,1.3664555673718844e-16,1.4354714278726148e-07,-0.849720988412577,0.0,0.0,0.0,0.1474325926912724,465.81837989946473,44.77062370408408
4.699999999999904,6387173.023570252,2189.0966683204424,-6.817816393977213e-18,6387173.398708365,0.024572606608107048,-6.817816393977213e-18,-45.90012797135339,465.75999388403596,-5.812646532450207e-18,-5.812695356908483e-18,0.015668545140060722,45.740493841185256,9036.398708155953,3.847180133402392e-09,7.98382668533755e-23,9.78640241541575,0.0,2.2204461689866993e-16,-0.0003427332521801515,0.0,0.0,1.6191747942405682e-20,-45.740493841185256,303.69177595390676,0.46503464539992617,30635.384575774115,229.49678622747516,1.427039377680718e-16,1.5993268894932826e-07,-0.8873946138173405,0.0,0.0,0.0,0.150614867265228,486.47112049349425,45.73990320953208
4.799999999999938,6387168.384933825,2235.6726508193246,-7.417965259844986e-18,6387168.776205179,0.02617292697529601,-7.417965259844986e-18,-46.87255680951192,465.7596549041002,-6.193023894179843e-18,-6.193078141946993e-18,0.016340562488234085,46.70952613055253,9031.776204970443,4.09773530218912e-09,8.686615416158012e-23,9.786416603495555,0.0,2.2204461736554996e-16,-0.0003500256177353229,0.0,0.0,1.6191747942405682e-20,-46.70952613055253,303.71159894966036,0.4652930732705032,30656.41089851556,229.52674727781425,1.488971762698832e-16,1.7778773810404104e-07,-0.9259068411219978,0.0,0.0,0.0,0.1537956704660907,507.5835839656402,46.708923103839716
4.899999999999971,6387163.649067734,2282.248599063362,-8.056965668905528e-18,6387164.056811984,0.027841147158732666,-8.056965668905528e-18,-47.84472030800058,465.7593087871727,-6.589736164169817e-18,-6.589796307037478e-18,0.01702657171677125,47.678293075361054,9027.056811774437,4.358921566926058e-09,9.434900236838416e-23,9.786431088996554,0.0,2.220446178381542e-16,-0.0003573179939215898,0.0,0.0,1.6191747942405682e-20,-47.67829307536106,303.73183614044893,0.46555703163929085,30677.89002905825,229.5573363718493,1.55225562450742e-16,1.9720994171297654e-07,-0.9652594749657619,0.0,0.0,0.0,0.1569749708210535,529.1567596219528,47.67767766441721
5.000000000000004,6387158.815998793,2328.8245123388565,-8.736468755166637e-18,6387159.240555593,0.029578665758896908,-8.736468755166637e-18,-48.81661273160286,465.7589555332225,-7.003136334797092e-18,-7.00320287473157e-18,0.017726562985343808,48.64678894029596,9022.240555384291,4.6309579337063775e-09,1.0230614664943741e-22,9.786445871838428,0.0,2.220446183162242e-16,-0.0003646103809579596,0.0,0.0,1.6191747942405682e-20,-48.64678894029595,303.75248733035477,0.4658265261181217,30699.822602821216,229.58855333856135,1.6168939246816027e-16,2.1830128068290573e-07,-1.005454356983735,0.0,0.0,0.0,0.1601527368469211,551.1916570496868,48.64616115617444
5.100000000000038,6387153.885754409,2375.400389932104,-9.458160990754553e-18,6387154.327463415,0.031386880369939085,-9.458160990754553e-18,-49.78822833234836,465.7585951422183,-7.43357817863492e-18,-7.433651649025951e-18,0.018440526238194168,49.615007977288705,9017.327463207946,4.914063252704282e-09,1.1075733599824077e-22,9.78646095193906,0.0,2.22044618799496e-16,-0.0003719027790632807,0.0,0.0,1.6191747942405682e-20,-49.61500797728871,303.7735523193214,0.4661015624327127,30722.20926835794,229.62039800315327,1.6828896841787174e-16,2.4116824219909675e-07,-1.0464933657374422,0.0,0.0,0.0,0.1633289370499606,573.689306079219,49.614367831267664
5.200000000000071,6387148.858362543,2421.976231129397,-1.0223764264707525e-17,6387149.317563414,0.033267187570114154,-1.0223764264707525e-17,-50.75956134925982,465.75822761412905,-7.881416263927301e-18,-7.8814972308931e-18,0.01916845120780014,50.582944425264124,9012.317563205177,5.20845621670937e-09,1.197227341488381e-22,9.7864763292147,0.0,2.2204461928769983e-16,-0.00037919518845624657,0.0,0.0,1.6191747942405682e-20,-50.58294442526413,303.7950309033277,0.46638214642490466,30745.05068754968,229.65287018730743,1.7502459832357199e-16,2.659218407257138e-07,-1.0883784166510317,0.0,0.0,0.0,0.1665035399256118,596.6507567490753,50.58229192884631
5.300000000000105,6387143.733851748,2468.5520352170256,-1.1035035963315476e-17,6387144.210884143,0.035220982893380264,-1.1035035963315476e-17,-51.730606008100565,465.75785294892296,-8.347005970034718e-18,-8.347095033727568e-18,0.01991032741055839,51.55059250988788,9007.210883933018,5.514355356711886e-09,1.2922292051661268e-22,9.786492003579804,0.0,2.2204461978056065e-16,-0.00038648760935538974,0.0,0.0,1.6191747942405682e-20,-51.550592509887885,303.8169228741973,0.46666828405013655,30768.34753541104,229.685969708891,1.8189659612469776e-16,2.9267780400920203e-07,-1.1311114619352804,0.0,0.0,0.0,0.1696765139583919,620.0770792642679,51.54992767480074
5.400000000000138,6387138.512251147,2515.127801481278,-1.189376905200256e-17,6387139.00745472,0.03724966081449737,-1.189376905200256e-17,-52.70135652112262,465.7574711465689,-8.83070350284881e-18,-8.830801298797694e-18,0.020666144148971798,52.51794644331453,9002.007454510554,5.831979039601549e-09,1.3927889115715202e-22,9.786507974947122,0.0,2.220446202777976e-16,-0.0003937800419790736,0.0,0.0,1.6191747942405682e-20,-52.51794644331453,303.83922801975405,0.46695998137943057,30792.10050026306,229.71969638218434,1.8890528166551055e-16,3.215566238212923e-07,-1.1746944905197116,0.0,0.0,0.0,0.1728478276216169,643.9693639590845,52.51726928151003
5.500000000000171,6387133.193590444,2561.7035292084306,-1.2801792158749845e-17,6387133.707304854,0.03935461471380579,-1.2801792158749845e-17,-53.67180708681515,465.75708220703495,-9.332865910177191e-18,-9.332973110666842e-18,0.02143589050904363,53.48500042393605,8996.707304643918,6.16154546268487e-09,1.4991205974314715e-22,9.786524243227664,0.0,2.220446207791245e-16,-0.00040107248654549924,0.0,0.0,1.6191747942405682e-20,-53.48500042393605,303.86194612371867,0.46725724459801227,30816.31028363243,229.7540500177186,1.9605098068263812e-16,3.526837095538674e-07,-1.2191295279751224,0.0,0.0,0.0,0.1760174493772635,668.3287212546165,53.48431094759067
5.600000000000205,6387127.7778999265,2608.2792176847747,-1.3760969659054798e-17,6387128.310464832,0.04153723687971253,-1.3760969659054798e-17,-54.64195188965327,465.7566861302896,-9.853851097096165e-18,-9.85396841254929e-18,0.022219555359948313,54.45174863613058,8991.310464622862,6.503272654106054e-09,1.611442585592886e-22,9.786540808330685,0.0,2.2204462128424934e-16,-0.0004083649432726932,0.0,0.0,1.6191747942405682e-20,-54.45174863613057,303.8850769657283,0.46756008000551197,30840.977600279857,229.78903042229823,2.0333402479286942e-16,3.86189494795707e-07,-1.2644186364376875,0.0,0.0,0.0,0.1791853476757666,693.1562816171522,54.451046857645295
5.700000000000238,6387122.265210454,2654.8548661965815,-1.47732017624244e-17,6387122.816965514,0.04379891846186085,-1.47732017624244e-17,-55.61178509984793,465.7562829163024,-1.0394017841270693e-17,-1.0394146021682916e-17,0.023017127355908825,55.41818525001237,8985.816965304879,6.857378465546634e-09,1.7299773951512174e-22,9.786557670163718,0.0,2.2204462179287456e-16,-0.00041565741237850753,0.0,0.0,1.6191747942405682e-20,-55.418185250012364,303.9086203214086,0.4678684940168765,30866.103178286263,229.82463739910335,2.1075475148097495e-16,4.2220949172948857e-07,-1.3105639145332217,0.0,0.0,0.0,0.1823514909557857,718.4531955166577,55.41747118201245
5.800000000000272,6387116.655553481,2701.430474030127,-1.5840424600398678e-17,6387117.226838355,0.04614104946056217,-1.5840424600398678e-17,-56.58130087309575,465.7558725650414,-1.095372580824172e-17,-1.0953865644616182e-17,0.02382859493078649,56.38430442118157,8980.226838145853,7.224080570602298e-09,1.8549517517582333e-22,9.786574828632528,0.0,2.220446223046971e-16,-0.00042294989408061433,0.0,0.0,1.6191747942405682e-20,-56.38430442118158,303.9325759622471,0.46818249316066063,30891.687758925993,229.86087074749136,2.1831350408606932e-16,4.60884515311814e-07,-1.3575674972923741,0.0,0.0,0.0,0.1855158476440888,744.2206333802875,56.38357807651669
5.900000000000305,6387110.948961055,2748.0060404716805,-1.6964610316101194e-17,6387111.540115403,0.04856501870054758,-1.6964610316101194e-17,-57.550493350329745,465.75545507647547,-1.1533335566678036e-17,-1.1533487892513099e-17,0.024653946299936853,57.350100290475005,8974.54011519438,7.603596460704693e-09,1.986596598108596e-22,9.786592283641076,0.0,2.2204462281940807e-16,-0.0004302423885965061,0.0,0.0,1.6191747942405682e-20,-57.350100290475,303.9569436556225,0.4685020840793608,30917.732096706397,229.89773026303342,2.2601063178847373e-16,5.023607424243087e-07,-1.4054315560689372,0.0,0.0,0.0,0.1886783861553492,770.4597855475995,57.349361682219026
6.000000000000338,6387105.145465787,2794.5815648075104,-1.814776715531301e-17,6387105.756829273,0.05107221382111265,-1.814776715531301e-17,-58.519356657470475,465.75503045057366,-1.2133208603594318e-17,-1.2133374296377733e-17,0.02549316946108489,58.31556698371726,8968.756829064525,7.996143443609776e-09,2.1251471046048322e-22,9.786610035091643,0.0,2.220446233366931e-16,-0.00043753489614349215,0.0,0.0,1.6191747942405682e-20,-58.31556698371725,303.98172316492554,0.46882727353096015,30944.236959506445,229.93521573769132,2.3384648959688373e-16,5.467897898407996e-07,-1.4541582984600454,0.0,0.0,0.0,0.1918390748918837,797.171862226809,58.31481612516824
6.100000000000372,6387099.245100896,2841.157046323885,-1.9391939559066694e-17,6387099.877013183,0.05366402123830296,-1.9391939559066694e-17,-59.48788490517789,465.7545986873052,-1.2753707339533103e-17,-1.2753887322270284e-17,0.026346252190545812,59.280698611472666,8962.877012974415,8.40193863750852e-09,2.270842680200328e-22,9.786628082884679,0.0,2.2204462385623196e-16,-0.00044482741693868785,0.0,0.0,1.6191747942405682e-20,-59.28069861147266,304.00691424939856,0.46915806838677443,30971.20312841406,229.9733269595667,2.4182143833344914e-16,5.943289070849591e-07,-1.5037499682134006,0.0,0.0,0.0,0.1949978822435656,824.3580934439284,59.27993551615281
6.200000000000405,6387093.247900178,2887.732484307062,-2.069920825775666e-17,6387093.900700922,0.0563418261339644,-2.069920825775666e-17,-60.4560721886038,465.7541597866392,-1.3395195143709759e-17,-1.3395390386483675e-17,0.027213182044771918,60.245489268797584,8956.900700713322,8.8211989693437e-09,2.4239269834198666e-22,9.78664642691894,0.0,2.220446243776989e-16,-0.0004521199511990219,0.0,0.0,1.6191747942405682e-20,-60.2454892687976,304.03251666428184,0.46949447563331664,30998.631397891226,230.01206371311451,2.4993584462043946e-16,6.451410407454176e-07,-1.554208845144348,0.0,0.0,0.0,0.1981547765875488,852.0197289973102,60.24471395045311
6.300000000000439,6387087.153898023,2934.307878043297,-2.2071690366762094e-17,6387087.827926893,0.05910701242405434,-2.2071690366762094e-17,-61.42391258714476,465.7537137485455,-1.4058036349118884e-17,-1.4058247870664402e-17,0.02809394635814617,61.20993303499349,8950.82792668367,9.25414116987948e-09,2.5846479335573005e-22,9.786665067091324,0.0,2.220446249007624e-16,-0.00045941249914122415,0.0,0.0,1.6191747942405682e-20,-61.2099330349935,304.0585301606377,0.46983650236994634,31026.522575595678,230.05142577887085,2.5819008086443836e-16,6.993949923025409e-07,-1.6055372450375947,0.0,0.0,0.0,0.2013097262881974,880.1580384037655,61.209145507594585
6.400000000000472,6387080.963129425,2980.883226818852,-2.3511539483578632e-17,6387081.658726084,0.06196096274586989,-2.3511539483578632e-17,-62.3914001641957,465.7532605729941,-1.4742596267603192e-17,-1.474282513692175e-17,0.02898853224256732,62.174023973360455,8944.658725873787,9.700981771732687e-09,2.753257722049912e-22,9.78668400329697,0.0,2.220446254250852e-16,-0.0004667050609818288,0.0,0.0,1.6191747942405682e-20,-62.174023973360455,304.08495448547336,0.4701841558104161,31054.877482520416,230.09141293362936,2.6658452524215496e-16,7.57265532973408e-07,-1.6577375195589723,0.0,0.0,0.0,0.2044626996968276,908.7743108501966,62.1732242511012
6.500000000000505,6387074.675629951,3027.4585299199816,-2.5020945786454935e-17,6387075.3931340575,0.06490505843867365,-2.5020945786454935e-17,-63.358528966904444,465.75280025995585,-1.544924120488223e-17,-1.5449488542869276e-17,0.029896926588341415,63.13775613095174,8938.393133848813,1.01619371063703e-08,2.9300128240289875e-22,9.786703235429297,0.0,2.220446259503245e-16,-0.0004739976369371658,0.0,0.0,1.6191747942405682e-20,-63.13775613095174,304.11178938178386,0.470537443283396,31083.696953050297,230.13202495049978,2.7511956168544535e-16,8.189334832890172e-07,-1.7108120561623008,0.0,0.0,0.0,0.2076136651514981,937.8698551425348,63.13694422825004
6.600000000000539,6387068.291435789,3074.0337866329264,-2.660213613453014e-17,6387069.031187013,0.06794067949272212,-2.660213613453014e-17,-64.32529302592638,465.75233280940097,-1.6178338475540508e-17,-1.6178605456655995e-17,0.030819116059587193,64.10112353832851,8932.03118680408,1.063722329615962e-08,3.1151740100461536e-22,9.786722763379816,0.0,2.2204462647613157e-16,-0.00048129022722335785,0.0,0.0,1.6191747942405682e-20,-64.10112353832851,304.1390345883295,0.4708963722294789,31112.98183473165,230.17326159856236,2.837955798639076e-16,8.845859403917414e-07,-1.7647632779811517,0.0,0.0,0.0,0.2107625909769822,967.4459996464092,64.10029946982604
6.700000000000572,6387061.810583704,3120.6089962439423,-2.8257374169468066e-17,6387062.572921712,0.07106920457367796,-2.8257374169468066e-17,-65.29168635518026,465.7518582212997,-1.6930256417973723e-17,-1.6930544271922925e-17,0.0317550870962851,65.06412020931553,8925.572921501514,1.1127056258221052e-08,3.309006357974989e-22,9.78674258703835,0.0,2.220446270021519e-16,-0.0004885828320563211,0.0,0.0,1.6191747942405682e-20,-65.06412020931553,304.1666898399128,0.4712609502047746,31142.732988579555,230.21512264327941,2.9261297517088077e-16,9.54416330565931e-07,-1.8195936437417861,0.0,0.0,0.0,0.2139094454844049,997.5040922394163,65.06328398987756
6.800000000000606,6387055.233111078,3167.1841580392665,-2.9988960418583806e-17,6387056.018375532,0.07429201098418829,-2.9988960418583806e-17,-66.25770295160447,465.7513764956261,-1.7705364409293332e-17,-1.7705674422746868e-17,0.03270482591576067,66.02674014075754,8919.018375321873,1.1631651698442997e-08,3.511779265087395e-22,9.786762706292846,0.0,2.220446275280251e-16,-0.0004958754516517591,0.0,0.0,1.6191747942405682e-20,-66.02674014075754,304.1947548671609,0.4716311848779753,31172.95128885281,230.25760784615713,3.015721487052905e-16,1.0286244714679373e-06,-1.8753056476502648,0.0,0.0,0.0,0.2170541969712189,1028.0455002492347,66.025891785473
6.900000000000639,6387048.559055872,3213.7592713051454,-3.179923239945876e-17,6387049.3675864395,0.07761047458866005,-3.179923239945876e-17,-67.2233367949141,465.7508876323515,-1.8504032880187036e-17,-1.850436639852158e-17,0.03366831850653485,66.9889773122763,8912.367586230685,1.2151225099734552e-08,3.723766460304266e-22,9.786783121029512,0.0,2.2204462805338544e-16,-0.0005031680862251571,0.0,0.0,1.6191747942405682e-20,-66.9889773122763,304.2232293966759,0.4720070840322904,31203.63762322627,230.30071696496574,3.1067350725599767e-16,1.1074168496052548e-06,-1.9319018192951158,0.0,0.0,0.0,0.220196813720926,1059.071610400267,66.98811683645752
7.000000000000672,6387041.7884566765,3260.3343353278156,-3.369056472603948e-17,6387042.620593027,0.08102596984515507,-3.369056472603948e-17,-68.18858184735873,465.75039163144857,-1.9326633329734636e-17,-1.932699175879554e-17,0.03464555062944004,67.95082568602831,8905.62059281911,1.2685991727049404e-08,3.9452460166199206e-22,9.786803831132655,0.0,2.2204462857786085e-16,-0.0005104607359917808,0.0,0.0,1.6191747942405682e-20,-67.95082568602831,304.25211315086597,0.4723886555631438,31234.79289261767,230.3444497534751,3.199174632831125e-16,1.1910067001538287e-06,-1.9893847235311435,0.0,0.0,0.0,0.2233372640030287,1090.5838287499435,67.94995310521108
7.100000000000706,6387034.921352663,3306.9093493935115,-3.566536921621568e-17,6387035.777434463,0.08453986978152474,-3.566536921621568e-17,-69.15343205348067,465.74988849289093,-2.017353834017792e-17,-2.017392314808625e-17,0.03563650781886546,68.91227920646318,8898.777434255138,1.3236166623679476e-08,4.176500363699743e-22,9.786824836484875,0.0,2.2204462910107383e-16,-0.0005177534011666738,0.0,0.0,1.6191747942405682e-20,-68.9122792064632,304.28140584816015,0.47277590748094406,31266.41801142866,230.3888059617704,3.293044349021908e-16,1.2796140790246935e-06,-2.0477569603811485,0.0,0.0,0.0,0.2264755160727061,1122.5835806348466,68.91139453640663
7.200000000000739,6387027.957783627,3353.4843127884697,-3.772609500087301e-17,6387028.838150545,0.08815354596416201,-3.772609500087301e-17,-70.11788133987486,465.74937821665264,-2.1045121591644862e-17,-2.1045534310613408e-17,0.036641175379556204,69.87333180008352,8891.83815033694,1.3801964606392495e-08,4.41781630065053e-22,9.786846136966853,0.0,2.2204462962264075e-16,-0.0005250460819646546,0.0,0.0,1.6191747942405682e-20,-69.87333180008352,304.31110720278457,0.47316884790807445,31298.51390731419,230.43378533590658,3.3883484586422127e-16,1.3734660646442278e-06,-2.1070211649114863,0.0,0.0,0.0,0.2296115381708119,1155.0723106024889,69.87243505676993
7.300000000000771,6387020.8977899635,3400.059224798921,-3.9875228634415986e-17,6387021.802781671,0.09186836846494409,-3.9875228634415986e-17,-71.08192361494814,465.7488608027086,-2.1941757876825453e-17,-2.194220010500845e-17,0.03765953838645152,70.83397737520404,8884.802781463346,1.43836002602862e-08,4.669485008962979e-22,9.786867732457475,0.0,2.2204463014217227e-16,-0.0005323387786003046,0.0,0.0,1.6191747942405682e-20,-70.83397737520403,304.3412169248958,0.4735674850805696,31331.081521334712,230.4793876180993,3.485091255383021e-16,1.472796874128642e-06,-2.167180007124337,0.0,0.0,0.0,0.2327452985236114,1188.0514823522578,70.83306857483888
7.400000000000806,6387013.741412682,3446.6340847110882,-4.2115294206755854e-17,6387014.6713688485,0.09568570584346521,-4.2115294206755854e-17,-72.04555276868061,465.74833625103463,-2.2863823115598687e-17,-2.286429651896964e-17,0.03869158168444396,71.79420982171311,8877.671368640667,1.4981287936036336e-08,4.931802065625752e-22,9.786889622833801,0.0,2.2204463065927316e-16,-0.0005396314912879764,0.0,0.0,1.6191747942405682e-20,-71.79420982171311,304.3717347205565,0.47397182734773663,31364.12180794073,230.5256125466809,3.5832770889256276e-16,1.5778479812749188e-06,-2.2282361918390725,0.0,0.0,0.0,0.2358767653426377,1221.5225786703797,71.79328898072494
7.500000000000839,6387006.488693387,3493.2088918112036,-4.444885345675885e-17,6387007.443953684,0.09960692514597999,-4.444885345675885e-17,-73.0087626723871,465.7478045616072,-2.3811694369609965e-17,-2.381220068386497e-17,0.03973728988757408,72.75402301083422,8870.443953475875,1.559524174976088e-08,5.205067456410524e-22,9.786911807971084,0.0,2.220446311735423e-16,-0.0005469242202417869,0.0,0.0,1.6191747942405682e-20,-72.75402301083422,304.4026602917711,0.47438188317254887,31397.63573502075,230.57245985614412,3.6829103647522583e-16,1.6888682518689694e-06,-2.2901924585744897,0.0,0.0,0.0,0.2390059068245027,1255.4871013653606,72.75309014587441
7.600000000000873,6386999.139674328,3539.7836453854843,-4.6878505887149555e-17,6387000.120578428,0.10363339183601261,-4.6878505887149555e-17,-73.97154717847982,465.74726573440364,-2.4785749856798005e-17,-2.4786290889286665e-17,0.04079664737544223,73.71341079488845,8863.12057821975,1.622567557218509e-08,5.489585589327458e-22,9.786934287742636,0.0,2.2204463168457254e-16,-0.0005542169656756071,0.0,0.0,1.6191747942405682e-20,-73.71341079488846,304.4339933363068,0.47479766112920246,31431.624283717454,230.61992927686268,3.783995543930423e-16,1.8061141688199672e-06,-2.35305158141471,0.0,0.0,0.0,0.2421326911508792,1289.9465711944713,73.71246592283134
7.700000000000906,6386991.694398345,3586.358344720158,-4.940688888086426e-17,6386992.701285922,0.10776646981462529,-4.940688888086426e-17,-74.93390012023136,465.7467197694025,-2.578636896586691e-17,-2.578694659754761e-17,0.041869638296195354,74.6723670070578,8855.701285714655,1.6872803031844417e-08,5.785665308250445e-22,9.786957062019997,0.0,2.2204463219195096e-16,-0.0005615097278030636,0.0,0.0,1.6191747942405682e-20,-74.67236700705782,304.46573354792326,0.4752191699060827,31466.088448686183,230.6680205354293,3.8865371429341787e-16,1.929849852972673e-06,-2.4168163688980373,0.0,0.0,0.0,0.2452570864881665,1324.9025278028196,74.67141014500045
7.8000000000009395,6386984.152908904,3632.9329891014395,-5.20366778188492e-17,6386985.186119626,0.11200752137571313,-5.20366778188492e-17,-75.89581531153937,465.7461666665829,-2.681393227070912e-17,-2.6814548458143278e-17,0.0429562465637508,75.63088546114953,8848.186119418377,1.7536837508114314e-08,6.093619906711576e-22,9.786980130672855,0.0,2.2204463269525856e-16,-0.0005688025068375367,0.0,0.0,1.6191747942405682e-20,-75.63088546114953,304.4978806162765,0.4756464183044153,31501.02923800111,230.7167333545014,3.990539733428668e-16,2.0603472638857475e-06,-2.4814896638829698,0.0,0.0,0.0,0.2483790609874099,1360.3565296498978,75.62991662641156
7.900000000000973,6386976.515250083,3679.5075778155483,-5.4770586199298024e-17,6386977.575123627,0.11635790718506792,-5.4770586199298024e-17,-76.85728654669124,465.7456064259254,-2.786882154477109e-17,-2.786947832212552e-17,0.04405645585611944,76.58895995136102,8840.575123418885,1.821799212796135e-08,6.413767141864126e-22,9.787003493568998,0.0,2.2204463319407045e-16,-0.0005760953029921538,0.0,0.0,1.6191747942405682e-20,-76.58895995136103,304.53043422686244,0.4760794152374303,31536.447673103256,230.76606745270507,4.096007942052958e-16,2.1978863703146296e-06,-2.547074343413165,0.0,0.0,0.0,0.251498582784196,1396.3101539355557,76.5879791614847
8.000000000001005,6386968.781466595,3726.082110148698,-5.761136575832324e-17,6386969.868342637,0.12081898626102325,-5.761136575832324e-17,-77.81830760013034,465.74503904741135,-2.895141977536381e-17,-2.8952119256452733e-17,0.04517024961538235,77.54658425204609,8832.868342428654,1.8916479762941914e-08,6.746429248613472e-22,9.787027150574337,0.0,2.2204463368795565e-16,-0.0005833881164797859,0.0,0.0,1.6191747942405682e-20,-77.54658425204609,304.5633940610468,0.4765181697306832,31572.344788843413,230.81602254467174,4.2029464502076245e-16,2.3427552683068624e-06,-2.613573318585345,0.0,0.0,0.0,0.2546156199984807,1432.7649965275882,77.54559152479605
8.10000000000095,6386960.951603772,3772.656585387103,-6.056180659205571e-17,6386962.065821987,0.12539211593817434,-6.056180659205571e-17,-78.77887222622294,465.7444645310234,-3.0062111177915176e-17,-3.006285555826152e-17,0.046297611046202156,78.50375211748172,8825.065821778991,1.9632513023550687e-08,7.091932953915242e-22,9.78705110155292,0.0,2.220446341764774e-16,-0.0005906809475130419,0.0,0.0,1.6191747942405682e-20,-78.50375211748174,304.59675979609625,0.4769626909223786,31608.72163352548,230.8665983410749,4.311359993838256e-16,2.4952503482346217e-06,-2.6809895344146732,0.0,0.0,0.0,0.2577301407344174,1469.722671887931,78.50274747084491
8.200000000000895,6386953.025707572,3819.2310028169736,-6.362473728016687e-17,6386954.167607636,0.13007865186081793,-6.362473728016687e-17,-79.73897415902593,465.74388287674566,-3.1201281210167015e-17,-3.120207276911523e-17,0.047438523116334654,79.46045728163594,8817.167607427991,2.0366304258222278e-08,7.45060949124006e-22,9.787075346366908,0.0,2.220446346591925e-16,-0.0005979737963042743,0.0,0.0,1.6191747942405682e-20,-79.46045728163595,304.63053110515074,0.47741298806291677,31645.579268886373,230.91779454857846,4.421253363207613e-16,2.655676395440804e-06,-2.749325969693073,0.0,0.0,0.0,0.2608421130802355,1507.1848129949938,79.45944073382155
8.30000000000084,6386945.003824574,3865.8053617245223,-6.680302501080713e-17,6386946.173746165,0.13487994795580932,-6.680302501080713e-17,-80.69860711205598,465.74329408456333,-3.2369316586310844e-17,-3.237015768912355e-17,0.04859296855415101,80.41669345793697,8809.173745955972,2.111806554911008e-08,7.822794615204128e-22,9.787099884876596,0.0,2.220446351356521e-16,-0.0006052666630655615,0.0,0.0,1.6191747942405682e-20,-80.41669345793697,304.6647076572494,0.47786907051515,31682.91877013429,230.9696108698659,4.53263140266934e-16,2.824346793103354e-06,-2.8185856368485127,0.0,0.0,0.0,0.2639515051080769,1545.153071266519,80.41566502737625
8.400000000000784,6386936.886001988,3912.379661395957,-7.009957570695537e-17,6386938.084284784,0.13979735639804267,-7.009957570695537e-17,-81.65776477805898,465.74269815446235,-3.3566605291063935e-17,-3.3567498391083477e-17,0.04976092984718926,81.37245433904253,8801.084284577984,2.1888008706709942e-08,8.20882861636506e-22,9.78712471694036,0.0,2.2204463560540115e-16,-0.0006125595480087167,0.0,0.0,1.6191747942405682e-20,-81.37245433904253,304.6992891172837,0.47833094775366697,31720.741225907528,231.02204700355958,4.645499010427858e-16,3.0015836940060407e-06,-2.888771581795693,0.0,0.0,0.0,0.2670582848738964,1583.6291164777278,81.37141404438871
8.500000000000728,6386928.672287676,3958.953901117485,-7.351733415417262e-17,6386929.899271351,0.1448322275867258,-7.351733415417262e-17,-82.61644082878132,465.74209508643065,-3.4793536593682487e-17,-3.479448423450967e-17,0.05094238924242948,82.32773359661145,8792.899271144943,2.267634526617379e-08,8.609056336182156e-22,9.78714984241467,0.0,2.220446360679785e-16,-0.0006198524513452721,0.0,0.0,1.6191747942405682e-20,-82.32773359661147,304.7342751459993,0.4787986293647229,31759.0477382863,231.0751026442125,4.759861138299005e-16,3.187718133073426e-06,-2.9598868837872065,0.0,0.0,0.0,0.2701624204173261,1622.6146366797263,82.32668145673964
8.600000000000673,6386920.362730093,4005.5280801753124,-7.705928412975408e-17,6386921.618754335,0.14998591014325227,-7.705928412975408e-17,-83.57462891474144,465.741484880458,-3.6050501061912693e-17,-3.60515058795885e-17,0.052137328746559575,83.28252488107474,8784.618754126588,2.3483286487004764e-08,9.02382718214038e-22,9.787175261154124,0.0,2.220446365229169e-16,-0.0006271453732864892,0.0,0.0,1.6191747942405682e-20,-83.28252488107474,304.7696654000758,0.479272125047206,31797.83942288975,231.1287774824195,4.875722791476218e-16,3.383090138289181e-06,-3.0319346552681385,0.0,0.0,0.0,0.2732638797614695,1662.111338119798,83.28146091508168
8.700000000000617,6386911.957378368,4052.1021978556446,-8.072844853327273e-17,6386913.242782853,0.1552597508537969,-8.072844853327273e-17,-84.5323226650027,465.7408675365349,-3.733789057587709e-17,-3.7338955301147845e-17,0.053345730121033115,84.23682182140892,8776.242782644424,2.430904334409722e-08,9.453495143037376e-22,9.787200973011359,0.0,2.220446369697427e-16,-0.0006344383140433437,0.0,0.0,1.6191747942405682e-20,-84.23682182140892,304.80545953199237,0.4797514446107491,31837.117408739152,231.18307120460273,4.993089028263532e-16,3.5880490315524055e-06,-3.1049180417100333,0.0,0.0,0.0,0.2763626309128899,1702.120945150381,84.23574604861308
8.800000000000562,6386903.456282251,4098.676253444689,-8.452788951850912e-17,6386904.771406662,0.1606550946729513,-8.452788951850912e-17,-85.48951568694797,465.74024305465406,-3.865609834189416e-17,-3.86572258024393e-17,0.054567574884465404,85.19061802491028,8767.77140645468,2.5153826528333908e-08,9.89841880443272e-22,9.787226977837102,0.0,2.220446374079766e-16,-0.0006417312738265244,0.0,0.0,1.6191747942405682e-20,-85.1906180249103,304.841657190108,0.48023659797669316,31876.882838355014,231.2379834931227,5.111964959831343e-16,3.8029534679891576e-06,-3.178840221459018,0.0,0.0,0.0,0.2794586418614131,1742.6452001458138,85.18953046485164
8.900000000000507,6386894.859492139,4145.250246228647,-8.846070862675823e-17,6386896.204676156,0.16617328467871742,-8.846070862675823e-17,-86.44620156605394,465.73961143480943,-4.000551890623073e-17,-4.0006712028964e-17,0.055802844310029055,86.1439070769696,8759.204675949446,2.601784643956698e-08,1.0358961364258507e-21,9.787253275480174,0.0,2.2204463783713293e-16,-0.0006490242528464327,0.0,0.0,1.6191747942405682e-20,-86.1439070769696,304.8782580186632,0.48072759517801233,31917.136867769284,231.2935140262702,5.232355749957109e-16,4.028171656288587e-06,-3.253704405574561,0.0,0.0,0.0,0.2825518805799981,1783.6858634139387,86.14280774940927
9.000000000000451,6386886.167059061,4191.824175493719,-9.253004692151009e-17,6386887.542642368,0.17181566206305438,-9.253004692151009e-17,-87.40237386566798,465.7389726769968,-4.138654816878791e-17,-4.138780998216256e-17,0.05705151942533642,87.09668254084845,8750.542642162354,2.6901313185165483e-08,1.083549064859075e-21,9.787279865787458,0.0,2.220446382567196e-16,-0.0006563172513131764,0.0,0.0,1.6191747942405682e-20,-87.09668254084843,304.91526165776304,0.4812244463589787,31957.880666516317,231.34966247822965,5.354266614758079e-16,4.264081489856216e-06,-3.3295138376632663,0.0,0.0,0.0,0.2856423150246312,1825.2447131049892,87.095571465769
