time,eiPosition_m_X,eiPosition_m_Y,eiPosition_m_Z,eiVelocity_m_s_X,eiVelocity_m_s_Y,eiVelocity_m_s_Z,feVelocity_m_s_X,feVelocity_m_s_Y,feVelocity_m_s_Z,altitudeMsl_m,longitude_rad,latitude_rad,localGravity_m_s2,eulerAngle_rad_Yaw,eulerAngle_rad_Pitch,eulerAngle_rad_Roll,bodyAngularRateWrtEi_rad_s_Roll,bodyAngularRateWrtEi_rad_s_Pitch,bodyAngularRateWrtEi_rad_s_Yaw,speedOfSound_m_s,airDensity_kg_m3,ambientPressure_Pa,ambientTemperature_K,aero_bodyForce_N_X,aero_bodyForce_N_Y,aero_bodyForce_N_Z,aero_bodyMoment_Nm_L,aero_bodyMoment_Nm_M,aero_bodyMoment_Nm_N,mach,dynamicPressure_Pa
0.0,6387281.000012401,0.0,0.0,0.0,465.76787589444,0.0,0.0,0.0,-0.0,9144.0,0.0,0.0,9.78607215813912,0.0,0.0,0.0,0.0,0.0,0.0,303.2301256063032,0.4590404150549219,30148.940285576737,228.79937393444447,-0.0,0.0,-0.0,0.0,0.0,0.0,0.0,0.0
0.1,6387280.951061521,46.5767874702672,0.0,-0.9786063113260081,465.767872325232,0.0,0.0,7.111341024736801e-06,0.97520987839524,9143.9512394676,3.711200793933677e-14,0.0,9.786072307781787,0.0,0.0,-7.292115037104997e-06,0.0,0.0,0.0,303.2303350273728,0.45904311353821337,30149.159161083415,228.79968996833335,-0.0,6.508252131193281e-16,-0.00039818003487119847,0.0,0.0,0.0,0.00321606965323,0.21828287484164047
0.2,6387280.80426984,93.1535742269976,0.0,-1.957207195691064,465.767861620656,0.0,0.0,2.8445264801995682e-05,1.950414329722848,9143.80495820568,2.9689542959644906e-13,0.0,9.786072756740268,0.0,0.0,-1.4584230296896551e-05,0.0,0.0,0.0,303.2309632887528,0.4590512090458103,30149.815794163045,228.80063806666666,-0.0,2.2015197242286104e-14,-0.0015927393646665879,0.0,0.0,0.0,0.00643210808282,0.8731420386379768
0.3,6387280.55963736,139.7303595566544,0.0,-2.935797225859896,465.76784378071204,0.0,0.0,6.40014747519888e-05,2.925607926650016,9143.56115697624,1.0020186103444368e-12,0.0,9.786073505014564,0.0,0.0,-2.187634600195651e-05,0.0,0.0,0.0,303.2320103843472,0.4590647017524261,30150.91020435077,228.80221822555558,-0.0,1.6724040689753332e-13,-0.003583735664353281,0.0,0.0,0.0,0.00964808406488,1.964609108892031
0.4,6387280.2171336,186.30714274539602,0.0,-3.91437097406688,465.76781880540005,0.0,0.0,0.00011377947609372961,3.90078524131968,9143.21983715088,2.3751437304719383e-12,0.0,9.786074552604672,0.0,0.0,-2.9168462375111048e-05,0.0,0.0,0.0,303.2334763037928,0.4590835919477036,30152.442424300927,228.80443043611112,-0.0,7.047545576055157e-13,-0.006371265056945345,0.0,0.0,0.0,0.0128639663751,3.4927367803875327
0.5,6387279.77675856,232.88392307968562,0.0,-4.8929230118179206,465.767786691672,0.0,0.0,0.0001777785763007088,4.87594084509144,9142.78100064984,4.638923755759569e-12,0.0,9.786075899480117,0.0,0.0,-3.64605796389071e-05,0.0,0.0,0.0,303.2353610336784,0.45910788003827674,30154.41249964341,228.80727468555557,-0.0,2.1505254196830154e-12,-0.009955462110674733,0.0,0.0,0.0,0.0160797237885,5.457598823599291
0.6,6387279.23854272,279.4606998459864,0.0,-5.871447909445441,465.767747442576,0.0,0.0,0.00025599788464643764,5.85106930822152,9142.244649911521,8.015999308607576e-12,0.0,9.786077545640897,0.0,0.0,-4.3752698016048686e-05,0.0,0.0,0.0,303.2376645551064,0.4591375665462243,30156.820489079408,228.8107509588889,-0.0,5.351389553957426e-12,-0.014336499834930946,0.0,0.0,0.0,0.0192953250791,7.859290082574017
0.7,6387278.6024556,326.037472330152,0.0,-6.849940236053521,465.76770105811204,0.0,0.0,0.00034843631242646397,6.826165199722561,9141.610787862,1.2728995649766405e-11,0.0,9.786079491087012,0.0,0.0,-5.104481772906528e-05,0.0,0.0,0.0,303.240386846436,0.4591726521106159,30159.66646433355,228.81485923722224,-0.0,1.1567488018510902e-11,-0.019514589674994337,0.0,0.0,0.0,0.02251073902,10.697926471875562
0.8,6387277.86855816,372.61423981956,0.0,-7.828394559161281,465.76764753828,0.0,0.0,0.00045509257268832004,7.801223086991761,9140.8794181284,1.900051953724496e-11,0.0,9.78608173578799,0.0,0.0,-5.833693900048637e-05,0.0,0.0,0.0,303.24352788145444,0.45921313748545084,30162.950510249655,228.81959949722224,-0.0,2.2555693638757783e-11,-0.025489981505844195,0.0,0.0,0.0,0.0257259343828,13.973644973333847
0.9,6387277.036789441,419.191001600064,0.0,-8.80680544439808,465.767586880032,0.0,0.0,0.000575965180922808,8.77623753556704,9140.050544703601,2.7053156224815508e-11,0.0,9.786084279774304,0.0,0.0,-6.562906205319049e-05,0.0,0.0,0.0,303.24708762968163,0.4592590235412039,30166.672724647102,228.8249717138889,-0.0,4.0650084376789054e-11,-0.032262963624507784,0.0,0.0,0.0,0.0289408799375,17.686603631831407
1.0,6387276.10717992,465.767756958432,0.0,-9.78516745532064,465.76751908641603,0.0,0.0,0.0007110524535823681,9.75120310891368,9139.12417225104,3.71094662837168e-11,0.0,9.786087122984998,0.0,0.0,-7.29211871095326e-05,0.0,0.0,0.0,303.25106605698005,0.45931031126534094,30170.833218368673,228.83097585722223,-0.0,6.884944343310661e-11,-0.039833862741653236,0.0,0.0,0.0,0.0321555444524,21.83698155061111
1.1,6387275.07976008,512.344505178384,0.0,-10.76347515310824,465.767444157432,0.0,0.0,0.000860352508889712,10.726114368089041,9138.100305891361,4.9391982574106323e-11,0.0,9.786090265450552,0.0,0.0,-8.021331439204216e-05,0.0,0.0,0.0,303.2554631252496,0.4593670017597419,30175.432115424253,228.83761189444445,-0.0,1.1089801908077252e-10,-0.04820304397140309,0.0,0.0,0.0,0.0353698966938,26.424978885674186
1.2,6387273.95449944,558.9212455527841,0.0,-11.741723096288402,465.76736209308007,0.0,0.0,0.001023863266938408,11.70096587149872,9136.9789513548,6.412320708161618e-11,0.0,9.786093707110012,0.0,0.0,-8.750544412324864e-05,0.0,0.0,0.0,303.2602787921232,0.45942909624379297,30180.469552751376,228.84487978944446,-0.0,1.7136762715268338e-10,-0.057370910819946865,0.0,0.0,0.0,0.0385839054257,31.450816840082453
1.3,6387272.73142848,605.497977359256,0.0,-12.719905840493041,465.76727289031203,0.0,0.0,0.001201582449074136,12.67575217471368,9135.760114889761,8.152560810929287e-11,0.0,9.786097447963376,0.0,0.0,-9.479757652568157e-05,0.0,0.0,0.0,303.2655130109664,0.4594965960518099,30185.94568045466,228.8527795022222,-0.0,2.557430963264648e-10,-0.06733790517526567,0.0,0.0,0.0,0.0417975394097,36.91473765701571
1.4,6387271.41051672,652.0746998906641,0.0,-13.69801793824512,465.767176552176,0.0,0.0,0.001393507577364336,13.65046783010448,9134.44380329328,1.0182161668920024e-10,0.0,9.786101487980167,0.0,0.0,-0.00010208971182169587,0.0,0.0,0.0,303.271165731792,0.45956950263561497,30191.86066161426,228.86131098944443,-0.0,3.7050869690382553e-10,-0.07810450729138546,0.0,0.0,0.0,0.0450107674045,42.81700461244605
1.5,6387269.99182512,698.651412433776,0.0,-14.676053938562402,465.767073078672,0.0,0.0,0.001599635975335824,14.625107386658401,9133.03002388056,1.2523362394941593e-10,0.0,9.78610582716039,0.0,0.0,-0.00010938185023364646,0.0,0.0,0.0,303.2772369000408,0.45964781756092893,30198.214672381648,228.87047420444443,-0.0,5.232277246009236e-10,-0.08967123577445421,0.0,0.0,0.0,0.0482235581662,49.157902007285436
1.6,6387268.4753232,745.2281142692641,0.0,-15.654008386835521,465.766962466752,0.0,0.0,0.0018199647670695362,15.59966538955272,9131.51878451544,1.519839777823722e-10,0.0,9.786110465473564,0.0,0.0,-0.00011667399198406286,0.0,0.0,0.0,303.2837264571912,0.4597315425104635,30205.007901931735,228.88026909666667,-0.0,7.226309740931708e-10,-0.10203864756850743,0.0,0.0,0.0,0.0514358804475,55.93773515886313
1.7,6387266.86101096,791.8048046869441,0.0,-16.63187582446224,465.766844722512,0.0,0.0,0.002054490877721736,16.5741363801852,9129.910093701841,1.8229497978843553e-10,0.0,9.786115402889209,0.0,0.0,-0.00012396613729495092,0.0,0.0,0.0,303.29063434106405,0.4598206792844371,30212.240552606487,228.8906956127778,-0.0,9.786972113178504e-10,-0.11520733793589617,0.0,0.0,0.0,0.0546477029979,63.15683039125377
1.8,6387265.1489493605,838.381482976632,0.0,-17.60965078866456,465.766719839856,0.0,0.0,0.002303211032859552,17.54851489565592,9128.20396033992,2.1638888229052075e-10,0.0,9.786120639376856,0.0,0.0,-0.00013125828638884014,0.0,0.0,0.0,303.2979604852128,0.4599152297964512,30219.912839723434,228.90175369555558,-0.0,1.3027408722975183e-09,-0.12917794044171813,0.0,0.0,0.0,0.0578589945634,70.81553502498319
1.9,6387263.339077441,884.958148419,0.0,-18.587327812153443,465.76658781878405,0.0,0.0,0.002566121757985488,18.52279546852344,9126.40039396992,2.544878850696273e-10,0.0,9.786126174906016,0.0,0.0,-0.00013855043948791094,0.0,0.0,0.0,303.3057048186192,0.4600151960776137,30228.024991719296,228.9134432838889,-0.0,1.7074996153188814e-09,-0.14395112693246623,0.0,0.0,0.0,0.0610697238859,78.91421736840995
2.0,6387261.43148664,931.5348003008161,0.0,-19.564901422976405,465.76644866539203,0.0,0.0,0.002843219378702016,19.49697262674384,9124.49940468072,2.968141321808351e-10,0.0,9.786132009446224,0.0,0.0,-0.0001458425968141692,0.0,0.0,0.0,303.31386726721684,0.46012058027447744,30236.57725000633,228.9257643138889,-0.0,2.207217745981383e-09,-0.15952760751645642,0.0,0.0,0.0,0.0642798597035,87.45326670288242
2.1,6387259.426116001,978.111437911896,0.0,-20.54236614402984,465.766302373584,0.0,0.0,0.0031345000208121603,20.47104089318304,9122.50100307936,3.4358970929097924e-10,0.0,9.786138142997473,0.0,0.0,-0.00015313475858979528,0.0,0.0,0.0,303.3224477523672,0.46023138465007074,30245.56986916387,228.93871671833335,-0.0,2.8177290998919153e-09,-0.17590813054114182,0.0,0.0,0.0,0.06748937075,96.43309327364159
2.2,6387257.322996,1024.6880605390081,0.0,-21.51971649315048,465.76614894336,0.0,0.0,0.0034399596091704,21.4449947854644,9120.40520032152,3.950366399087389e-10,0.0,9.786144575468334,0.0,0.0,-0.0001604269250366206,0.0,0.0,0.0,303.33144619116484,0.46034761158286686,30255.00311684258,228.952300425,-0.0,3.5565512549310574e-09,-0.19309348257042672,0.0,0.0,0.0,0.0706982257548,105.85412827737213
2.3,6387255.122157121,1071.264667462824,0.0,-22.4969469824448,465.765988380816,0.0,0.0,0.0037595938682496,22.41882881572488,9118.21200811152,4.5137688268984877e-10,0.0,9.786151306889286,0.0,0.0,-0.00016771909637682553,0.0,0.0,0.0,303.3408624973512,0.4604692635667839,30264.877273716524,228.96651536000002,-0.0,4.442965516625331e-09,-0.21108448836109095,0.0,0.0,0.0,0.0739063934426,115.71682384544442
2.4,6387252.82362984,1117.841257976208,0.0,-23.47405211841096,465.765820679856,0.0,0.0,0.00409339832129976,23.3925374902188,9115.9214387328,5.128323283792825e-10,0.0,9.786158337168896,0.0,0.0,-0.00017501127283224145,0.0,0.0,0.0,303.35069658009604,0.4605963432122156,30275.192633531093,228.981361445,-0.0,5.498108835829457e-09,-0.22988201083521106,0.0,0.0,0.0,0.0771138425331,126.02165303385958
2.5,6387250.4273532,1164.41783136288,0.0,-24.45102640142064,465.76564584352803,0.0,0.0,0.00444136829034192,24.366115309287363,9113.53350498696,5.796247963031406e-10,0.0,9.786165666307165,0.0,0.0,-0.00018230345462557233,0.0,0.0,0.0,303.3609483443016,0.46072885324603124,30285.94950319875,228.99683859833334,-0.0,6.745059670412875e-09,-0.24948695105391575,0.0,0.0,0.0,0.080320541741,136.7691098055338
2.6,6387247.93341864,1210.99438690656,0.0,-25.427864325475202,465.765463868784,0.0,0.0,0.0048034988960462405,25.339556766870963,9111.04822022424,6.519760315743787e-10,0.0,9.786173294212656,0.0,0.0,-0.00018959564197603156,0.0,0.0,0.0,303.3716176918224,0.4608667965095143,30297.148202655386,229.012946735,-0.0,8.208925208199943e-09,-0.26990024819069636,0.0,0.0,0.0,0.0835264597755,147.95970901593427
2.7,6387245.34179568,1257.5709238970642,0.0,-26.40456037814472,465.76527475867204,0.0,0.0,0.00517978505669568,26.31285635032632,9108.465598374,7.301077019215437e-10,0.0,9.786181220915854,0.0,0.0,-0.00019688783510702127,0.0,0.0,0.0,303.38270451933124,0.46101017596042376,30308.78906495608,229.02968576611113,-0.0,9.916935735075173e-09,-0.29112287949938004,0.0,0.0,0.0,0.0867315653404,159.5939863982363
2.8,6387242.6525148,1304.14744162116,0.0,-27.381109040019364,465.76507851319207,0.0,0.0,0.0055702214891004,27.2860085402436,9105.785653853281,8.142413944162821e-10,0.0,9.786189446325327,0.0,0.0,-0.0002041800342419436,0.0,0.0,0.0,303.394208720148,0.46115899467247895,30320.872436227222,229.0470555988889,-0.0,1.1898522515554875e-08,-0.3131558602838815,0.0,0.0,0.0,0.0899358271336,171.67249854321372
2.9,6387239.865576001,1350.7239393625682,0.0,-28.35750478473984,465.76487513234406,0.0,0.0,0.005974802706525121,28.25900781011112,9103.008401749681,9.045986122322631e-10,0.0,9.786197970380112,0.0,0.0,-0.00021147223959896473,0.0,0.0,0.0,303.4061301836304,0.4613132558343286,30333.398675714405,229.0650561388889,-0.0,1.4185426510214782e-08,-0.33600024386751043,0.0,0.0,0.0,0.0931392138472,184.19582288391692
3.0,6387236.98100976,1397.300416411104,0.0,-29.333742078479283,465.76466461308,0.0,0.0,0.00639352302018264,29.231848626041042,9100.13385757752,1.001400771740951e-09,0.0,9.78620679308022,0.0,0.0,-0.00021876445140148678,0.0,0.0,0.0,303.41846879486883,0.4614729627516124,30346.368155686632,229.08368728611111,-0.0,1.6811767518179602e-08,-0.35965712155694096,0.0,0.0,0.0,0.0963416941669,197.1645576760423
3.1,6387233.998846561,1443.87687204744,0.0,-30.309815379882245,465.76444695540005,0.0,0.0,0.00682637653734408,30.20452544652552,9097.1620374912,1.104869199211187e-09,0.0,9.786215914364693,0.0,0.0,-0.00022605666986942125,0.0,0.0,0.0,303.43122443438165,0.4616381188448996,30359.781261675747,229.10294893722224,-0.0,1.981415323328272e-08,-0.38412762260884986,0.0,0.0,0.0,0.099543236772,210.57932198021624
3.2,6387230.919055921,1490.45330556444,0.0,-31.2857191397904,465.76422216540004,0.0,0.0,0.007273357161887521,31.1770327221624,9094.0929581328,1.2152251276902871e-09,0.0,9.786225334172574,0.0,0.0,-0.00023334889522442495,0.0,0.0,0.0,303.44439697994403,0.46180872765020425,30373.638392189157,229.12284098722225,-0.0,2.3231760909322677e-08,-0.4094129141929964,0.0,0.0,0.0,0.102743810335,224.44075564044923
3.3,6387227.741698801,1537.029716242776,0.0,-32.2614478002672,465.76399023698406,0.0,0.0,0.00773445859396272,32.1493648956552,9090.926636784481,1.332689693729803e-09,0.0,9.786235052442914,0.0,0.0,-0.0002406411276899,0.0,0.0,0.0,303.45798630384485,0.4619847928195007,30387.939958949202,229.143363325,-0.0,2.710642780953427e-08,-0.4355142013535229,0.0,0.0,0.0,0.105943383522,238.74951926354723
3.4,6387224.4667752,1583.6061033722642,0.0,-33.2369957963352,465.76375117015203,0.0,0.0,0.00820967432886336,33.121516400776805,9087.663091185601,1.457483934580779e-09,0.0,9.786245069145231,0.0,0.0,-0.0002479333674840126,0.0,0.0,0.0,303.4719922753248,0.4621663181207235,30402.68638665378,229.1645158377778,-0.0,3.1482752666342276e-08,-0.46243272697069976,0.0,0.0,0.0,0.109141924992,253.50629419900193
3.5,6387221.0943156,1630.1824662396723,0.0,-34.2123575532024,465.76350496795203,0.0,0.0,0.008698997657118481,34.09348166304,9084.3023397156,1.5898287843976596e-09,0.0,9.786255384218576,0.0,0.0,-0.00025522561482841955,0.0,0.0,0.0,303.4864147590528,0.4623533074362213,30417.878113311497,229.18629840833336,-0.0,3.6408185475876385e-08,-0.4901697717208916,0.0,0.0,0.0,0.112339403396,268.71178251505086
3.6,6387217.6243199995,1676.7588041287202,0.0,-35.1875274872376,465.76325163038405,0.0,0.0,0.00920242166379144,35.0652550994232,9080.8444012416,1.72994507157841e-09,0.0,9.786265997601992,0.0,0.0,-0.00026251786994477765,0.0,0.0,0.0,303.50125361604,0.46254576476533354,30433.515589906514,229.20871091666666,-0.0,4.193312333090249e-08,-0.5187266540338544,0.0,0.0,0.0,0.115535787378,284.36670697617336
3.7,6387214.05681888,1723.335116326176,0.0,-36.1625000062752,465.7629911544,0.0,0.0,0.009719939228297041,36.0368311168464,9077.2892952708,1.878053515223241e-09,0.0,9.786276909234523,0.0,0.0,-0.00026981013305299835,0.0,0.0,0.0,303.5165087030304,0.4627436942223295,30449.59928063795,229.2317532377778,-0.0,4.811100297821705e-08,-0.5481047300478087,0.0,0.0,0.0,0.118731045575,300.47181101915055
3.8,6387210.391812241,1769.911402121856,0.0,-37.1372695080912,465.762723543048,0.0,0.0,0.01025154302394432,37.008204113390406,9073.63704179808,2.0343747219528736e-09,0.0,9.78628811905522,0.0,0.0,-0.0002771024043747386,0.0,0.0,0.0,303.5321798728056,0.4629471000358924,30466.129662824093,229.255425245,-0.0,5.4998396891693416e-08,-0.578305393564067,0.0,0.0,0.0,0.121925146615,317.02785872864655
3.9,6387206.629361041,1816.487660796432,0.0,-38.1118303813176,465.76244879632804,0.0,0.0,0.01079722551732696,37.9793684773824,9069.88766139744,2.199129183262622e-09,0.0,9.786299627033602,0.0,0.0,-0.0002843946841299097,0.0,0.0,0.0,303.5482669741848,0.4631559865516963,30483.107226902444,229.27972680611114,-0.0,6.265511126242263e-08,-0.6093300760025521,0.0,0.0,0.0,0.125118059117,334.0356348103953
4.0,6387202.769465281,1863.063891642768,0.0,-39.086177004223195,465.762166911192,0.0,0.0,0.011356978968018482,38.9503185870912,9066.041175222,2.37253727156224e-09,0.0,9.786311433047759,0.0,0.0,-0.00029168697253667797,0.0,0.0,0.0,303.5647698511104,0.46337035822982964,30500.53247652545,229.30465778722223,-0.0,7.114428156048119e-08,-0.6411802463484186,0.0,0.0,0.0,0.128309751694,351.4959445663032
4.1,6387198.81212496,1909.6400939415362,0.0,-40.06030374501841,465.76187788764,0.0,0.0,0.011930795427718799,39.921048810422405,9062.097605004,2.5548192369837128e-09,0.0,9.786323537067215,0.0,0.0,-0.00029897926981844547,0.0,0.0,0.0,303.58168834508643,0.46359021964634084,30518.40592841686,229.33021804944445,-0.0,8.053247561228054e-08,-0.6738574111120185,0.0,0.0,0.0,0.13150019295,369.40961386667783
4.2,6387194.757401041,1956.216266982552,0.0,-41.0342049615504,465.76158172872,0.0,0.0,0.01251866673994944,40.891553505528,9058.05697299384,2.7461952047807185e-09,0.0,9.786335939031023,0.0,0.0,-0.00030627157619512373,0.0,0.0,0.0,303.5990222921304,0.4638155754922079,30536.728112515375,229.35640745055557,-0.0,9.08897898400658e-08,-0.7073631142710745,0.0,0.0,0.0,0.134689351478,387.7774891210219
4.3,6387190.605293521,2002.792410049536,0.0,-42.007875000998396,465.76127843443203,0.0,0.0,0.013120584539748719,41.86182701897761,9053.91930202104,2.94688517152381e-09,0.0,9.78634863887822,0.0,0.0,-0.0003135638918848788,0.0,0.0,0.0,303.6167715246024,0.46404643057333833,30555.49957197467,229.38322584500003,-0.0,1.0228994831580441e-07,-0.7416989372173011,0.0,0.0,0.0,0.137877195865,406.60043724978334
4.4,6387186.35583288,2049.368522432304,0.0,-42.98130819926401,465.76096800172803,0.0,0.0,0.013736540252970721,42.831863686977606,9049.684615494241,3.1571090019064616e-09,0.0,9.786361636486898,0.0,0.0,-0.00032085621710936765,0.0,0.0,0.0,303.6349358712048,0.4642827898110845,30574.720862971815,229.41067308444445,-0.0,1.1481040127995351e-07,-0.7768664986985782,0.0,0.0,0.0,0.141063694686,425.8793456551483
4.5,6387182.009049601,2095.944603411528,0.0,-43.9544988809712,465.76065043365605,0.0,0.0,0.014366525095523282,43.801657834152,9045.35293737072,3.3770864260921676e-09,0.0,9.786374931857065,0.0,0.0,-0.00032814855208675636,0.0,0.0,0.0,303.6535151563728,0.4645246582432744,30594.392554946742,229.438749015,-0.0,1.285324358047623e-07,-0.8128674547655721,0.0,0.0,0.0,0.14424881651,445.6151221875254
4.6,6387177.564943681,2142.520652280072,0.0,-44.927441360076,465.76032572716804,0.0,0.0,0.01501053007324608,44.7712037738472,9040.92429218688,3.6070370353511217e-09,0.0,9.786388524836326,0.0,0.0,-0.0003354408970369563,0.0,0.0,0.0,303.6725091999696,0.4647720410206037,30614.515230602203,229.46745348055558,-0.0,1.435412675677561e-07,-0.8497034987272531,0.0,0.0,0.0,0.147432529893,465.8086951177746
4.7,6387173.02357608,2189.096668318608,0.0,-45.90012993773281,465.759993885312,0.0,0.0,0.01566854598157536,45.74049580752241,9036.39870505824,3.847180280018181e-09,0.0,9.786402415424691,0.0,0.0,-0.0003427332521798792,0.0,0.0,0.0,303.6919178188104,0.46502494341024414,30635.089485664368,229.49678632111113,-0.0,1.599261414202445e-07,-0.8873763610663801,0.0,0.0,0.0,0.150614803383,486.46101310177653
4.8,6387168.38491632,2235.6726508200004,0.0,-46.8725589035136,465.75965490504,0.0,0.0,0.016340563403593203,46.7095282247496,9031.77620167944,4.097735465042274e-09,0.0,9.786416603500244,0.0,0.0,-0.0003500256177354364,0.0,0.0,0.0,303.7117408245288,0.4652833707937813,30656.115929218024,229.52674737222222,-0.0,1.7778046142218383e-07,-0.9258878093905688,0.0,0.0,0.0,0.153795605518,507.5730451416486
4.9,6387163.64905584,2282.248599061872,0.0,-47.844722535408,465.759308786352,0.0,0.0,0.0170265727106676,47.678295302604006,9027.05680826328,4.358921747193878e-09,0.0,9.78643108900203,0.0,0.0,-0.00035731799392179405,0.0,0.0,0.0,303.7319780257104,0.46554732866876103,30677.595183419253,229.5573364677778,-0.0,1.9720187329441294e-07,-0.9652396483744664,0.0,0.0,0.0,0.156974904825,529.1457805689878
5.0,6387158.815994641,2328.8245123370884,0.0,-48.816615097689606,465.758955532296,0.0,0.0,0.017726564062269603,48.6467913062736,9022.24055166264,4.630958132377208e-09,0.0,9.786445871869102,0.0,0.0,-0.00036461038095886365,0.0,0.0,0.0,303.752629226064,0.4658168226461124,30699.52788368697,229.58855343611114,-0.0,2.1829236190988165e-07,-1.0054337196885788,0.0,0.0,0.0,0.160152669822,551.1802289821469
5.1,6387153.885763201,2375.400389932416,0.0,-49.7882308427448,465.758595142872,0.0,0.0,0.0184405274035044,49.6150104875352,9017.32745924856,4.914063471162176e-09,0.0,9.786460951949067,0.0,0.0,-0.00037190277906306603,0.0,0.0,0.0,303.77369422594563,0.4660918584532404,30721.91467870292,229.62039810222223,-0.0,2.411583969920359e-07,-1.0464719019280997,0.0,0.0,0.0,0.163328869016,573.6774202328281
5.2,6387148.858361521,2421.976231128528,0.0,-50.759564009548804,465.758227615032,0.0,0.0,0.01916845246675728,50.5829470856688,9012.317558971201,5.208456456515463e-09,0.0,9.78647632924193,0.0,0.0,-0.00037919518845605803,0.0,0.0,0.0,303.7951728211392,0.4663724419309331,30744.756230268053,229.6528702877778,-0.0,2.6591099515549914e-07,-1.0883561105506352,0.0,0.0,0.0,0.166503470901,596.6384043829913
5.3,6387143.733850561,2468.5520352152403,0.0,-51.73060882427521,465.757852948776,0.0,0.0,0.01991032876919424,51.5505953262384,9007.2108794208,5.514355619594275e-09,0.0,9.786492003595303,0.0,0.0,-0.0003864876093560058,0.0,0.0,0.0,303.8170648031616,0.4666585790359388,30768.053213494015,229.6859698111111,-0.0,2.926658669073416e-07,-1.1310882978050327,0.0,0.0,0.0,0.169676443963,620.0642516521852
5.4,6387138.5122608,2515.127801482368,0.0,-52.7013594993816,465.75747114715205,0.0,0.0,0.020666145612853442,52.5179494213968,9002.007449705761,5.831979326622202e-09,0.0,9.78650797497871,0.0,0.0,-0.0003937800419793301,0.0,0.0,0.0,303.8393699604816,0.46695027583890464,30791.806316707403,229.71969648611113,-0.0,3.2154351352534375e-07,-1.1746704526602085,0.0,0.0,0.0,0.172847756676,643.9560523983954
5.5,6387133.19359224,2561.703529207536,0.0,-53.67181023269521,465.757082207112,0.0,0.0,0.02143589208427944,53.4850035698856,8996.707299544081,6.161545776585389e-09,0.0,9.786524243239766,0.0,0.0,-0.00040107248654594257,0.0,0.0,0.0,303.8620880763864,0.4672475385254073,30816.016241401903,229.7540501238889,-0.0,3.52669332760197e-07,-1.2191046007206328,0.0,0.0,0.0,0.176017377502,668.3149170558002
5.6,6387127.77790584,2608.279217683608,0.0,-54.6419552095464,465.75668613170404,0.0,0.0,0.02221955705342592,54.45175195612081,8991.3104592024,6.503272996048899e-09,0.0,9.786540808347992,0.0,0.0,-0.00040836494327226383,0.0,0.0,0.0,303.88521893050563,0.46755037339492195,30840.68370242977,229.78903053055558,-0.0,3.861737394312397e-07,-1.2643928041685013,0.0,0.0,0.0,0.179185274892,693.1419761204062
5.7,6387122.2652016,2654.8548661973523,0.0,-55.6117886000256,465.756282914832,0.0,0.0,0.023017129173137522,55.4181887501928,8985.81695952648,6.857378837376487e-09,0.0,9.78655767018148,0.0,0.0,-0.0004156574123782055,0.0,0.0,0.0,303.9087622985064,0.4678587868628842,30865.809427858236,229.82463750944444,-0.0,4.221922782311334e-07,-1.3105371616614279,0.0,0.0,0.0,0.182351417284,718.4383800830163
5.8,6387116.65554048,2701.43047402944,0.0,-56.581304559897596,465.75587256564006,0.0,0.0,0.023828596878113523,56.384308108171204,8980.22683203264,7.224080973965844e-09,0.0,9.7865748286488,0.0,0.0,-0.00042294989408018846,0.0,0.0,0.0,303.93271795209364,0.4681727854581128,30891.394158969455,229.86087086,-0.0,4.6086574418904165e-07,-1.3575398082701675,0.0,0.0,0.0,0.185515773106,744.2052993861377
5.9,6387110.94895296,2748.006040472736,0.0,-57.550497230296806,465.755455074984,0.0,0.0,0.024653948384907844,57.350104170580806,8974.5401086944,7.603596898224019e-09,0.0,9.78659228365852,0.0,0.0,-0.0004302423885963787,0.0,0.0,0.0,303.95708565840005,0.4684923758233254,30917.438650308442,229.89773037833334,-0.0,5.023402861731857e-07,-1.4054029153985506,0.0,0.0,0.0,0.188678310773,770.4439244000405
6.0,6387105.14546952,2794.581564807912,0.0,-58.51936073711761,465.75503045200804,0.0,0.0,0.025493171690618405,58.31557106331601,8968.756822155841,7.996143917308811e-09,0.0,9.786610035119208,0.0,0.0,-0.0004375348961431972,0.0,0.0,0.0,303.9818651809008,0.4688175647166845,30943.94366982666,229.93521585500002,-0.0,5.467675343790996e-07,-1.4541286906767232,0.0,0.0,0.0,0.191838998688,797.1554653509389
6.1,6387099.2450901605,2841.157046324784,0.0,-59.487889191319205,465.75459868756803,0.0,0.0,0.02634625457218608,59.280702897336006,8962.87700564016,8.401939149812651e-09,0.0,9.786628082908955,0.0,0.0,-0.00044482741693881,0.0,0.0,0.0,304.00705627910884,0.4691483590102512,30970.90999864266,229.97332708000002,-0.0,5.943047230676299e-07,-1.503719377903322,0.0,0.0,0.0,0.194997805241,824.3411522874743
6.2,6387093.247906321,2887.7324843070724,0.0,-60.45607668770641,465.75415978776,0.0,0.0,0.02721318458578512,60.245493768055205,8956.90069294968,8.821199522359202e-09,0.0,9.786646426936331,0.0,0.0,-0.00045211995119963806,0.0,0.0,0.0,304.03265870766,0.46948476568947,30998.338431137814,230.01206383611114,-0.0,6.451148059784938e-07,-1.554177256934268,0.0,0.0,0.0,0.198154698808,852.0022350376227
6.3,6387087.15388752,2934.307878041544,0.0,-61.4239173064536,465.753713749536,0.0,0.0,0.028093949066396402,61.209937754124006,8950.82791846584,9.2541417663396e-09,0.0,9.786665067109906,0.0,0.0,-0.000459412499142102,0.0,0.0,0.0,304.0586722181424,0.46982679185523024,31026.2297750521,230.051425905,-0.0,6.99366568839149e-07,-1.6055046436026983,0.0,0.0,0.0,0.201309647756,880.139983136875
6.4,6387080.9631252,2980.8832268180163,0.0,-62.3914051103616,465.753260572896,0.0,0.0,0.02898853512655776,62.1740289195624,8944.658717149201,9.700982414875577e-09,0.0,9.786684003338246,0.0,0.0,-0.00046670506098262285,0.0,0.0,0.0,304.0850965572672,0.47017444472180464,31054.584851436186,230.0914130627778,-0.0,7.57234766285502e-07,-1.6577038896166578,0.0,0.0,0.0,0.204462620436,908.7556857995083
6.5,6387074.67561936,3027.458529920208,0.0,-63.358534147296005,465.752800260888,0.0,0.0,0.029896929655967762,63.137761311321604,8938.39312463088,1.0161937798054711e-08,0.0,9.786703235468964,0.0,0.0,-0.0004739976369376214,0.0,0.0,0.0,304.1119314683928,0.4705277316163339,31083.404494651473,230.1320250827778,-0.0,8.189002333432396e-07,-1.7107773824745822,0.0,0.0,0.0,0.207613585185,937.8506518611301
6.6,6387068.2914309595,3074.03378663184,0.0,-64.3252984477488,465.75233281046405,0.0,0.0,0.030819119319626404,64.1011289601984,8932.03117706016,1.0637224040190262e-08,0.0,9.786722763410632,0.0,0.0,-0.00048129022722351837,0.0,0.0,0.0,304.139176689696,0.47088665998140344,31112.68955237007,230.17326173444445,-0.0,8.845500447052993e-07,-1.7647275453674371,0.0,0.0,0.0,0.21076251033,967.4262097020695
6.7,6387061.81056,3120.6089962396804,0.0,-65.29169202575281,465.75185822162405,0.0,0.0,0.03175509055878,65.064125879616,8925.57291119592,1.1127057057238087e-08,0.0,9.786742587071819,0.0,0.0,-0.0004885828320567347,0.0,0.0,0.0,304.1668319566104,0.47125123737298213,31142.440885526907,230.21512278277777,-0.0,9.543775874914306e-07,-1.8195568370630661,0.0,0.0,0.0,0.213909364181,997.4837072425894
6.8,6387055.23309792,3167.1841580244,0.0,-66.257708878272,465.751376494368,0.0,0.0,0.03270482958894,66.02674606714801,8919.01836443712,1.1631652550722885e-08,0.0,9.786762706330613,0.0,0.0,-0.0004958754516519458,0.0,0.0,0.0,304.19489699938805,0.4716214714593915,31172.659368463395,230.2576079888889,-0.0,1.0285827384030691e-06,-1.8752677518216705,0.0,0.0,0.0,0.217054115037,1028.0245118231853
6.9,6387048.559044721,3213.7592713154404,0.0,-67.22334298520161,465.75088763174404,0.0,0.0,0.033668322399364806,66.9889835023848,8912.367574731361,1.2151226008087275e-08,0.0,9.786783121065104,0.0,0.0,-0.0005031680862255726,0.0,0.0,0.0,304.223371544928,0.4719973700243977,31203.345888831653,230.30071711166667,-0.0,1.1073719550497748e-06,-1.9318628192801608,0.0,0.0,0.0,0.220196731182,1059.0500101997982
7.0,6387041.788430881,3260.33433532032,0.0,-68.1885883087584,465.75039163070403,0.0,0.0,0.034645554751932,67.9508321475432,8905.620580696801,1.2685992695326499e-08,0.0,9.786803831183867,0.0,0.0,-0.0005104607359922905,0.0,0.0,0.0,304.25225531525285,0.472378940964635,31234.501347690275,230.34444990444445,-0.0,1.1909584441542832e-06,-1.989344604349843,0.0,0.0,0.0,0.223337180884,1090.5616084672054
7.1,6387034.92134784,3306.9093493989603,0.0,-69.1534387937856,465.749888494296,0.0,0.0,0.0356365121805288,68.9122859468568,8898.77742146976,1.3236167655749238e-08,0.0,9.786824836534512,0.0,0.0,-0.0005177534011685203,0.0,0.0,0.0,304.281548029032,0.4727661922896057,31266.126659312813,230.38880611666667,-0.0,1.27956227290039e-06,-2.04771570709632,0.0,0.0,0.0,0.2264754324,1122.5607319776248
7.2,6387027.95776512,3353.48431278936,0.0,-70.11788836714321,465.749378216424,0.0,0.0,0.036641179990442405,69.8733388271856,8891.83813685712,1.3801965705317583e-08,0.0,9.786846137025607,0.0,0.0,-0.000525046081965447,0.0,0.0,0.0,304.31124940036324,0.47315913212219535,31298.222751522924,230.43378549555558,-0.0,1.3734105026909742e-06,-2.1069787626505234,0.0,0.0,0.0,0.229611453971,1155.048825316774
7.3,6387020.897774161,3400.05922479048,0.0,-71.0819309367936,465.748860803184,0.0,0.0,0.0376595432577504,70.8339846971016,8884.80276727536,1.4383601430221036e-08,0.0,9.786867732504763,0.0,0.0,-0.0005323387786012366,0.0,0.0,0.0,304.3413591393816,0.4735577686997035,31330.790565359206,230.47938778222223,-0.0,1.47273732863978e-06,-2.167136441066376,0.0,0.0,0.0,0.232745213823,1188.0273522081097
7.4,6387013.7414054405,3446.6340847012802,0.0,-72.0455603933256,465.74833625152803,0.0,0.0,0.0386915868268824,71.7942174462792,8877.6713536896,1.4981289182094292e-08,0.0,9.786889622880556,0.0,0.0,-0.0005396314912888194,0.0,0.0,0.0,304.3718769525648,0.4739621103707517,31363.831055314633,230.52561271555555,-0.0,1.5777842295209687e-06,-2.2281914472229243,0.0,0.0,0.0,0.235876680168,1221.497795474525
7.5,6387006.48868944,3493.20889182072,0.0,-73.00877060782081,465.74780456145606,0.0,0.0,0.0397372953115344,72.7540309464096,8870.443937766,1.5595243075207274e-08,0.0,9.786911808031077,0.0,0.0,-0.0005469242202428708,0.0,0.0,0.0,304.4028025415136,0.4743721655983755,31397.34518928864,230.57246003000003,-0.0,1.688800072315668e-06,-2.2901465206864495,0.0,0.0,0.0,0.239005821204,1255.4616569521627
7.6,6386999.139656641,3539.7836453868003,0.0,-73.97155543307281,465.74726573296806,0.0,0.0,0.0407966530931448,73.713419049372,8863.12056168888,1.6225676981735285e-08,0.0,9.786934287803932,0.0,0.0,-0.000554216965676321,0.0,0.0,0.0,304.4341356041712,0.474787942957963,31431.333948491374,230.61992945611112,-0.0,1.8060412994643131e-06,-2.3530044356081543,0.0,0.0,0.0,0.242132605112,1289.920457428173
7.7,6386991.694368,3586.35834472896,0.0,-74.933908702368,465.746719769112,0.0,0.0,0.041869644319065605,74.6723755890624,8855.7012683436,1.687280453051982e-08,0.0,9.78695706207722,0.0,0.0,-0.0005615097278038455,0.0,0.0,0.0,304.4658758342136,0.4752094511382857,31465.79832758733,230.66802072000002,-0.0,1.929772045418947e-06,-2.4167680005818224,0.0,0.0,0.0,0.245257000059,1324.8757365832553
7.8,6386984.15288448,3632.9329891156804,0.0,-75.89582422948561,465.74616666684,0.0,0.0,0.042956252903172,75.6308943789552,8848.18610116416,1.7536839100349047e-08,0.0,9.78698013072903,0.0,0.0,-0.0005688025068383744,0.0,0.0,0.0,304.4980229210496,0.4756366989399525,31500.739334695365,230.71673354444445,-0.0,2.060264266255502e-06,-2.481440058532611,0.0,0.0,0.0,0.248378974196,1360.329052910264
7.9,6386976.515236561,3679.50757781544,0.0,-76.85729580900241,465.745606426152,0.0,0.0,0.0440564625246432,76.58896921362721,8840.57510425512,1.8217993819102617e-08,0.0,9.787003493637448,0.0,0.0,-0.0005760953029945833,0.0,0.0,0.0,304.53057655073525,0.47606969527695514,31536.15799124504,230.7660676488889,-0.0,2.197797904289139e-06,-2.547023486552468,0.0,0.0,0.0,0.25149849566,1396.281983637598
8.0,6386968.781454721,3726.08211015768,0.0,-77.8183172153784,465.74503904704807,0.0,0.0,0.045170256625524,77.5465938672336,8832.86832233064,1.8916481557642976e-08,0.0,9.787027150650093,0.0,0.0,-0.0005833881164819117,0.0,0.0,0.0,304.5635364041448,0.47650844917512303,31572.055332168162,230.81602274666668,-0.0,2.342661053703776e-06,-2.6135211958156153,0.0,0.0,0.0,0.25461553257,1432.736124671745
8.1,6386960.951569441,3772.6565853804,0.0,-78.7788822032616,465.74446452952805,0.0,0.0,0.0462976184113344,78.50376209442241,8825.065800684,1.9632514927616282e-08,0.0,9.78705110161458,0.0,0.0,-0.000590680947515035,0.0,0.0,0.0,304.59690215910484,0.4769529697731533,31608.432405802985,230.86659854944446,-0.0,2.495150072447106e-06,-2.6809361313917237,0.0,0.0,0.0,0.257730053031,1469.6930905063102
8.2,6386953.02567216,3819.2310028130405,0.0,-79.73898450657362,465.74388287664,0.0,0.0,0.047438530848936004,79.46046762942,8817.167585340001,2.036630627764758e-08,0.0,9.787075346439476,0.0,0.0,-0.0005979737963068836,0.0,0.0,0.0,304.63067348826,0.4774032663220958,31645.29027394215,230.91779476333332,-0.0,2.6555697671920988e-06,-2.749271272143603,0.0,0.0,0.0,0.260842025132,1507.154514154982
8.3,6386945.00379336,3865.8053617240803,0.0,-80.69861783911921,465.743294085336,0.0,0.0,0.0485929766674464,80.4167041851168,8809.173722811121,2.111806768932652e-08,0.0,9.787099884941915,0.0,0.0,-0.0006052666630668967,0.0,0.0,0.0,304.66485006059764,0.4778593481843221,31682.630011784742,230.96961109166668,-0.0,2.8242335050629827e-06,-2.8185296305581717,0.0,0.0,0.0,0.263951416944,1545.1220470749254
8.4,6386936.88596352,3912.3796613820004,0.0,-81.657775893672,465.74269815561604,0.0,0.0,0.049760938355496005,81.37246545489602,8801.08426034136,2.188801097371673e-08,0.0,9.787124717030471,0.0,0.0,-0.0006125595480114954,0.0,0.0,0.0,304.6994315414472,0.47832122483558714,31720.452707984216,231.02204723222223,-0.0,3.001463400104695e-06,-2.8887142526263503,0.0,0.0,0.0,0.267058196525,1583.5973590758078
8.5,6386928.67227408,3958.95390111624,0.0,-82.6164523422792,465.74209508748004,0.0,0.0,0.0509423981603136,82.3277451098904,8792.89924575384,2.2676347667167015e-08,0.0,9.787149842491797,0.0,0.0,-0.0006198524513483736,0.0,0.0,0.0,304.7344175912616,0.4787889058624523,31758.759464792,231.07510288,-0.0,3.1875904742640233e-06,-2.9598282176606916,0.0,0.0,0.0,0.270162331914,1622.5821382479803
8.6,6386920.36269456,4005.5280801648005,0.0,-83.5746408350424,465.74148488092806,0.0,0.0,0.0521373380877264,83.2825368014208,8784.61872757272,2.3483289027297098e-08,0.0,9.787175261234463,0.0,0.0,-0.0006271453732887163,0.0,0.0,0.0,304.769807866836,0.4792624009633163,31797.55139772239,231.1287777261111,-0.0,3.3829547826203865e-06,-3.031874638184168,0.0,0.0,0.0,0.273263791135,1662.0780908715037
8.7,6386911.95734688,4052.1021978571202,0.0,-84.5323350013368,465.74086753596004,0.0,0.0,0.053345739900636,84.23683415794801,8776.2427548708,2.430904603125229e-08,0.0,9.787200973106088,0.0,0.0,-0.0006344383140454538,0.0,0.0,0.0,304.80560201978403,0.4797417199489301,31836.829635887636,231.18307145555556,-0.0,3.587905601808057e-06,-3.1048566597300056,0.0,0.0,0.0,0.276362542194,1702.0869413443295
8.8,6386903.45626152,4098.6762534312,0.0,-85.4895284488968,465.74024305562403,0.0,0.0,0.054567585117494405,85.19063078690161,8767.7713774524,2.51538293688967e-08,0.0,9.7872269779238,0.0,0.0,-0.0006417312738297708,0.0,0.0,0.0,304.84179970202405,0.4802268727413669,31876.595321854362,231.23798375222225,-0.0,3.8028015811489346e-06,-3.1787774607260286,0.0,0.0,0.0,0.279458553081,1742.610432072174
8.9,6386894.85946896,4145.25024621648,0.0,-86.4462147632064,465.739611433824,0.0,0.0,0.055802855012304,86.14392027407041,8759.20464564,2.6017849440893394e-08,0.0,9.7872532755657,0.0,0.0,-0.0006490242528493615,0.0,0.0,0.0,304.878400552368,0.4807178693729907,31916.849611643538,231.2935142938889,-0.0,4.028010910519538e-06,-3.2536402522989394,0.0,0.0,0.0,0.282551791771,1783.6503234110628
9.0,6386886.16703016,4191.82417548144,0.0,-87.40238750749921,465.73897267665603,0.0,0.0,0.057051530612484,87.096696182688,8750.542610518081,2.6901316355039176e-08,0.0,9.78727986587939,0.0,0.0,-0.0006563172513171559,0.0,0.0,0.0,304.9154042142,0.4812147199885181,31957.593674922024,231.34966275444444,-0.0,4.263911482519818e-06,-3.3294482781319736,0.0,0.0,0.0,0.285642226219,1825.2083935428416
9.1,6386877.37900608,4238.39804052504,0.0,-88.3580402230632,465.73832678107203,0.0,0.0,0.058313592698565606,88.0489520537376,8741.78532371976,2.7804439921377687e-08,0.0,9.787306748712494,0.0,0.0,-0.000663610269439103,0.0,0.0,0.0,304.95281032176,0.4817174348445031,31998.828694667365,231.40642880444446,-0.0,4.510891050896568e-06,-3.4062048142780763,0.0,0.0,0.0,0.288729824364,1867.2864384129332
9.2,6386868.495427201,4284.97184061576,0.0,-89.31316642832641,465.737673747072,0.0,0.0,0.059589021802972805,89.00068140534239,8732.93283764016,2.872742964870874e-08,0.0,9.787333923882143,0.0,0.0,-0.0006709033074298784,0.0,0.0,0.0,304.990618509288,0.4822260243062442,32040.555867502993,231.4638121088889,-0.0,4.76934742566912e-06,-3.4839131690131087,0.0,0.0,0.0,0.291814554128,1909.8862716154226
9.3,6386859.51638496,4331.54557502208,0.0,-90.2677596188568,465.73701357465603,0.0,0.0,0.0608777982088032,89.95187773368,8723.98520522304,2.967049474109766e-08,0.0,9.787361391235947,0.0,0.0,-0.0006781963654954308,0.0,0.0,0.0,305.028828404928,0.48274049885139314,32082.7764035067,231.52181233055555,-0.0,5.039688625231827e-06,-3.56257668263568,0.0,0.0,0.0,0.294896383417,1953.009724311663
9.4,6386850.44190984,4378.11924307344,0.0,-91.22181326766722,465.73634626687203,0.0,0.0,0.0621799019489136,90.9025345111536,8714.94248008272,3.063384409368649e-08,0.0,9.787389150652011,0.0,0.0,-0.0006854894438434546,0.0,0.0,0.0,305.06743962768,0.48326086906840754,32125.49152630639,231.5804291261111,-0.0,5.322333040324412e-06,-3.6421987272892187,0.0,0.0,0.0,0.297975280116,1996.6586451201485
9.5,6386841.2720323205,4424.69284403832,0.0,-92.175320823996,465.73567181762405,0.0,0.0,0.0634953128047008,91.85264518730641,8705.80471650408,3.161768628867973e-08,0.0,9.787417201916977,0.0,0.0,-0.0006927825426868797,0.0,0.0,0.0,305.10645180264,0.4837871456555209,32168.70247303218,231.63966215000002,-0.0,5.617709624522612e-06,-3.7227827068107318,0.0,0.0,0.0,0.301051212097,2040.8349000159687
9.6,6386832.00684384,4471.26637721568,0.0,-93.12827571391679,465.73499023300803,0.0,0.0,0.0648240103042728,92.8022031876024,8696.57196947304,3.2622229591679185e-08,0.0,9.78744554487847,0.0,0.0,-0.0007000756622299097,0.0,0.0,0.0,305.14586453966405,0.4843193394217732,32212.410494364325,231.69951105055557,-0.0,5.926258096587776e-06,-3.8043320564994967,0.0,0.0,0.0,0.304124147212,2085.5403722446217
9.7,6386822.646405361,4517.839841874001,0.0,-94.0806713400336,465.73430150997604,0.0,0.0,0.0661659737239728,93.7512019146456,8687.24429452416,3.364768194714604e-08,0.0,9.787474179384096,0.0,0.0,-0.0007073688026819841,0.0,0.0,0.0,305.18567745165603,0.48485746128598006,32256.616854628934,231.75997547277777,-0.0,6.248429059946098e-06,-3.8868502429658247,0.0,0.0,0.0,0.307194053293,2130.7769622118903
9.8,6386813.19074736,4564.41323728176,0.0,-95.0325010805664,465.73360564852806,0.0,0.0,0.0675211820831976,94.69963474696081,8677.821747954,3.4694250975782934e-08,0.0,9.787503105281475,0.0,0.0,-0.0007146619642507973,0.0,0.0,0.0,305.225890145424,0.4854015222772482,32301.322831510734,231.8210550577778,-0.0,6.584684233996144e-06,-3.970340763921991,0.0,0.0,0.0,0.310260898159,2176.5465873545663
9.9,6386803.639930801,4610.98656273792,0.0,-95.9837582899608,465.73290264866404,0.0,0.0,0.06888961414744561,95.6474950386888,8668.30438666872,3.5762143968774315e-08,0.0,9.787532322357263,0.0,0.0,-0.0007219551471440432,0.0,0.0,0.0,305.266502227776,0.48595153353445997,32346.529716483932,231.88274944166668,-0.0,6.9354966141113795e-06,-4.054807147977619,0.0,0.0,0.0,0.313324649608,2222.8511820686285
10.0,6386793.994016641,4657.55981757192,0.0,-96.9344362982784,465.73219251038404,0.0,0.0,0.0702712484237448,96.59477611958641,8658.69226824504,3.685156788447037e-08,0.0,9.787561830459072,0.0,0.0,-0.0007292483515676706,0.0,0.0,0.0,305.30751329028004,0.4865075063062736,32392.238814381362,231.94505825666667,-0.0,7.30135068875787e-06,-4.140252954443958,0.0,0.0,0.0,0.31638527542,2269.692697579967
10.1,6386784.25306584,4704.13300102176,0.0,-97.88452841119681,465.731475236736,0.0,0.0,0.07166606316126241,97.541471295636,8648.98545096072,3.7962729345943526e-08,0.0,9.787591629404043,0.0,0.0,-0.0007365415777293741,0.0,0.0,0.0,305.348922933648,0.48706945195112267,32438.451443681697,232.0079811316667,-0.0,7.682742576721915e-06,-4.226681773151505,0.0,0.0,0.0,0.319442743358,2317.073101834258
10.2,6386774.41710888,4750.7061123864005,0.0,-98.83402790939999,465.73075082162404,0.0,0.0,0.0730740363506952,98.4875738475216,8639.1839937336,3.9095834635054325e-08,0.0,9.78762171903978,0.0,0.0,-0.0007438348258351021,0.0,0.0,0.0,305.390730743352,0.48763738193670136,32485.168936557406,232.07151768888892,-0.0,8.080180245206355e-06,-4.3140972242098,0.0,0.0,0.0,0.322497021167,2364.9943793724756
10.3,6386764.48626768,4797.279150934321,0.0,-99.78292804918802,465.73001927114404,0.0,0.0,0.0744951457215264,99.4330770309336,8629.28795618256,4.0251089687390013e-08,0.0,9.78765209915295,0.0,0.0,-0.0007511280960890585,0.0,0.0,0.0,305.432936307912,0.4882113078389333,32532.39263853951,232.13566754833334,-0.0,8.494183725880694e-06,-4.402502957798366,0.0,0.0,0.0,0.325548076573,2413.45853123992
10.4,6386754.4605727205,4843.8521159949605,0.0,-100.73122206125761,465.729280582248,0.0,0.0,0.0759293687417208,100.37797407687361,8619.29739853608,4.142870009156637e-08,0.0,9.787682769591164,0.0,0.0,-0.0007584213887006823,0.0,0.0,0.0,305.475539206704,0.4887912413445485,32580.123908900678,232.200430325,-0.0,8.925285278397735e-06,-4.49190265398877,0.0,0.0,0.0,0.328595877283,2462.467574847362
10.5,6386744.34005448,4890.4250068368,0.0,-101.67890315070241,465.72853475798405,0.0,0.0,0.0773766826165056,101.3222581904352,8609.21238178464,4.262887108276999e-08,0.0,9.78771373014108,0.0,0.0,-0.000765714703870687,0.0,0.0,0.0,305.518539022152,0.4893771942469605,32628.36412055947,232.26580562944446,-0.0,9.374029589362514e-06,-4.582300022437704,0.0,0.0,0.0,0.331640390988,2512.0235438513464
10.6,6386734.1248044,4936.99782269784,0.0,-102.6259644979272,465.727781792256,0.0,0.0,0.0788370642871512,102.26592255141361,8599.0329675588,4.3851807538744046e-08,0.0,9.787744980650315,0.0,0.0,-0.0007730080418067662,0.0,0.0,0.0,305.56193532448805,0.489969178449874,32677.1146598409,232.33179306833333,-0.0,9.84097396663064e-06,-4.673698802293569,0.0,0.0,0.0,0.334681585357,2562.1284880344874
10.7,6386723.814883441,4983.570562938,0.0,-103.57239925681921,465.72702169116,0.0,0.0,0.08031049042944721,103.2089603143056,8588.759218159681,4.5097713976123094e-08,0.0,9.787776520936,0.0,0.0,-0.0007803014027131239,0.0,0.0,0.0,305.605727683944,0.49056720596470743,32726.376926859495,232.39839224277776,-0.0,1.0326688587430086e-05,-4.766102761822823,0.0,0.0,0.0,0.337719428044,2612.7844731905598
10.8,6386713.410352561,5030.1432267952805,0.0,-104.5182005556624,465.726254451648,0.0,0.0,0.08179693745370241,104.15136460678559,8578.391196619921,4.636679454816414e-08,0.0,9.787808350754315,0.0,0.0,-0.0007875947867939633,0.0,0.0,0.0,305.649915664656,0.49117128891110934,32776.15233527991,232.4656027511111,-0.0,1.0831756634743665e-05,-4.859515698294331,0.0,0.0,0.0,0.340753886683,2663.993580971279
10.9,6386702.91124224,5076.71581359912,0.0,-105.4633614968328,465.72548007372006,0.0,0.0,0.083296381501392,105.0931285315344,8567.928966581761,4.765925303497279e-08,0.0,9.787840469983358,0.0,0.0,-0.000794888194253488,0.0,0.0,0.0,305.69449882771204,0.4917814395174728,32826.442312316896,232.5334241855556,-0.0,1.1356774546631849e-05,-4.953941437712467,0.0,0.0,0.0,0.34378492889,2715.7579087857525
11.0,6386692.317674401,5123.288322587519,0.0,-106.4078751555792,465.72469856042403,0.0,0.0,0.0848087984463768,106.0342451638008,8557.372592479922,4.8975292846295764e-08,0.0,9.787872878379302,0.0,0.0,-0.000802181625292411,0.0,0.0,0.0,305.739476731152,0.49239767011835905,32877.248298926854,232.60185613555555,-0.0,1.1902352227434343e-05,-5.0493838344612625,0.0,0.0,0.0,0.34681252226,2768.0795696472665
11.1,6386681.62971,5169.86075305944,0.0,-107.35173458185201,465.723909905664,0.0,0.0,0.0863341638912456,106.9747075526208,8546.72213935872,5.031511701192164e-08,0.0,9.787905575759286,0.0,0.0,-0.0008094750801166809,0.0,0.0,0.0,305.78484892692,0.4930199931570744,32928.5717495684,232.670898185,-0.0,1.2469113241490123e-05,-5.145846771259918,0.0,0.0,0.0,0.349836634372,2820.9606920392175
11.2,6386670.84734904,5216.43310434432,0.0,-108.29493279756001,465.72311411858396,0.0,0.0,0.0878724531685344,107.91450872081761,8535.97767302448,5.167892818115721e-08,0.0,9.787938561940447,0.0,0.0,-0.0008167685589287562,0.0,0.0,0.0,305.830614963912,0.4936484211851545,32980.41413239393,232.7405499138889,-0.0,1.3057695018467351e-05,-5.243334158717985,0.0,0.0,0.0,0.352857232785,2874.4034197954134
11.3,6386659.970743921,5263.00537564968,0.0,-109.23746279900881,465.72231119004,0.0,0.0,0.0894236413373736,108.85364166378241,8525.13925989312,5.306692861654428e-08,0.0,9.787971836709442,0.0,0.0,-0.0008240620619293495,0.0,0.0,0.0,305.876774384928,0.49428296685927237,33032.77692924958,232.81081089666668,-0.0,1.3668749097882117e-05,-5.341849935290882,0.0,0.0,0.0,0.35587428504,2928.4099119324915
11.4,6386648.99989464,5309.57756633544,0.0,-110.1793175538528,465.72150112612803,0.0,0.0,0.09098770318409762,109.79209935008402,8514.20696720352,5.44793201894964e-08,0.0,9.788005399852928,0.0,0.0,-0.0008313555893209192,0.0,0.0,0.0,305.923326732768,0.494923642944846,33085.6616354837,232.881680705,-0.0,1.4302941329891163e-05,-5.441398066746106,0.0,0.0,0.0,0.358887758659,2982.982342539796
11.5,6386637.93489264,5356.1496756396,0.0,-111.1204900038384,465.72068392380004,0.0,0.0,0.09256461321950162,110.7298747208592,8503.180862773681,5.591630437680815e-08,0.0,9.78803925118804,0.0,0.0,-0.0008386491413041779,0.0,0.0,0.0,305.97027153804,0.4955704623129458,33139.06976023419,232.953158905,-0.0,1.4960952094678173e-05,-5.541982546163237,0.0,0.0,0.0,0.361897621144,3038.122900607006
11.6,6386626.77582936,5402.7217028916,0.0,-112.0609730629752,465.719859583056,0.0,0.0,0.0941543456773176,111.66696068950802,8492.061015214082,5.737808225559374e-08,0.0,9.78807339053192,0.0,0.0,-0.000845942718081584,0.0,0.0,0.0,306.017608337448,0.49622343794081064,33193.00282614116,233.02524505833333,-0.0,1.564347654884077e-05,-5.643607393533597,0.0,0.0,0.0,0.364903839979,3093.833789885287
11.7,6386615.52273528,5449.29364732944,0.0,-113.00075961692642,465.71902810694405,0.0,0.0,0.0957568745157384,112.60335014230321,8480.84749383624,5.8864854501716155e-08,0.0,9.788107817610264,0.0,0.0,-0.0008532363198538505,0.0,0.0,0.0,306.06533665550404,0.49688258291442405,33247.46236963423,233.09793872166665,-0.0,1.635122480847931e-05,-5.746276655448871,0.0,0.0,0.0,0.367906382631,3150.1172287484324
11.8,6386604.17570184,5495.865508252081,0.0,-113.9398425239232,465.718189495464,0.0,0.0,0.0973721734119312,113.53903593778081,8469.54036865272,6.037682137948976e-08,0.0,9.788142532270689,0.0,0.0,-0.0008605299468216898,0.0,0.0,0.0,306.11345601672,0.49754791042232993,33302.44994064528,233.1712394477778,-0.0,1.708492222872314e-05,-5.849994404923181,0.0,0.0,0.0,0.370905216544,3206.975450020501
11.9,6386592.73479,5542.4372849889605,0.0,-114.87821461445999,465.71734374556803,0.0,0.0,0.09900021576508561,114.474010905216,8458.13971034664,6.191418274482187e-08,0.0,9.788177534269371,0.0,0.0,-0.0008678235991823246,0.0,0.0,0.0,306.16196594256,0.49821943376130173,33357.96710294356,233.245146785,-0.0,1.784530958428391e-05,-5.954764741081708,0.0,0.0,0.0,0.373900309146,3264.410700846533
12.0,6386581.200060721,5589.008976778081,0.0,-115.81586869038,465.716490857256,0.0,0.0,0.1006409746918416,115.4082678473664,8446.64559042408,6.347713803456625e-08,0.0,9.788212823423452,0.0,0.0,-0.0008751172771382128,0.0,0.0,0.0,306.21086594229604,0.4988971663327349,33414.01543375269,233.31966027666667,-0.0,1.863314334408876e-05,-6.060591788849322,0.0,0.0,0.0,0.376891627847,3322.4252425058257
12.1,6386569.57163592,5635.5805829184,0.0,-116.7527975257896,465.71563083357603,0.0,0.0,0.1022944230268992,116.34179953772882,8435.05808097024,6.506588626652312e-08,0.0,9.78824839945863,0.0,0.0,-0.0008824109808865767,0.0,0.0,0.0,306.26015552824805,0.4995811216436776,33470.59652413366,233.3947794611111,-0.0,1.944919587060516e-05,-6.167479698639202,0.0,0.0,0.0,0.379879140036,3381.021350268284
12.2,6386557.84954608,5682.15210270888,0.0,-117.6889938652296,465.71476367148006,0.0,0.0,0.1039605333199704,117.2745987211488,8423.37725492376,6.668062603088701e-08,0.0,9.788284262222517,0.0,0.0,-0.0008897047106263839,0.0,0.0,0.0,306.309834209688,0.5002713133052843,33527.711978697596,233.47050387222222,-0.0,2.029425571907275e-05,-6.275432646041459,0.0,0.0,0.0,0.382862813083,3440.2013132268476
12.3,6386546.033852161,5728.723535418,0.0,-118.62445042550401,465.713889374016,0.0,0.0,0.1056392778369984,118.20665811382081,8411.60318589384,6.832155549007227e-08,0.0,9.788320411440823,0.0,0.0,-0.0008969984665548565,0.0,0.0,0.0,306.35990148369604,0.5009677550353929,33585.363415797256,233.54683304055555,-0.0,2.116912781249639e-05,-6.384454831734176,0.0,0.0,0.0,0.385842614341,3499.9674341346904
12.4,6386534.1246760795,5775.29488034472,0.0,-119.55915989385122,465.713007941184,0.0,0.0,0.10733062855680481,119.13797040359282,8399.73594819072,6.998887237033546e-08,0.0,9.788356846930675,0.0,0.0,-0.0009042922488727073,0.0,0.0,0.0,306.41035685344804,0.5016704606544021,33643.55246743127,233.62376649,-0.0,2.207463370942911e-05,-6.4945504807716885,0.0,0.0,0.0,0.388818511142,3560.322029228069
12.5,6386522.12204832,5821.86613675752,0.0,-120.4931149288584,465.712119369936,0.0,0.0,0.1090345571695656,120.0685282484424,8387.775616947602,7.168277396055363e-08,0.0,9.788393568448258,0.0,0.0,-0.0009115860577736679,0.0,0.0,0.0,306.461199809928,0.5023794440878473,33702.280779148365,233.70130374055557,-0.0,2.3011611883987645e-05,-6.605723842629072,0.0,0.0,0.0,0.391790470802,3621.267428068315
12.6,6386510.02606032,5868.437303985841,0.0,-121.42630815985201,465.71122366332,0.0,0.0,0.1107510350777256,120.99832427800081,8375.722267937761,7.340345710611568e-08,0.0,9.788430575749752,0.0,0.0,-0.0009188798934567059,0.0,0.0,0.0,306.512429841072,0.5030947193648553,33761.550010430445,233.77944430777777,-0.0,2.3980917906049896e-05,-6.717979190757313,0.0,0.0,0.0,0.394758460615,3682.8059733455293
12.7,6386497.83680352,5915.008381267681,0.0,-122.3587321865928,465.71032082133604,0.0,0.0,0.1124800333926456,121.9273510914192,8363.57597772696,7.515111820438448e-08,0.0,9.788467868621812,0.0,0.0,-0.0009261737561190436,0.0,0.0,0.0,306.564046434816,0.5038163006191749,33821.361834118004,233.85818770222224,-0.0,2.4983424779809093e-05,-6.831320822182975,0.0,0.0,0.0,0.39772244786,3744.9400207301483
12.8,6386485.554338881,5961.579367902001,0.0,-123.290379579276,465.7094108439841,0.0,0.0,0.11422152293368801,122.85560125950241,8351.33682361248,7.692595319980994e-08,0.0,9.788505446851099,0.0,0.0,-0.0009334676459526669,0.0,0.0,0.0,306.616049069952,0.5045442020871153,33881.71793698468,233.93753343,-0.0,2.602002311351791e-05,-6.945753057374748,0.0,0.0,0.0,0.400682399793,3807.671938657487
12.9,6386473.17875784,6008.150263187761,0.0,-124.22124287853121,465.708493728216,0.0,0.0,0.1159754742276072,123.7830673225752,8339.00488362312,7.872815758166013e-08,0.0,9.788543310163313,0.0,0.0,-0.0009407615631582891,0.0,0.0,0.0,306.668437225272,0.5052784381080611,33942.62001935423,234.01748099166667,-0.0,2.709162144131731e-05,-7.061280239620699,0.0,0.0,0.0,0.403638283655,3871.004108184097
13.0,6386460.710121361,6054.721066393441,0.0,-125.15131459511761,465.70756947708,0.0,0.0,0.11774185750672081,124.70974179139681,8326.580236519201,8.055792637529463e-08,0.0,9.788581458345112,0.0,0.0,-0.0009480555079261507,0.0,0.0,0.0,306.72121037347205,0.5060190231239577,34004.06979519628,234.09802988333337,-0.0,2.8199146463929813e-05,-7.177906735028274,0.0,0.0,0.0,0.406590066666,3934.9389227531515
13.1,6386448.14852088,6101.29177684848,0.0,-126.080587209924,465.706638090576,0.0,0.0,0.1195206427070808,125.63561714655121,8314.062961884001,8.24154541419899e-08,0.0,9.788619891152678,0.0,0.0,-0.0009553494804534741,0.0,0.0,0.0,306.774367978104,0.5067659716803414,34066.06899217422,234.17917959722226,-0.0,2.9343543278810492e-05,-7.295636931812576,0.0,0.0,0.0,0.409537716029,3999.478788055595
13.2,6386435.49404784,6147.862393790881,0.0,-127.0090531733592,465.70569956870406,0.0,0.0,0.1213117994681688,126.5606858384472,8301.45314000184,8.430093497091086e-08,0.0,9.788658608342187,0.0,0.0,-0.0009626434809357361,0.0,0.0,0.0,306.827909508816,0.5075192984247937,34128.61935169307,234.26092961944445,-0.0,3.0525775700641324e-05,-7.414475240340857,0.0,0.0,0.0,0.412481198929,4064.626121805104
13.3,6386422.74673272,6194.4329165196,0.0,-127.9367049056568,465.704753911464,0.0,0.0,0.12311529713106721,127.48494028731841,8288.75085185808,8.621456247684201e-08,0.0,9.788697609669821,0.0,0.0,-0.0009699375095631776,0.0,0.0,0.0,306.881834420016,0.5082790181053948,34191.72262870796,234.34327943111114,-0.0,3.174682651412363e-05,-7.53442609237631,0.0,0.0,0.0,0.41542048253,4130.38335354178
13.4,6386409.906727921,6241.003344333601,0.0,-128.8635347965704,465.703801118856,0.0,0.0,0.12493110473632561,128.4083728826136,8275.956179322,8.815652979355499e-08,0.0,9.788736894891759,0.0,0.0,-0.0009772315665295302,0.0,0.0,0.0,306.936142172208,0.509045145573816,34255.38059191566,234.42622851000002,-0.0,3.3007697720187166e-05,-7.655493941078078,0.0,0.0,0.0,0.418355533981,4196.75292445978
13.5,6386396.97406392,6287.57367650136,0.0,-129.7895352050688,465.70284119088,0.0,0.0,0.1267591910248752,129.3309759839112,8263.069204933441,9.012702957136537e-08,0.0,9.788776463764183,0.0,0.0,-0.0009845256520302707,0.0,0.0,0.0,306.99083221370404,0.5098176957817123,34319.59502375456,234.50977632722226,-0.0,3.430941081315876e-05,-7.777683260334014,0.0,0.0,0.0,0.42128632041,4263.73728717749
13.6,6386383.94883216,6334.14391232184,0.0,-130.71469845994562,465.70187413058403,0.0,0.0,0.128599524433152,130.2527419190904,8250.09001202472,9.2126253969802e-08,0.0,9.788816316043272,0.0,0.0,-0.0009918197662538947,0.0,0.0,0.0,307.045903992816,0.5105966837822682,34384.367720117436,234.59392235055557,-0.0,3.565300712398715e-05,-7.900998544582754,0.0,0.0,0.0,0.424212808929,4331.338905536427
13.7,6386370.83115456,6380.714051094,0.0,-131.6390168582952,465.700899931872,0.0,0.0,0.13045207309584,131.1736629858552,8237.01868472064,9.415439465533831e-08,0.0,9.788856451454729,0.0,0.0,-0.0009991139093941338,0.0,0.0,0.0,307.10135695176,0.5113821247281364,34449.70049078229,234.67866604166667,-0.0,3.7039548000173494e-05,-8.02544430832442,0.0,0.0,0.0,0.42713496663,4399.560254409722
13.8,6386357.6210616,6427.28409208632,0.0,-132.56248266673202,465.69991860084,0.0,0.0,0.1323168048406896,132.09373145082,8223.85530784704,9.621164279388727e-08,0.0,9.78889686975473,0.0,0.0,-0.0010064080816429742,0.0,0.0,0.0,307.157190526656,0.5121740338745298,34515.59515902941,234.7640068577778,-0.0,3.84701151845375e-05,-8.15102508580923,0.0,0.0,0.0,0.430052760589,4468.403819481869
13.9,6386344.3186752,6473.854034567281,0.0,-133.4850881207808,465.69893013444005,0.0,0.0,0.1341936871900416,133.0129395489,8210.599967113681,9.829818904975421e-08,0.0,9.78893757066898,0.0,0.0,-0.0010137022831889113,0.0,0.0,0.0,307.213404153624,0.5129724265745833,34582.05356183279,234.8499442511111,-0.0,3.994581100328817e-05,-8.27774543063717,0.0,0.0,0.0,0.432966157864,4537.872097018897
14.0,6386330.9240868,6520.423877866321,0.0,-134.4068254242672,465.69793453572004,0.0,0.0,0.13608268735808401,133.9312794839208,8197.25274890088,1.0041422357691021e-07,0.0,9.788978553953655,0.0,0.0,-0.0010209965142239316,0.0,0.0,0.0,307.269997265736,0.5137773182814155,34649.0775499081,234.93647766833334,-0.0,4.1467758743722346e-05,-8.405609915313166,0.0,0.0,0.0,0.435875125494,4607.967593676853
14.1,6386317.43735736,6566.99362125192,0.0,-135.3276867499272,465.696931801632,0.0,0.0,0.13798377224902322,134.8487434289232,8183.81374041192,1.0255993601637409e-07,0.0,9.78901981936494,0.0,0.0,-0.0010282907749365304,0.0,0.0,0.0,307.326969280824,0.5145887245486438,34716.668987473204,235.02360655222222,-0.0,4.30371029381102e-05,-8.534623130802268,0.0,0.0,0.0,0.438779630502,4678.692826252821
14.2,6386303.858578321,6613.56326399256,0.0,-136.2476642384928,465.695921935224,0.0,0.0,0.1398969084573888,135.7653235246392,8170.28302967304,1.0473551549080184e-07,0.0,9.789061366598052,0.0,0.0,-0.0010355850655152034,0.0,0.0,0.0,307.384319628912,0.5154066610262614,34784.82975243975,235.11133033944444,-0.0,4.4655009580056724e-05,-8.664789686307227,0.0,0.0,0.0,0.441679639892,4750.050321488618
14.3,6386290.18784112,6660.1328053872,0.0,-137.16674999991122,465.694904933448,0.0,0.0,0.1418220622655952,136.6810118801016,8156.660705442001,1.069411506018687e-07,0.0,9.78910319543966,0.0,0.0,-0.0010428793861501913,0.0,0.0,0.0,307.442047718688,0.5162311434699141,34853.56173646101,235.1996484616667,-0.0,4.632266649988717e-05,-8.79611420860128,0.0,0.0,0.0,0.444575120652,4822.042615826597
14.4,6386276.42526768,6706.702244734801,0.0,-138.08493611121122,465.69388079935203,0.0,0.0,0.1437591996421128,137.59580057355842,8142.94685726904,1.0917702942032076e-07,0.0,9.789145305554495,0.0,0.0,-0.00105017373702999,0.0,0.0,0.0,307.500152971032,0.5170621877166774,34922.86684474036,235.28856034666669,-0.0,4.8041283639725046e-05,-8.928601341805715,0.0,0.0,0.0,0.447466039752,4894.672255127162
14.5,6386262.57088848,6753.27158130384,0.0,-139.002214618332,465.692849529888,0.0,0.0,0.1457082862411632,138.5096816500344,8129.14157555784,1.114433394852768e-07,0.0,9.789187696698747,0.0,0.0,-0.001057468118339604,0.0,0.0,0.0,307.55863478853604,0.5178998097226798,34992.74699598344,235.37806541555557,-0.0,4.981209336424491e-05,-9.062255746856112,0.0,0.0,0.0,0.450352364147,4967.941794601729
14.6,6386248.624855921,6799.840814423761,0.0,-139.9185775352088,465.691811131152,0.0,0.0,0.1476692874005856,139.4226471234648,8115.24495147408,1.137402677989923e-07,0.0,9.789230368628592,0.0,0.0,-0.0010647625302675292,0.0,0.0,0.0,307.61749257684005,0.5187440255316638,35063.20412278111,235.46816308500001,-0.0,5.1636350753409815e-05,-9.197082101146458,0.0,0.0,0.0,0.453234060773,5041.853798333927
14.7,6386234.5872004805,6846.40994330208,0.0,-140.8340168428584,465.690765597048,0.0,0.0,0.1496421681409224,140.334688975476,8101.2570769454405,1.1606800081918007e-07,0.0,9.789273321039254,0.0,0.0,-0.0010720569730005157,0.0,0.0,0.0,307.67672573853605,0.5195948512749863,35134.24017113077,235.55885276722222,-0.0,5.3515333939646516e-05,-9.333085097995383,0.0,0.0,0.0,0.456111096549,5116.410839169473
14.8,6386220.45807456,6892.97896729872,0.0,-141.7485244909032,465.689712933672,0.0,0.0,0.15162689316389522,141.24579915477602,8087.17804472256,1.1842672445691577e-07,0.0,9.789316553625953,0.0,0.0,-0.0010793514467235684,0.0,0.0,0.0,307.736333664024,0.5204523032025417,35205.85710067564,235.65013386777778,-0.0,5.545034439609023e-05,-9.470269446201321,0.0,0.0,0.0,0.458983438381,5191.615498620409
14.9,6386206.237539121,6939.54788565168,0.0,-142.662092396352,465.688653134928,0.0,0.0,0.153623426850576,142.15596957867842,8073.00794844,1.2081662407052929e-07,0.0,9.789360066144875,0.0,0.0,-0.0010866459516234376,0.0,0.0,0.0,307.7963157498,0.5213163976363767,35278.0568848006,235.74200578833333,-0.0,5.7442707238174054e-05,-9.60863986973115,0.0,0.0,0.0,0.461851053156,5267.470366242663
