time,feVelocity_m_s_X,feVelocity_m_s_Y,feVelocity_m_s_Z,altitudeMsl_m,longitude_rad,latitude_rad,localGravity_m_s2,eulerAngle_rad_Yaw,eulerAngle_rad_Pitch,eulerAngle_rad_Roll,bodyAngularRateWrtEi_rad_s_Roll,bodyAngularRateWrtEi_rad_s_Pitch,bodyAngularRateWrtEi_rad_s_Yaw,altitudeRateWrtMsl_m_s,speedOfSound_m_s,airDensity_kg_m3,ambientPressure_Pa,ambientTemperature_K,aero_bodyForce_N_X,aero_bodyForce_N_Y,aero_bodyForce_N_Z,aero_bodyMoment_Nm_L,aero_bodyMoment_Nm_M,aero_bodyMoment_Nm_N,mach,trueAirspeed_m_s
0.0,0.0,0.0,0.0,9144.0,0.0,0.0,9.786072474552002,0.0,0.0,0.0,0.0,0.0,0.0,0.0,303.23005392984,0.459177273275918,30157.60192315531,228.79958955555557,0.0,0.0,0.0,0.0,0.0,0.0,1.01e-08,3.04550848e-06
0.1,-8.10768e-13,6.4008e-06,0.9752099308056,9143.951238096,3.17649923862968e-14,-3.665191429188092e-22,9.786072593424,-2.076941809873252e-28,-2.6703537555513243e-22,-7.292107787879949e-06,0.0,0.0,0.0,-0.975209930704,303.23026372368,0.45917985017000806,30157.81869145179,228.7999061666667,-1.120951847045646e-09,2.353109234472804e-10,-0.0003224960671063862,0.0,0.0,0.0,0.003216071,0.9752090862493561
0.2,-1.664208e-12,2.703576e-05,1.9504144343424001,9143.804958480001,2.7576202181510406e-13,-7.0162235930172045e-22,9.786073014048,-4.50294947014537e-28,-6.003932626860493e-22,-1.4584233029052416e-05,0.0,0.0,0.0,-1.950414434444,303.23089316616006,0.459188096231096,30158.471399930233,228.800856,-2.366453899318586e-09,1.049780301201478e-09,-0.0014378742924681107,0.0,0.0,0.0,0.00643211,1.950412745114512
0.3,-2.5176480000000003e-12,6.18679992e-05,2.9256080799888005,9143.561158104,9.529497715889038e-13,-1.0349802464326373e-21,9.786073730328,-6.946410422937432e-28,-9.354964790689606e-22,-2.1876340816932363e-05,0.0,0.0,0.0,-2.925608080192,303.23193966648,0.45920149608036404,30159.557151834968,228.8024352777778,-3.6119559515915256e-09,2.442073666778014e-09,-0.0033497911142529174,0.0,0.0,0.0,0.009648087,2.9256055466390483
0.4,-3.3832800000000005e-12,0.000110935008,3.9007854389520005,9143.219836968,2.286381320112572e-12,-1.3683381335635544e-21,9.78607474836,-9.37241808320955e-28,-1.2688543661998774e-21,-2.916846605810483e-05,0.0,0.0,0.0,-3.9007854389520005,303.23340581544,0.459220049717812,30161.076473848843,228.80464783333335,-4.8485615606339446e-09,4.417084063953676e-09,-0.006058464495319955,0.0,0.0,0.0,0.01286397,3.900782061895432
0.5,-4.2367200000000006e-12,0.0001742230704,4.875941079696,9142.781001168001,4.50294947014537e-12,-1.7034413499464656e-21,9.786076065096001,-1.1815879036001612e-27,-1.6022122533307946e-21,-3.646057384598479e-05,0.0,0.0,0.0,-4.875941080204,303.2352915216,0.45924427252225797,30163.03177434889,228.80749361111114,-6.094063612906885e-09,6.983707935958984e-09,-0.00956402788231768,0.0,0.0,0.0,0.016079728,4.875936859898356
0.6,-5.090160000000001e-12,0.00025173127200000004,5.851069571904,9142.244650704,7.819075048934597e-12,-2.042035224833366e-21,9.786077683584,-1.4241886696273729e-27,-1.9373154697137058e-21,-4.3752699087157254e-05,0.0,0.0,0.0,-5.85106957292,303.23759434656,0.459273649114884,30165.42018530759,228.8109687777778,-7.339565665179825e-09,1.0097463066641333e-08,-0.013866641411224243,0.0,0.0,0.0,0.01929533,5.8510645106914
0.7,-5.943600000000001e-12,0.00034345869840000004,6.826165484040001,9141.610788624,1.2461650859239513e-11,-2.373647782712288e-21,9.786079597728001,-1.668534764906579e-27,-2.2689280275926286e-21,-5.104482432832972e-05,0.0,0.0,0.0,-6.826165484040001,303.24031672872,0.45930817949568997,30168.244632208764,228.81507722222224,-8.585067717452765e-09,1.3833969223460153e-08,-0.018966509700233943,0.0,0.0,0.0,0.022510745,6.82615958123148
0.8,-6.797040000000001e-12,0.0004494041304000001,7.801223378472001,9140.879417976,1.8675022996339328e-11,-2.7052603405912108e-21,9.786081813624001,-1.9198621771937623e-27,-2.600540585471551e-21,-5.833693211620966e-05,0.0,0.0,0.0,-7.801223381520001,303.24345869856,0.459348379043494,30171.502764131706,228.8198188888889,-9.830569769725705e-09,1.8148744190262837e-08,-0.02486388184975724,0.0,0.0,0.0,0.025725941,7.80121663435996
0.9,-7.65048e-12,0.000569566044,8.776237823664,9140.050544856,2.652900463031381e-11,-3.0368728984701332e-21,9.786084328224002,-2.1467549799530254e-27,-2.9321531433504735e-21,-6.562905735738214e-05,0.0,0.0,0.0,-8.77623782468,303.24701769576,0.459393732379478,30175.194116637897,228.82518994444447,-1.1076071821998644e-08,2.3041787967049387e-08,-0.03155902920131266,0.0,0.0,0.0,0.028940888,8.77623024269264
1.0,-8.50392e-12,0.0007039426104,9.751203378936,9139.124172312,3.647738136668149e-11,-3.368485456349056e-21,9.786087141528,-2.3911010752322316e-27,-3.2637657012293963e-21,-7.29211825985546e-05,0.0,0.0,0.0,-9.75120337792,303.25099874952,0.45944475488246,30179.322141894016,228.83119811111112,-1.2321573874271585e-08,2.8557582769972407e-08,-0.03905227202685651,0.0,0.0,0.0,0.032155552,9.751194958267561
1.1,-9.357360000000002e-12,0.000852531696,10.726114606656001,9138.10030644,4.86946861306418e-11,-3.7000980142279785e-21,9.786090253535999,-2.635447170511438e-27,-3.612831551628262e-21,-8.021330783972707e-05,0.0,0.0,0.0,-10.726114605640001,303.25539430080005,0.459500415794804,30183.88299032723,228.83783188888887,-1.3567075926544525e-08,3.460716416672668e-08,-0.04734397508056122,0.0,0.0,0.0,0.035369905,10.72610534855608
1.2,-1.0210800000000001e-11,0.0010153320816,11.700966057,9136.978950288,6.335545184739416e-11,-4.031710572106901e-21,9.786093664248,-2.8797932657906437e-27,-3.9444441095071844e-21,-8.750543308089955e-05,0.0,0.0,0.0,-11.700966057,303.26021190864003,0.459562261252964,30188.87823241005,228.84510266666666,-1.4812577978817462e-08,4.132397880577005e-08,-0.056434520909485725,0.0,0.0,0.0,0.038583915,11.70095596559624
1.3,-1.106424e-11,0.0011923407192,12.675752292336,9135.760116048,8.063421144213803e-11,-4.3807764225057674e-21,9.786097376712,-3.12413936106985e-27,-4.276056667386107e-21,-9.479757577536453e-05,0.0,0.0,0.0,-12.675752291320002,303.26544648288,0.459628745120486,30194.309328490355,228.85300294444446,-1.6058080031090404e-08,4.8485615606339444e-08,-0.0663243409911267,0.0,0.0,0.0,0.041797549,12.67574137171496
1.4,-1.1917680000000001e-11,0.0013835554752,13.650467859792,9134.44380372,1.0070549784007282e-10,-4.71238898038469e-21,9.786101384832,-3.368485456349056e-27,-4.60766922526503e-21,-0.00010208970101653699,0.0,0.0,0.0,-13.65046785776,303.27109796256,0.45970089815500603,30200.17394679955,228.86153261111113,-1.730358208336334e-08,5.6492414513808346e-08,-0.07701390683697536,0.0,0.0,0.0,0.045010778,13.65045610351696
1.5,-1.277112e-11,0.0015889733016000002,14.625107306496002,9133.030022448,1.239183768915974e-10,-5.044001538263612e-21,9.786105694704002,-3.612831551628263e-27,-4.939281783143953e-21,-0.000109381843711002,0.0,0.0,0.0,-14.62510730548,303.27717146832003,0.459778720356524,30206.4755778085,228.87069933333336,-1.8549084135636286e-08,6.494403558280329e-08,-0.08850372554429585,0.0,0.0,0.0,0.048223568,14.625094723329159
1.6,-1.362456e-11,0.0018085920648000001,15.599665176528001,9131.518784424,1.5062191444711064e-10,-5.375614096142535e-21,9.78611030328,-3.8571776469074685e-27,-5.270894341022876e-21,-0.00011667398640546698,0.0,0.0,0.0,-15.59966517856,303.28366184904,0.459861180967404,30213.208499826265,228.88049544444445,-1.983906840406183e-08,7.428530097485035e-08,-0.1007943353479036,0.0,0.0,0.0,0.051435891,15.599651767756281
1.7,-1.4478e-11,0.0020424081072,16.57413601092,9129.910092696002,1.8151424220741027e-10,-5.707226654021458e-21,9.78611521056,-4.1015237421866744e-27,-5.602506898901798e-21,-0.00012396612909993196,0.0,0.0,0.0,-16.57413601092,303.29056907424,0.45994931074528206,30220.377596639264,228.890921,-2.1084570456334767e-08,8.407138852842344e-08,-0.11388631896483023,0.0,0.0,0.0,0.054647714,16.574121783691922
1.8,-1.533144e-11,0.0022904183808000003,17.548514347656003,9128.203959456001,2.1467549799530252e-10,-6.03883921190038e-21,9.786120416544,-4.34586983746588e-27,-5.934119456780721e-21,-0.00013125828924768948,0.0,0.0,0.0,-17.54851434664,303.29789570424003,0.460043109690158,30227.983471538755,228.90197983333334,-2.2330072508607708e-08,9.43022982435226e-08,-0.12778030359432346,0.0,0.0,0.0,0.057859005,17.54849929745192
1.9,-1.6184880000000002e-11,0.002552619228,18.522794715576,9126.400393848,2.530727415391778e-10,-6.370451769779303e-21,9.786125924280002,-4.590215932745087e-27,-6.283185307179587e-21,-0.00013855043194215444,0.0,0.0,0.0,-18.52279471456,303.3056416476,0.46014206242321404,30236.021427471336,228.9136718888889,-2.357557456088065e-08,1.0542285228167384e-07,-0.14247692978029594,0.0,0.0,0.0,0.061069734,18.52277885078544
2.0,-1.7038320000000003e-11,0.0028290069912000003,19.496971643520002,9124.499405016,2.949606435870417e-10,-6.719517620178169e-21,9.786131727672,-4.8345620280242926e-27,-6.6147978650585095e-21,-0.000145842592089912,0.0,0.0,0.0,-19.496971643520002,303.31380437448,0.46024616894445003,30244.495869420825,228.92599333333334,-2.482107661315359e-08,1.174330506428772e-07,-0.15797689589354122,0.0,0.0,0.0,0.06427987,19.496954964863882
2.1,-1.7922240000000002e-11,0.0031195783176,20.471039654232,9122.501002104002,3.4033920413889424e-10,-7.051130178057091e-21,9.786137829768,-5.078908123303499e-27,-6.946410422937432e-21,-0.00015313475223766948,0.0,0.0,0.0,-20.4710396522,303.32238638424,0.460355429253866,30253.40501145357,228.93894805555556,-2.6066578665426528e-08,1.2988807116560659e-07,-0.17428094033884747,0.0,0.0,0.0,0.06748938,20.47102216085864
2.2,-1.877568e-11,0.0034243286352,21.444993261312,9120.405200352001,3.9269908169872415e-10,-7.382742735936014e-21,9.786144233616,-5.323254218582705e-27,-7.278022980816354e-21,-0.00016042691238542697,0.0,0.0,0.0,-21.44499325928,303.33138508608,0.46047035873028,30262.74846573947,228.95253222222223,-2.7312080717699466e-08,1.4278791384986206e-07,-0.1913898059692244,0.0,0.0,0.0,0.070698235,21.44497495994112
2.3,-1.9629120000000004e-11,0.0037432536768000004,22.418826978360002,9118.212008904,4.4854961776254265e-10,-7.714355293814937e-21,9.786150936168001,-5.5676003138619116e-27,-7.609635538695277e-21,-0.00016771908998647702,0.0,0.0,0.0,-22.418826978360002,303.34080300984004,0.46059044199487403,30272.529267886952,228.96674955555557,-2.8602064986125013e-08,1.5702222301869563e-07,-0.20930432015389247,0.0,0.0,0.0,0.073906402,22.418807872993842
2.4,-2.048256e-11,0.004076348870400001,23.39253531288,9115.921439952,5.096361415823443e-10,-8.04596785169386e-21,9.786157934376002,-5.811946409141117e-27,-7.941248096574199e-21,-0.00017501126758752704,0.0,0.0,0.0,-23.392535312880003,303.35063756472005,0.46071619442646605,30282.744640840978,228.9815963888889,-2.984756703839795e-08,1.7170135434905529e-07,-0.22802530581385047,0.0,0.0,0.0,0.07711385,23.39251540575488
2.5,-2.1336000000000002e-11,0.0044236102536,24.366112760184,9113.533505688001,5.759586531581287e-10,-8.377580409572782e-21,9.786165234336,-6.056292504420323e-27,-8.272860654453123e-21,-0.00018230344518857706,0.0,0.0,0.0,-24.366112761200004,303.36089121960003,0.460847100646238,30293.39282739606,228.99707638888887,-3.109306909067089e-08,1.86825307840941e-07,-0.24755364814519992,0.0,0.0,0.0,0.080320548,24.36609205881788
2.6,-2.221992e-11,0.0047850320352,25.339553818632,9111.048221352,6.475171524898963e-10,-8.709192967451705e-21,9.786172833000002,-6.300638599699529e-27,-8.621926504851989e-21,-0.00018959562278962708,0.0,0.0,0.0,-25.339553821680003,303.37156144464,0.46098316065419,30304.478261264172,229.0131858888889,-3.233857114294383e-08,2.0328372781740482e-07,-0.2678902723780367,0.0,0.0,0.0,0.083526466,25.3395323224876
2.7,-2.307336e-11,0.0051606096432,26.312852977440002,9108.465599136001,7.260569688296411e-10,-9.040805525330626e-21,9.786180730368,-6.544984694978736e-27,-8.95353906273091e-21,-0.00019688781784396963,0.0,0.0,0.0,-26.312852977440002,303.3826481484,0.46112488982914007,30315.998692073143,229.02992477777778,-3.3584073195216774e-08,2.2018696995539472e-07,-0.289036090397792,0.0,0.0,0.0,0.08673157,26.31283069221324
2.8,-2.3926800000000003e-11,0.0055503378960000006,27.286004710584002,9105.785657328,8.098327729253689e-10,-9.389871375729494e-21,9.786188926440001,-6.789330790257942e-27,-9.285151620609835e-21,-0.00020418001289831218,0.0,0.0,0.0,-27.2860047116,303.39415386072,0.46127177279227,30327.95718415955,229.0472968888889,-3.487405746364232e-08,2.384246785779628e-07,-0.3109921297436589,0.0,0.0,0.0,0.089935831,27.28598164286624
2.9,-2.4780240000000003e-11,0.0059542110024,28.259003498136003,9103.008405072,9.00589894029074e-10,-9.721483933608415e-21,9.786197418168,-7.016223593017205e-27,-9.616764178488756e-21,-0.00021147222540594725,0.0,0.0,0.0,-28.259003497120002,303.4060759908,0.46142380954358,30340.348585607517,229.06529844444447,-3.611955951591525e-08,2.5710720936205687e-07,-0.33375936457617117,0.0,0.0,0.0,0.093139216,28.25897964931804
3.0,-2.5664160000000002e-11,0.0063722234760000005,29.23184380188,9100.133860656,9.965830028887622e-10,-1.0053096491487338e-20,9.786206211648,-7.260569688296412e-27,-9.948376736367677e-21,-0.00021876443791358233,0.0,0.0,0.0,-29.23184380188,303.41841700752,0.461581515461888,30353.175965541657,229.0839332777778,-3.73650615681882e-08,2.766793844692031e-07,-0.3573389069507326,0.0,0.0,0.0,0.096341695,29.23181918129564
3.1,-2.65176e-11,0.0068043695256,30.204520086648003,9097.162042368001,1.0995574287564276e-09,-1.0384709049366261e-20,9.786215303832,-7.504915783575617e-27,-1.0279989294246602e-20,-0.0002260566504212174,0.0,0.0,0.0,-30.204520083600002,303.43117179024,0.461744375168376,30366.440889646437,229.10319366666667,-3.865504583661374e-08,2.975860260609274e-07,-0.3817318199923093,0.0,0.0,0.0,0.099543236,30.204494693092723
3.2,-2.740152e-11,0.007250642750400001,31.17702678984,9094.0929624,1.2095131716320705e-09,-1.0716321607245182e-20,9.78622469472,-7.749261878854823e-27,-1.0611601852125523e-20,-0.000233348880382145,0.0,0.0,0.0,-31.177026800000004,303.44434539864005,0.461912388663044,30380.139747750327,229.12308733333333,-3.9900547888886684e-08,3.1938231197570383e-07,-0.40693924244563473,0.0,0.0,0.0,0.102743808,31.177000639002962
3.3,-2.8254960000000003e-11,0.007711037054400001,32.14935838848,9090.926642088001,1.3264502315156905e-09,-1.1047934165124107e-20,9.786234381264,-7.993607974134028e-27,-1.0943214410004447e-20,-0.00024064111034307256,0.0,0.0,0.0,-32.1493583834,303.4579377108,0.46208607132471,30394.27511102323,229.14361422222225,-4.119053215731223e-08,3.420682422135324e-07,-0.432962295262556,0.0,0.0,0.0,0.105943379,32.14933146303116
3.4,-2.9108400000000004e-11,0.008185545732,33.121509271200004,9087.663096672,1.4503686084072878e-09,-1.1379546723003028e-20,9.786244369560002,-8.237954069413235e-27,-1.1292280260403312e-20,-0.0002479333403040002,0.0,0.0,0.0,-33.12150928136,303.47194363656,0.462264907774556,30408.848569089747,229.16476666666668,-4.243603420958517e-08,3.660886389359391e-07,-0.4598022550826765,0.0,0.0,0.0,0.109141919,33.12148160403768
3.5,-2.999232e-11,0.0086741623824,34.09347392112,9084.30234444,1.583013631558857e-09,-1.1728612573401894e-20,9.786254653512001,-8.482300164692442e-27,-1.1623892818282235e-20,-0.00025522558771822027,0.0,0.0,0.0,-34.09347391096,303.48636820512,0.4624494133914,30423.856521354406,229.18655244444446,-4.3726018478010705e-08,3.909986799813979e-07,-0.4874603229258326,0.0,0.0,0.0,0.112339395,34.093445485449564
3.6,-3.07848e-11,0.009176879995200001,35.06524669944,9080.844406728002,1.7226399717184032e-09,-1.2060225131280818e-20,9.786265239216,-8.726646259971647e-27,-1.1955505376161157e-20,-0.0002625178525857329,0.0,0.0,0.0,-35.06524669944,303.5012087952,0.462638557417606,30439.301060184524,229.20896761111112,-4.4927038314131044e-08,4.172431875114349e-07,-0.5159377265011899,0.0,0.0,0.0,0.115535777,35.06521753069384
3.7,-3.16992e-11,0.00969369156,36.0368220588,9077.289301824001,1.867502299633933e-09,-1.239183768915974e-20,9.786276120576002,-8.970992355250855e-27,-1.228711793404008e-20,-0.00026981011745324553,0.0,0.0,0.0,-36.03682205372,303.51646284648,0.46283337061081004,30455.18188872249,229.23200838888891,-4.6261504798709196e-08,4.443773393645239e-07,-0.5452358581021142,0.0,0.0,0.0,0.118731034,36.0367921426198
3.8,-3.26136e-11,0.010224589456800002,37.008194360400005,9073.637051064,2.0245819323134225e-09,-1.2723450247038662e-20,9.78628730064,-9.21533845053006e-27,-1.2618730491919003e-20,-0.00027710238232075816,0.0,0.0,0.0,-37.008194370560005,303.5321353272,0.463033852971012,30471.500232702943,229.2556823888889,-4.759597128328734e-08,4.7151149121761296e-07,-0.5753559721271008,0.0,0.0,0.0,0.121925132,37.00816372922117
3.9,-3.3528e-11,0.0107695663704,37.97935805688,9069.887669688002,2.1991148575128553e-09,-1.3055062804917585e-20,9.78629877636,-9.459684545809266e-27,-1.2950343049797924e-20,-0.0002843946646415633,0.0,0.0,0.0,-37.97935804672,303.54822364656,0.46323897374057604,30488.255795268266,229.27998583333334,-4.8930437767865495e-08,5.026490425244365e-07,-0.6062994875588449,0.0,0.0,0.0,0.125118043,37.97932667791388
4.0,-3.44424e-11,0.0113286146808,38.950307448480004,9066.041185128,2.356194490192345e-09,-1.3386675362796508e-20,9.786310553832001,-9.704030641088472e-27,-1.3281955607676849e-20,-0.0002916869469623684,0.0,0.0,0.0,-38.950307458640005,303.5647277436,0.46344976367713797,30505.446402654714,229.30491866666668,-5.026490425244365e-08,5.337865938312599e-07,-0.6380678144835988,0.0,0.0,0.0,0.128309733,38.95027537096948
4.1,-3.53568e-11,0.011901726158400001,39.921036987840004,9062.097615672,2.548180707911721e-09,-1.371828792067543e-20,9.78632262696,-9.948376736367678e-27,-1.3631021458075715e-20,-0.0002989792467364661,0.0,0.0,0.0,-39.92103698276,303.58164755736004,0.463666222780698,30523.074688276516,229.33048094444445,-5.115454857549575e-08,5.69372366753344e-07,-0.6706624074698306,0.0,0.0,0.0,0.131500172,39.9210041803706
4.2,-3.59664e-11,0.0124888925736,40.8915409752,9058.056985704,2.7401669256310974e-09,-1.4049900478554352e-20,9.786335001840001,-1.0192722831646885e-26,-1.3962634015954636e-20,-0.0003062715465105638,0.0,0.0,0.0,-40.89154098028,303.5989829964,0.46388732029362,30541.140877170903,229.3566726666667,-5.2489015060073895e-08,6.005099180601675e-07,-0.7040846810520138,0.0,0.0,0.0,0.134689328,40.89150747295544
4.3,-3.68808e-11,0.0130901063064,41.86181380224,9053.91931656,2.9321531433504735e-09,-1.439896632895322e-20,9.786347669328,-1.043706892692609e-26,-1.429424657383356e-20,-0.000313563863737954,0.0,0.0,0.0,-41.861813807320004,303.61673403024,0.464114602352358,30559.645218315218,229.3834937777778,-5.382348154465205e-08,6.40543912597512e-07,-0.7383362054523788,0.0,0.0,0.0,0.137877169,41.86177959498444
4.4,-3.77952e-11,0.013705357908000001,42.83184979968,9049.684632624001,3.141592653589793e-09,-1.473057888683214e-20,9.786360638568002,-1.0681415022205296e-26,-1.4625859131712482e-20,-0.00032085618096534417,0.0,0.0,0.0,-42.831849794600004,303.63490056744,0.464346522820458,30578.585547521747,229.4109443888889,-5.5157948029230194e-08,6.76129685519596e-07,-0.7734185331002693,0.0,0.0,0.0,0.141063665,42.83181488757361
4.5,-3.87096e-11,0.014334639148800002,43.80164326776001,9045.352955232,3.368485456349056e-09,-1.5062191444711062e-20,9.786373903464002,-1.0925761117484503e-26,-1.4957471689591406e-20,-0.00032814851564602686,0.0,0.0,0.0,-43.80164327792001,303.65347998672,0.464583597076738,30597.964019402152,229.43902055555554,-5.6492414513808346e-08,7.161636800569404e-07,-0.809333180839256,0.0,0.0,0.0,0.144248785,43.80160768669448
4.6,-3.9623999999999997e-11,0.014977940884800001,44.77118856768,9040.924311816001,3.595378259108319e-09,-1.5393804002589987e-20,9.786387467064001,-1.1170107212763708e-26,-1.5289084247470327e-20,-0.00033544086778000215,0.0,0.0,0.0,-44.77118858292,303.67247475696,0.46482634050001603,30617.77898687552,229.46772611111112,-5.78268809983865e-08,7.561976745942849e-07,-0.8460818212006662,0.0,0.0,0.0,0.147432497,44.771152307740884
4.7,-4.0538400000000003e-11,0.015635253667200002,45.740479999680005,9036.39872676,3.839724354387525e-09,-1.572541656046891e-20,9.786401329368001,-1.1414453308042915e-26,-1.5620696805349252e-20,-0.00034273321991397734,0.0,0.0,0.0,-45.740480009840006,303.69188478672004,0.46507475309029206,30638.03312166031,229.49706116666667,-5.9161347482964645e-08,8.0067989074689e-07,-0.8836660377513951,0.0,0.0,0.0,0.150614768,45.74044306096216
4.8,-4.1452800000000004e-11,0.0163065686568,46.70951186400001,9031.776224448,4.084070449666731e-09,-1.605702911834783e-20,9.786415487328,-1.165879940332212e-26,-1.595230936322817e-20,-0.00035002557204795253,0.0,0.0,0.0,-46.709511853840006,303.71171001504,0.46532780408993,30658.726691885964,229.52702561111113,-6.04958139675428e-08,8.451621068994949e-07,-0.9220875786425373,0.0,0.0,0.0,0.153795567,46.7094742463188
4.9,-4.2367200000000004e-11,0.016991875795200003,47.678278399919996,9027.056832312,4.345869837465881e-09,-1.6388641676226754e-20,9.786429940944,-1.1903145498601328e-26,-1.6301375213627038e-20,-0.0003573179590885128,0.0,0.0,0.0,-47.67827841008,303.73194782064,0.465586524256566,30679.854650973186,229.55761566666666,-6.13854582905949e-08,8.940925446673605e-07,-0.961348085267869,0.0,0.0,0.0,0.156974865,47.67824014319353
5.0,-4.2976800000000004e-11,0.0176911653288,48.64677393816,9022.240577784,4.625122517784973e-09,-1.673770752662562e-20,9.786444696312,-1.2130038301360589e-26,-1.6632987771505962e-20,-0.0003646103461290731,0.0,0.0,0.0,-48.64677394324001,303.75260064192,0.465850398211382,30701.425004501285,229.58883516666668,-6.271992477517305e-08,9.430229824352259e-07,-1.0014493725018092,0.0,0.0,0.0,0.160152628,48.646735025824604
5.1,-4.38912e-11,0.018404427504000002,49.614992718,9017.327485248,4.904375198104066e-09,-1.7069320084504543e-20,9.786459744287999,-1.2374384396639797e-26,-1.696460032938488e-20,-0.00037190273316963337,0.0,0.0,0.0,-49.614992718,303.77366841792,0.466119941333196,30723.43081940875,229.62068405555556,-6.405439125975119e-08,9.964016418183518e-07,-1.0423931440132364,0.0,0.0,0.0,0.163328824,49.614953163305884
5.2,-4.4805600000000004e-11,0.0191316516528,50.58292897872,9012.317588232001,5.201081170943102e-09,-1.7400932642383464e-20,9.786475094016001,-1.2618730491919002e-26,-1.7296212887263805e-20,-0.00037919513766348616,0.0,0.0,0.0,-50.58292898888,303.79514852736,0.46639463824319005,30745.87669220045,229.65315855555556,-6.538885774432934e-08,1.049780301201478e-06,-1.0841812947445588,0.0,0.0,0.0,0.166503425,50.582888793864555
5.3,-4.5720000000000005e-11,0.019872827412000003,51.550576990079996,9007.21091112,5.497787143782138e-09,-1.780235837034216e-20,9.786490736352,-1.2863076587198209e-26,-1.762782544514273e-20,-0.00038648755961063146,0.0,0.0,0.0,-51.5505769596,303.81704090928,0.46667448894136404,30768.76291973399,229.68625872222222,-6.672332422890748e-08,1.1076071821998644e-06,-1.1268154838824391,0.0,0.0,0.0,0.169676397,51.5505361763056
5.4,-4.66344e-11,0.0206279444184,52.5179309304,9002.007481344,5.811946409141117e-09,-1.815142422074103e-20,9.78650668044,-1.3107422682477415e-26,-1.7976891295541593e-20,-0.00039377999901106926,0.0,0.0,0.0,-52.517930930400006,303.83934791064,0.466959493427718,30792.08549921972,229.7199882777778,-6.805779071348565e-08,1.1698822848135115e-06,-1.1702977665052632,0.0,0.0,0.0,0.172847708,52.5178894716896
5.5,-4.7548800000000005e-11,0.0213969913944,53.484984978,8996.70733548,6.14355896702004e-09,-1.832595714594046e-20,9.786522917136,-1.335176877775662e-26,-1.832595714594046e-20,-0.0004010724384115071,0.0,0.0,0.0,-53.484984978,303.86206703208,0.467258413142158,30816.40764135599,229.7543433888889,-6.93922571980638e-08,1.2321573874271584e-06,-1.2146484531929265,0.0,0.0,0.0,0.176017329,53.484942949110405
5.6,-4.84632e-11,0.022179957062400002,54.451733189280006,8991.310494864,6.492624817418906e-09,-1.867502299633933e-20,9.786539452536001,-1.3596114873035828e-26,-1.867502299633933e-20,-0.0004083648952652374,0.0,0.0,0.0,-54.4517331588,303.88519809072,0.467568155811776,30841.525223022723,229.7893241666667,-7.072672368264194e-08,1.298880711656066e-06,-1.2598705242539112,0.0,0.0,0.0,0.179185225,54.4516905381288
5.7,-4.9377600000000006e-11,0.0229768304496,55.41816962064001,8985.816999120001,6.841690667817772e-09,-1.9024088846738193e-20,9.78655628664,-1.3840460968315034e-26,-1.9024088846738193e-20,-0.0004156573521189678,0.0,0.0,0.0,-55.4181696308,303.90874355544,0.467883052269574,30867.09965418051,229.8249343888889,-7.206119016722009e-08,1.3700522575002339e-06,-1.3059497854130435,0.0,0.0,0.0,0.182351366,55.41812637408321
5.8,-5.0292e-11,0.023787599973600002,56.384288511360005,8980.226872632002,7.208209810736581e-09,-1.9373154697137058e-20,9.786573413352,-1.408480706359424e-26,-1.9373154697137058e-20,-0.0004229498438792832,0.0,0.0,0.0,-56.384288501200004,303.93270080496,0.46820413327318805,30893.130757672403,229.86117022222223,-7.339565665179823e-08,1.4412238033444018e-06,-1.3528883807131409,0.0,0.0,0.0,0.185515719,56.384244695200806
5.9,-5.12064e-11,0.024612253442400003,57.350083948320005,8974.540151976,7.592182246175334e-09,-1.9722220547535922e-20,9.786590838768001,-1.4329153158873444e-26,-1.954768762233649e-20,-0.0004302423356395986,0.0,0.0,0.0,-57.350083928000004,303.95706971736,0.46853036806498205,30919.61887823626,229.89803161111112,-7.47301231363764e-08,1.5168435708038304e-06,-1.4006883652325908,0.0,0.0,0.0,0.188678254,57.3500395339312
6.0,-5.2120800000000006e-11,0.0254507792736,58.3155500184,8968.756867632,7.976154681614086e-09,-2.007128639793479e-20,9.786608562888,-1.4573499254152652e-26,-1.9896753472735354e-20,-0.0004375348448532065,0.0,0.0,0.0,-58.31555001840001,303.98185023168,0.468862272023774,30946.561961808962,229.93551866666667,-7.606458962095455e-08,1.5969115598785195e-06,-1.4493521677003942,0.0,0.0,0.0,0.191838939,58.3155050770572
6.1,-5.30352e-11,0.0263031649704,59.28068089992,8962.877053128,8.377580409572782e-09,-2.0420352248333654e-20,9.786626579616,-1.4817845349431857e-26,-2.0245819323134222e-20,-0.00044482735406681435,0.0,0.0,0.0,-59.280680879600006,304.00704225648,0.46919984514956403,30973.96518424652,229.9736312777778,-7.739905610553269e-08,1.6769795489532084e-06,-1.4988817898162785,0.0,0.0,0.0,0.194997742,59.2806353570284
6.2,-5.3949600000000007e-11,0.027169398036,60.245470618800006,8956.900741992,8.796459430051421e-09,-2.0769418098732522e-20,9.786644895048001,-1.5062191444711062e-26,-2.059488517353309e-20,-0.0004521198807337148,0.0,0.0,0.0,-60.245470618800006,304.03264563936,0.46954257206353406,31001.82167951979,230.01236955555555,-7.828870042858479e-08,1.7659439812584184e-06,-1.5492794957250458,0.0,0.0,0.0,0.198154631,60.245424560627605
6.3,-5.4864e-11,0.028049466278400003,61.20991326192,8950.8279708,9.232791743050003e-09,-2.1118483949131386e-20,9.786663506136001,-1.5306537539990267e-26,-2.0943951023931954e-20,-0.0004594124248539078,0.0,0.0,0.0,-61.2099132416,304.05866028888005,0.469890968144502,31030.139046225875,230.05173338888892,-7.962316691316294e-08,1.8549084135636284e-06,-1.6005478209130166,0.0,0.0,0.0,0.201309575,61.209866668859995
6.4,-5.57784e-11,0.028943356286400004,62.174002885680004,8944.658770032001,9.686577348568529e-09,-2.1467549799530254e-20,9.786682409832002,-1.5550883635269478e-26,-2.1293016874330822e-20,-0.0004667049864273932,0.0,0.0,0.0,-62.17400285520001,304.0850861136,0.47024503339246804,31058.91284107673,230.09172288888888,-8.09576333977411e-08,1.952769289099359e-06,-1.6526888515961287,0.0,0.0,0.0,0.204462542,62.1739557656196
6.5,-5.66928e-11,0.029851055258400004,63.13773354648001,8938.39318236,1.0140362954087056e-08,-2.1816615649929122e-20,9.78670161528,-1.5795229730548683e-26,-2.1642082724729686e-20,-0.00047399756545417126,0.0,0.0,0.0,-63.137733516000004,304.11192049224,0.470604252428614,31088.145343172695,230.1323341111111,-8.229209988231925e-08,2.0506301646350905e-06,-1.705704936435395,0.0,0.0,0.0,0.207613501,63.137685883356006
6.6,-5.76072e-11,0.0307725497832,64.10109923976,8932.031235216,1.0611601852125524e-08,-2.1991148575128554e-20,9.786721113336,-1.6039575825827888e-26,-2.1991148575128554e-20,-0.0004812901619342417,0.0,0.0,0.0,-64.10109922960001,304.13916833208003,0.470969656010576,31117.835551816355,230.17357483333333,-8.362656636689739e-08,2.1573874834013423e-06,-1.7595985975724708,0.0,0.0,0.0,0.210762418,64.1010511059632
6.7,-5.85216e-11,0.0317078261448,65.06409399144,8925.57297432,1.1100294042683937e-08,-2.2340214425527418e-20,9.786740907048001,-1.6283921921107093e-26,-2.2340214425527418e-20,-0.0004885827584143122,0.0,0.0,0.0,-65.0640940016,304.16682451248,0.471340213380718,31147.982830200264,230.21543733333334,-8.496103285147554e-08,2.2641448021675945e-06,-1.8143721124968237,0.0,0.0,0.0,0.213909264,65.06404536300201
6.8,-5.91312e-11,0.032656870932,66.02671176648,8919.018430152,1.1606439525762291e-08,-2.2689280275926286e-20,9.786760996416,-1.6528268016386302e-26,-2.2689280275926286e-20,-0.0004958753723476753,0.0,0.0,0.0,-66.0267117868,304.19488891152,0.47171592453904,31178.589988895626,230.25792161111113,-8.629549933605368e-08,2.379798564164367e-06,-1.8700280789698769,0.0,0.0,0.0,0.217054008,66.0266626354776
6.9,-6.00456e-11,0.0336196695144,66.98894659080001,8912.367645384,1.213003830136059e-08,-2.3038346126325147e-20,9.786781381439999,-1.6772614111665507e-26,-2.3038346126325147e-20,-0.0005031680037343308,0.0,0.0,0.0,-66.9889465908,304.22336393712004,0.47209782024317803,31209.65553882638,230.3010315,-8.762996582063185e-08,2.4999005477764005e-06,-1.9265688278597566,0.0,0.0,0.0,0.220196615,66.98889700728401
7.0,-6.096e-11,0.0345962084808,67.9507923684,8905.620653544,1.265363707695889e-08,-2.3387411976724015e-20,9.78680206212,-1.7016960206944712e-26,-2.3387411976724015e-20,-0.0005104606525742789,0.0,0.0,0.0,-67.9507923684,304.25224946736,0.472484869735496,31241.179891762757,230.344767,-8.896443230521e-08,2.6244507530036948e-06,-1.9839968590670107,0.0,0.0,0.0,0.223337054,67.95074230509321
7.1,-6.21792e-11,0.0355864725912,68.91224306424,8898.777500352,1.3212142437597075e-08,-2.3736477827122883e-20,9.786823038456001,-1.726130630222392e-26,-2.3561944901923447e-20,-0.0005177533188675194,0.0,0.0,0.0,-68.9122430744,304.28154285048004,0.47287758839481203,31273.162937580168,230.38912427777777,-9.029889878978814e-08,2.7534491798462494e-06,-2.04231470807796,0.0,0.0,0.0,0.226475295,68.9121925613548
7.2,-6.309360000000001e-11,0.03659044752,69.87329258232,8891.838219336001,1.377064779823526e-08,-2.4085543677521747e-20,9.786844307399999,-1.7453292519943293e-26,-2.3911010752322315e-20,-0.0005250460026140526,0.0,0.0,0.0,-69.873292562,304.31124399504,0.47327597622112605,31305.607520365986,230.4341033888889,-9.163336527436629e-08,2.886895828304064e-06,-2.101524932620033,0.0,0.0,0.0,0.229611306,69.87324165418521
7.3,-6.4008e-11,0.037608118332,70.83393482664,8884.802853168001,1.434660645139339e-08,-2.4434609527920615e-20,9.786865875047999,-1.780235837034216e-26,-2.426007660272118e-20,-0.0005323386863605856,0.0,0.0,0.0,-70.8339348368,304.34135527848,0.47367951783562,31338.50975224319,230.47970811111114,-9.296783175894443e-08,3.0292389199924003e-06,-2.161630295038853,0.0,0.0,0.0,0.232745053,70.83388346170081
7.4,-6.49224e-11,0.0386394697872,71.79416373168,8877.67144452,1.4957471689591404e-08,-2.478367537831948e-20,9.786887735304,-1.7976891295541594e-26,-2.4609142453120047e-20,-0.0005396314050137038,0.0,0.0,0.0,-71.7941637012,304.37187407952,0.47408872861711204,31371.871964980393,230.52593461111113,-9.43022982435226e-08,3.1804784549112574e-06,-2.2226330817203306,0.0,0.0,0.0,0.235876506,71.7941119134624
7.5,-6.58368e-11,0.0396844863408,72.75397311,8870.444036064,1.5568336927789418e-08,-2.5132741228718347e-20,9.786909891216,-1.8151424220741027e-26,-2.4958208303518914e-20,-0.000546924123666822,0.0,0.0,0.0,-72.75397311,304.40280027624004,0.474503093186784,31405.697007452996,230.57278288888892,-9.563676472810075e-08,3.336166211445375e-06,-2.284536095044083,0.0,0.0,0.0,0.239005633,72.7539208875864
7.6,-6.67512e-11,0.040743153057600005,73.71335680464,8863.120664376,1.619665545850738e-08,-2.548180707911721e-20,9.786932342784,-1.8500490071139892e-26,-2.530727415391778e-20,-0.0005542168772265251,0.0,0.0,0.0,-73.71335681480001,304.43413374672,0.474923642302272,31439.980498617304,230.62025300000002,-9.697123121267889e-08,3.4963021895947527e-06,-2.3473420172877435,0.0,0.0,0.0,0.242132402,73.71330421074481
7.7,-6.76656e-11,0.0418154531736,74.67230868912,8855.701378224001,1.684242728174528e-08,-2.583087292951608e-20,9.78695508696,-1.8675022996339325e-26,-2.5656340004316647e-20,-0.0005615096307862283,0.0,0.0,0.0,-74.67230871960001,304.46587433856,0.47534934520594,31474.725301712806,230.6683448888889,-9.875051985878309e-08,3.6653346109746514e-06,-2.4110535485218336,0.0,0.0,0.0,0.245256781,74.6722557096096
7.8,-6.858e-11,0.042901371144,75.630822576,8848.186217232,1.7453292519943295e-08,-2.600540585471551e-20,9.786978126792,-1.9024088846738193e-26,-2.600540585471551e-20,-0.000568802401799224,0.0,0.0,0.0,-75.63082257600001,304.49802196032005,0.475780201897788,31509.92945364889,230.71705855555555,-1.0008498634336124e-07,3.843263475585072e-06,-2.4756732242326738,0.0,0.0,0.0,0.248378739,75.6307692108528
7.9,-6.94944e-11,0.0440008905096,76.58889221688,8840.575230168,1.8151424220741026e-08,-2.6354471705114376e-20,9.787001459232,-1.9198621771937623e-26,-2.6354471705114376e-20,-0.0005760952077188047,0.0,0.0,0.0,-76.5888922372,304.53057392976,0.47621724313545205,31545.59531971034,230.7663902222222,-1.0141945282793938e-07,4.025640561810752e-06,-2.54120398024653,0.0,0.0,0.0,0.251498245,76.5888385411464
8.0,-7.040880000000001e-11,0.0451139948112,77.54651142432,8832.868456656,1.884955592153876e-08,-2.670353755551324e-20,9.787025087328,-1.9373154697137058e-26,-2.670353755551324e-20,-0.0005833880136383855,0.0,0.0,0.0,-77.5465114548,304.56353515416004,0.476659438161296,31581.724398549268,230.8163475,-1.0275391931251754e-07,4.216914091266953e-06,-2.6076486011501334,0.0,0.0,0.0,0.254615263,77.54645737282921
8.1,-7.13232e-11,0.0462406672848,78.50367394992,8825.065942416,1.954768762233649e-08,-2.7052603405912108e-20,9.787049008032001,-1.9722220547535924e-26,-2.7052603405912108e-20,-0.0005906808370112588,0.0,0.0,0.0,-78.5036739296,304.59690051288,0.477107302354138,31618.31371201356,230.86692277777777,-1.040883857970957e-07,4.417084063953676e-06,-2.675009684704907,0.0,0.0,0.0,0.257729765,78.50361958401761
8.2,-7.223760000000001e-11,0.0473808908616,79.4603735148,8817.167736216,2.0245819323134222e-08,-2.7401669256310975e-20,9.787073224392001,-1.9896753472735356e-26,-2.7401669256310975e-20,-0.0005979736778374246,0.0,0.0,0.0,-79.4603735148,304.63067235288,0.47756032033516,31655.364251224586,230.91811983333335,-1.0542285228167384e-07,4.62615047987092e-06,-2.743290055531577,0.0,0.0,0.0,0.260841717,79.4603188470504
8.3,-7.3152e-11,0.0485346478632,80.41660387056,8809.173883776,2.111848394913139e-08,-2.775073510670984e-20,9.78709773336,-2.0245819323134224e-26,-2.757620218151041e-20,-0.0006052665535701754,0.0,0.0,0.0,-80.4166038604,304.6648480224,0.47801900748318,31692.87840061923,230.96993483333333,-1.06757318766252e-07,4.848561560633944e-06,-2.812492774006615,0.0,0.0,0.0,0.263951089,80.41654883426641
8.4,-7.40664e-11,0.0497019215256,81.37235867736001,8801.084430816,2.181661564992912e-08,-2.8099800957108704e-20,9.787122534936001,-2.0420352248333657e-26,-2.792526803190927e-20,-0.0006125594293029263,0.0,0.0,0.0,-81.3723586672,304.69942989888,0.47848284841938,31730.85475730592,231.02237166666666,-1.0809178525083013e-07,5.07097264139697e-06,-2.8826204957183243,0.0,0.0,0.0,0.267057847,81.37230337233761
8.5,-7.498079999999999e-11,0.050882693560799996,82.32763159536002,8792.899426104,2.2689280275926285e-08,-2.844886680750757e-20,9.787147632168,-2.0594885173533087e-26,-2.8274333882308137e-20,-0.000619852339942262,0.0,0.0,0.0,-82.32763158520001,304.73441536104,0.478952873901396,31769.295710509567,231.0754265,-1.0942625173540829e-07,5.293383722159994e-06,-2.9536763433182793,0.0,0.0,0.0,0.270161961,82.327576030714
8.6,-7.589520000000001e-11,0.052076945985600004,83.28241634568,8784.618921456002,2.3387411976724016e-08,-2.879793265790644e-20,9.787173022008,-2.0943951023931952e-26,-2.8623399732707e-20,-0.000627145250581598,0.0,0.0,0.0,-83.282416366,304.769804226,0.47942805317159204,31808.196917490684,231.12909927777778,-1.1076071821998645e-07,5.560277019075625e-06,-3.02566279446592,0.0,0.0,0.0,0.273263399,83.2823605331788
8.7,-7.68096e-11,0.0532846608168,84.236706558,8776.242959544,2.426007660272118e-08,-2.9146998508305304e-20,9.787198704456001,-2.1118483949131385e-26,-2.897246558310587e-20,-0.0006344381961275189,0.0,0.0,0.0,-84.236706558,304.8055988712,0.47990838622996806,31847.56425315705,231.18339383333333,-1.1209518470456459e-07,5.827170315991255e-06,-3.0985829985021494,0.0,0.0,0.0,0.276362126,84.236650449182
8.8,-7.80288e-11,0.054505819461600005,85.19049580104,8767.771595232,2.5132741228718345e-08,-2.949606435870417e-20,9.787224679512002,-2.1467549799530253e-26,-2.9321531433504736e-20,-0.0006417311416734398,0.0,0.0,0.0,-85.19049581120001,304.8417966144,0.48039438845534205,31887.392857662373,231.23830644444448,-1.1342965118914274e-07,6.094063612906885e-06,-3.1724401670429736,0.0,0.0,0.0,0.279458113,85.1904394510624
8.9,-7.89432e-11,0.055740403327200004,86.14377770448002,8759.204877288,2.600540585471551e-08,-2.9845130209103033e-20,9.787250947176,-2.1642082724729686e-26,-2.96705972839036e-20,-0.0006490241221259456,0.0,0.0,0.0,-86.1437777248,304.87839486480004,0.480886059847714,31927.68515374777,231.2938331666667,-1.1520893983524695e-07,6.360956909822515e-06,-3.247236808885385,0.0,0.0,0.0,0.282551329,86.1437211597144
9.0,-7.985760000000001e-11,0.0569883932112,87.09654586752,8750.542857528,2.6878070480712678e-08,-3.001966313430247e-20,9.787277507448,-2.1816615649929118e-26,-3.001966313430247e-20,-0.0006563171200317441,0.0,0.0,0.0,-87.0965458472,304.9153984992,0.481382885028266,31968.442707097696,231.34998166666665,-1.1654340631982509e-07,6.627850206738144e-06,-3.3229761712311614,0.0,0.0,0.0,0.285641738,87.0964890931436
9.1,-8.077200000000001e-11,0.058249770216,88.04879379792001,8741.785587768001,2.775073510670984e-08,-3.0368728984701336e-20,9.787304360328,-2.2165681500327983e-26,-3.0368728984701336e-20,-0.0006636101353908353,0.0,0.0,0.0,-88.0487937776,304.95280264080003,0.48188537937581605,32009.664995817337,231.4067443888889,-1.1787787280440324e-07,6.93922571980638e-06,-3.399661283319223,0.0,0.0,0.0,0.288729313,88.0487368208
9.2,-8.168640000000001e-11,0.0595245145296,89.0005150644,8732.933116776001,2.8623399732707004e-08,-3.07177948351002e-20,9.787331508864,-2.2340214425527416e-26,-3.07177948351002e-20,-0.0006709031682032188,0.0,0.0,0.0,-89.0005150644,304.9906115568,0.482393542890364,32051.351186790183,231.4641288888889,-1.192123392889814e-07,7.250601232874615e-06,-3.4772949341845227,0.0,0.0,0.0,0.291814015,89.0004579121336
9.3,-8.26008e-11,0.0608126069496,89.9517032052,8723.985502464,2.9670597283903602e-08,-3.106686068549907e-20,9.787358946960001,-2.268928027592628e-26,-3.106686068549907e-20,-0.0006781962184688947,0.0,0.0,0.0,-89.9517032052,305.02882006560003,0.48290686019309204,32093.50319043857,231.52212755555556,-1.2054680577355954e-07,7.606458962095454e-06,-3.5558804555450507,0.0,0.0,0.0,0.294895819,89.9516458337056
9.4,-8.35152e-11,0.06211402705440001,90.90235166712,8714.9427936,3.054326190990077e-08,-3.1415926535897936e-20,9.787386674616002,-2.2863813201125717e-26,-3.1415926535897936e-20,-0.0006854893036411558,0.0,0.0,0.0,-90.90235164680001,305.0674287768,0.48342584666281807,32136.119120280287,231.58074033333335,-1.218812722581377e-07,7.91783447516369e-06,-3.6354206631250894,0.0,0.0,0.0,0.297974691,90.902294154966
9.5,-8.473440000000001e-11,0.0634287547272,91.85245392744,8705.805051144,3.1590459461097364e-08,-3.1764992386296794e-20,9.787414697928,-2.303834612632515e-26,-3.159045946109736e-20,-0.0006927823888134169,0.0,0.0,0.0,-91.8524539376,305.1064395192,0.48394998692072405,32179.202490726348,231.63997116666667,-1.2321573874271585e-07,8.273692204384529e-06,-3.7159189375730652,0.0,0.0,0.0,0.301050597,91.85239629103161
9.6,-8.56488e-11,0.0647567698512,92.80200349392001,8696.572320816002,3.2637657012293966e-08,-3.211405823669566e-20,9.7874430108,-2.3387411976724015e-26,-3.1939525311496227e-20,-0.000700075508892263,0.0,0.0,0.0,-92.8020034736,305.145851988,0.48447979634562804,32222.751420082575,231.69981994444444,-1.2499502738882005e-07,8.62954993360537e-06,-3.7973781301990357,0.0,0.0,0.0,0.304123505,92.8019457084636
9.7,-8.656320000000001e-11,0.0660980513952,93.75099372192001,8687.244666624,3.351032163829113e-08,-3.246312408709453e-20,9.78747161628,-2.3561944901923447e-26,-3.22885911618951e-20,-0.0007073686464244016,0.0,0.0,0.0,-93.7509937524,305.18566130640005,0.48501527493753005,32266.765419970332,231.76027905555557,-1.2632949387339818e-07,9.029889878978815e-06,-3.879801670581864,0.0,0.0,0.0,0.307193387,93.7509358223788
9.8,-8.74776e-11,0.0674525786328,94.69941808872001,8677.822143432,3.455751918948773e-08,-3.2812189937493394e-20,9.787500514368,-2.3911010752322316e-26,-3.263765701229396e-20,-0.0007146618014098327,0.0,0.0,0.0,-94.69941806840002,305.2258723512,0.485555907317612,32311.248536271494,231.82135622222222,-1.2766396035797633e-07,9.430229824352259e-06,-3.963192138690088,0.0,0.0,0.0,0.310260206,94.6993600993384
9.9,-8.8392e-11,0.0688203299232,95.64726994968,8668.304803056,3.577924966588375e-08,-3.316125578789226e-20,9.787529702016,-2.4085543677521748e-26,-3.2986722862692826e-20,-0.0007219549913018489,0.0,0.0,0.0,-95.64726991920001,305.2664823792,0.48610169348587406,32356.195961808062,231.8830475,-1.2899842684255448e-07,9.830569769725704e-06,-4.047552995240125,0.0,0.0,0.0,0.313323932,95.6472118515704
10.0,-8.961120000000001e-11,0.07020128454,96.59454266016,8658.692706456,3.682644721708036e-08,-3.351032163829113e-20,9.787559179224,-2.4260076602721178e-26,-3.333578871309169e-20,-0.0007292481811938651,0.0,0.0,0.0,-96.59454265000001,305.3074910856,0.48665366419995204,32401.6107034603,231.94535294444444,-1.3033289332713264e-07,1.023090971509915e-05,-4.132887745430606,0.0,0.0,0.0,0.316384533,96.5944844941916
10.1,-9.05256e-11,0.071595419928,97.54122957551999,8648.985914592,3.787364476827695e-08,-3.3859387488689994e-20,9.787588949040002,-2.4609142453120043e-26,-3.368485456349056e-20,-0.0007365414059924663,0.0,0.0,0.0,-97.54122960600002,305.3488987752,0.487210273323392,32447.493335791318,232.00827255555558,-1.3211218197323684e-07,1.0675731876625199e-05,-4.219198987022956,0.0,0.0,0.0,0.319441977,97.5411713908744
10.2,-9.144000000000001e-11,0.0730027147512,98.48732405112,8639.184482328,3.909537524467298e-08,-3.4033920413889426e-20,9.787619011463999,-2.478367537831948e-26,-3.4033920413889426e-20,-0.0007438346482443601,0.0,0.0,0.0,-98.48732403080001,305.3907045336,0.48777255161383004,32493.844457304353,232.07180633333334,-1.3344664845781497e-07,1.1165036254303854e-05,-4.306490256353359,0.0,0.0,0.0,0.322496231,98.4872658024024
10.3,-9.23544e-11,0.0744231467592,99.4328193204,8629.288470624,4.0142572795869577e-08,-3.438298626428829e-20,9.787649360400001,-2.5132741228718344e-26,-3.438298626428829e-20,-0.0007511279254028389,0.0,0.0,0.0,-99.43281932040001,305.4329089704,0.48834049907126603,32540.662229397458,232.13595427777778,-1.3478111494239314e-07,1.1609858415829904e-05,-4.394764462558751,0.0,0.0,0.0,0.325547262,99.4327610410036
10.4,-9.357360000000002e-11,0.07585669309200001,100.37770873872,8619.297937392,4.136430327226561e-08,-3.4732052114687155e-20,9.787680001944,-2.5307274153917777e-26,-3.4732052114687155e-20,-0.0007584212025613176,0.0,0.0,0.0,-100.3777087184,305.4755087328,0.488913600316882,32587.9491418441,232.20071261111113,-1.361155814269713e-07,1.2099162793508558e-05,-4.484025524522375,0.0,0.0,0.0,0.328595041,100.3776504703504
10.5,-9.448800000000001e-11,0.0773033314992,101.32198550904,8609.212949688,4.258603374866164e-08,-3.5081117965086025e-20,9.787710933048002,-2.548180707911721e-26,-3.5081117965086025e-20,-0.0007657145146263815,0.0,0.0,0.0,-101.32198551920001,305.51850412560003,0.48949237072949603,32635.705802723565,232.26608122222225,-1.3789487007307547e-07,1.2632949387339818e-05,-4.574275719733698,0.0,0.0,0.0,0.331639536,101.3219272483376
10.6,-9.54024e-11,0.0787630385112,102.26564289528001,8599.033562376,4.3807764225057675e-08,-3.543018381548489e-20,9.787742156760002,-2.5830872929516075e-26,-3.525565089028546e-20,-0.0007730078615980303,0.0,0.0,0.0,-102.26564286480001,305.5618972824,0.490076810309108,32683.930928844922,232.33206405555558,-1.3922933655765365e-07,1.3166735981171078e-05,-4.665518993765292,0.0,0.0,0.0,0.334680712,102.2655846357488
10.7,-9.63168e-11,0.080235791268,103.20867406992001,8588.759839464,4.50294947014537e-08,-3.5779249665883755e-20,9.787773666984,-2.600540585471551e-26,-3.560471674068432e-20,-0.0007803012085696792,0.0,0.0,0.0,-103.2086741004,305.6056857648,0.490665888298082,32732.62459202855,232.39865722222223,-1.4056380304223178e-07,1.370052257500234e-05,-4.757758304684532,0.0,0.0,0.0,0.337718538,103.2086158933676
10.8,-9.7536e-11,0.0817215656904,104.1510722664,8578.391848008001,4.625122517784973e-08,-3.6128315516282625e-20,9.787805466768,-2.6354471705114376e-26,-3.5953782591083187e-20,-0.0007875945904479131,0.0,0.0,0.0,-104.1510722664,305.6498714016,0.49126115083287203,32781.78795576475,232.46586455555556,-1.4189826952680993e-07,1.4278791384986205e-05,-4.850997317826029,0.0,0.0,0.0,0.340752979,104.1510141276444
10.9,-9.845040000000002e-11,0.0832203386136,105.09283065720001,8567.929648968,4.76474885794452e-08,-3.647738136668149e-20,9.787837559160002,-2.652900463031381e-26,-3.630284844148206e-20,-0.000794888007232732,0.0,0.0,0.0,-105.09283065720001,305.69445205920005,0.49186156715584206,32831.42110623798,232.53368227777779,-1.4367755817291414e-07,1.485706019497007e-05,-4.945238630951206,0.0,0.0,0.0,0.343784007,105.0927725479184
11.0,-9.936480000000001e-11,0.0847320856536,106.03394232336001,8557.373303304,4.886921905584122e-08,-3.6826447217080354e-20,9.787869938064,-2.670353755551324e-26,-3.665191429188092e-20,-0.000802181424017551,0.0,0.0,0.0,-106.03394231320001,305.7394249944,0.49246713726699204,32881.52657152592,232.6021065,-1.450120246574923e-07,1.547981122110654e-05,-5.040486314182842,0.0,0.0,0.0,0.34681159,106.0338843635288
11.1,-1.002792e-10,0.08625678273120001,106.97440046784,8546.72288112,5.026548245743669e-08,-3.717551306747922e-20,9.787902606528,-2.7052603405912106e-26,-3.7000980142279787e-20,-0.0008094748757089549,0.0,0.0,0.0,-106.97440047800002,305.784792036,0.49307837654514003,32932.10065048455,232.67114105555558,-1.4634649114207041e-07,1.610256224724301e-05,-5.1367429608341375,0.0,0.0,0.0,0.349835695,106.97434257803721
11.2,-1.014984e-10,0.0877944051576,107.91419811072001,8535.978446424,5.166174585903215e-08,-3.752457891787809e-20,9.787935561504002,-2.722713633111154e-26,-3.735004599267866e-20,-0.0008167683448536514,0.0,0.0,0.0,-107.9141981412,305.830556232,0.493694769611468,32983.146972437506,232.74078977777776,-1.4812577978817464e-07,1.6769795489532083e-05,-5.234012689958308,0.0,0.0,0.0,0.352856285,107.91414034933841
11.3,-1.024128e-10,0.0893449279392,108.853328394,8525.140063224,5.305800926062762e-08,-3.7873644768276954e-20,9.787968809088001,-2.7576202181510404e-26,-3.769911184307752e-20,-0.000824061848904933,0.0,0.0,0.0,-108.853328394,305.8767093528,0.494316316465976,33034.66211394625,232.81104127777778,-1.494602462727528e-07,1.7437028731821158e-05,-5.332297707873275,0.0,0.0,0.0,0.355873336,108.8532707838828
11.4,-1.033272e-10,0.0909083257776,109.79178433776,8514.207801624,5.445427266222308e-08,-3.8048177693476386e-20,9.788002343183999,-2.7750735106709837e-26,-3.8048177693476386e-20,-0.000831355370409507,0.0,0.0,0.0,-109.79178432760001,305.92325871360003,0.49494404786630003,33086.6532283215,232.8819068888889,-1.5079471275733092e-07,1.814874419026284e-05,-5.43160255621331,0.0,0.0,0.0,0.358886808,109.79172688523201
11.5,-1.045464e-10,0.09248457398400001,110.72955899256,8503.181728680001,5.5850536063818545e-08,-3.8397243543875245e-20,9.78803616684,-2.792526803190927e-26,-3.8397243543875245e-20,-0.0008386489268206662,0.0,0.0,0.0,-110.72955898240001,305.9701969992,0.49557641767598604,33139.11203706646,232.95337522222223,-1.5257400140343515e-07,1.8860459648704517e-05,-5.531929832739832,0.0,0.0,0.0,0.361896677,110.72950170839201
11.6,-1.054608e-10,0.0940736460408,111.66664476888,8492.061914496,5.724679946541401e-08,-3.8746309394274115e-20,9.788070277008,-2.827433388230814e-26,-3.8746309394274115e-20,-0.0008459425006851177,0.0,0.0,0.0,-111.66664473840001,306.01752908640003,0.496235587184208,33193.463983371235,233.02545394444445,-1.5390846788801328e-07,1.9616657323298805e-05,-5.633489715924166,0.0,0.0,0.0,0.364902902,111.666587691036
11.7,-1.0668e-10,0.09567551451600001,112.60303294944,8480.84842308,5.88175957922089e-08,-3.909537524467298e-20,9.788104673688,-2.8448866807507573e-26,-3.909537524467298e-20,-0.000853236092002862,0.0,0.0,0.0,-112.6030329596,306.06525406080004,0.49690918729933403,33248.87318803862,233.098143,-1.5524293437259143e-07,2.0417337214045693e-05,-5.7362208514455695,0.0,0.0,0.0,0.367905445,112.60297608761601
11.8,-1.0759440000000001e-10,0.09729015289199999,113.53871637144,8469.541330632,6.021385919380437e-08,-3.9444441095071844e-20,9.788139359928001,-2.879793265790644e-26,-3.926990816987241e-20,-0.0008605297182271911,0.0,0.0,0.0,-113.5387163816,306.1133676552,0.49758794120264005,33304.77289244308,233.1714347777778,-1.5702222301869563e-07,2.1218017104792584e-05,-5.839998911509899,0.0,0.0,0.0,0.370904279,113.538659695916
11.9,-1.0850880000000001e-10,0.098917534956,114.47368781112,8458.140704208,6.178465552059926e-08,-3.979350694547071e-20,9.78817433268,-2.897246558310587e-26,-3.9618974020271277e-20,-0.0008678233619048127,0.0,0.0,0.0,-114.47368784160001,306.16187169840003,0.49827287965176204,33361.16678815257,233.2453331111111,-1.583566895032738e-07,2.206317921169208e-05,-5.944827125526044,0.0,0.0,0.0,0.373899369,114.47363141660881
12.0,-1.09728e-10,0.1005576335808,115.40794013616001,8446.64661696,6.335545184739416e-08,-4.014257279586958e-20,9.788209594991999,-2.9146998508305304e-26,-3.996803987067015e-20,-0.0008751170404890195,0.0,0.0,0.0,-115.40794012600001,306.21076588560004,0.498962971889064,33418.04825811531,233.31983794444446,-1.60135978149378e-07,2.2908341318591573e-05,-6.050710039576498,0.0,0.0,0.0,0.376890681,115.407883996034
12.1,-1.1064240000000001e-10,0.1022104213344,116.34146609232,8435.05914204,6.492624817418906e-08,-4.0491638646268444e-20,9.788245140768,-2.949606435870417e-26,-4.031710572106901e-20,-0.0008824107365265187,0.0,0.0,0.0,-116.34146612280001,306.2600477784,0.499658733293364,33475.42481474392,233.3949455,-1.6147044463395614e-07,2.379798564164367e-05,-6.157650469385542,0.0,0.0,0.0,0.379878185,116.3414102319756
12.2,-1.1186160000000001e-10,0.10387587139440001,117.27425848632001,8423.378349552,6.667157742618339e-08,-4.084070449666731e-20,9.788280976104,-2.96705972839036e-26,-4.0666171571467876e-20,-0.0008897044674706032,0.0,0.0,0.0,-117.27425846600002,306.3097222536,0.5003601638646621,33533.2933841258,233.47066344444445,-1.6280491111853427e-07,2.4732112180848378e-05,-6.265652542902836,0.0,0.0,0.0,0.382861842,117.2742029222176
12.3,-1.1277600000000001e-10,0.10555395541439999,118.20631003344,8411.604315696,6.824237375297828e-08,-4.118977034706618e-20,9.788317094904002,-2.9845130209103034e-26,-4.101523742186674e-20,-0.0008969982158679799,0.0,0.0,0.0,-118.20631004360001,306.3597813864,0.5010672636029581,33591.653056536,233.5469802777778,-1.645841997646385e-07,2.5666238720053082e-05,-6.374719507330157,0.0,0.0,0.0,0.385841629,118.2062547616552
12.4,-1.1369040000000001e-10,0.1072446456576,119.13761344896001,8399.737110576001,6.998770300497261e-08,-4.1538836197465044e-20,9.788353503264002,-3.01941960595019e-26,-4.136430327226561e-20,-0.0009042919991719418,0.0,0.0,0.0,-119.13761343880002,306.4102300536,0.5017800325082521,33650.50810289363,233.62390366666668,-1.6591866624921665e-07,2.6644847475410392e-05,-6.484855050243228,0.0,0.0,0.0,0.388817507,119.1375585480724
12.5,-1.1490960000000001e-10,0.1089479137776,120.06816141768,8387.776816488,7.15584993317675e-08,-4.1713369122664476e-20,9.788390195088,-3.036872898470133e-26,-4.1713369122664476e-20,-0.0009115857999291963,0.0,0.0,0.0,-120.068161438,306.461065512,0.502497955201726,33709.856277614555,233.70142972222223,-1.6769795489532083e-07,2.7667938446920306e-05,-6.596063348522141,0.0,0.0,0.0,0.391789445,120.0681068734756
12.6,-1.15824e-10,0.11066373112320001,120.99794662440002,8375.723506584,7.330382858376184e-08,-4.206243497306334e-20,9.788427173424001,-3.07177948351002e-26,-4.206243497306334e-20,-0.0009188796355930356,0.0,0.0,0.0,-120.9979466244,306.5122877616,0.503222062441016,33769.69832284277,233.77955855555558,-1.69032421379899e-07,2.8691029418430223e-05,-6.70834715561608,0.0,0.0,0.0,0.394757411,120.99789243276
12.7,-1.170432e-10,0.1123920690432,121.92696172344,8363.577254016,7.504915783575617e-08,-4.241150082346221e-20,9.788464438272,-3.089232776029963e-26,-4.241150082346221e-20,-0.0009261734887101676,0.0,0.0,0.0,-121.92696173360001,306.5638964976,0.5039513234684859,33830.0325388291,233.85829011111113,-1.7081171002600318e-07,2.980308482224535e-05,-6.82171065285336,0.0,0.0,0.0,0.397721372,121.92690792082081
12.8,-1.179576e-10,0.11413289827680001,122.85519927768001,8351.338138032,7.679448708775051e-08,-4.2760566673861076e-20,9.788501986584,-3.106686068549906e-26,-4.2586033748661643e-20,-0.0009334673767338845,0.0,0.0,0.0,-122.855199298,306.61589172,0.504686253662954,33890.864580232126,233.93762433333333,-1.7214617651058134e-07,3.091514022606048e-05,-6.936158052699853,0.0,0.0,0.0,0.400681294,122.85514587822001
12.9,-1.191768e-10,0.11588618925840001,123.78265191096,8339.006240928002,7.871434926494426e-08,-4.310963252425994e-20,9.788539821408,-3.141592653589793e-26,-4.293509959906051e-20,-0.0009407612822108941,0.0,0.0,0.0,-123.7826519008,306.6682728192,0.50542685302442,33952.19031498549,234.01756133333336,-1.7392546515668554e-07,3.20716778460282e-05,-7.051691570369922,0.0,0.0,0.0,0.403637145,123.78259894840839
13.0,-1.200912e-10,0.11765191211760001,124.70931221664,8326.581635856,8.045967851693859e-08,-4.3458698374658805e-20,9.788577942744,-3.1590459461097366e-26,-4.328416544945937e-20,-0.0009480552225944886,0.0,0.0,0.0,-124.70931222680001,306.7210373568,0.506172606174066,34014.009948974315,234.09809722222224,-1.752599316412637e-07,3.322821546599593e-05,-7.168315916530259,0.0,0.0,0.0,0.406588895,124.709259671948
13.1,-1.2131040000000002e-10,0.1194300372888,125.63517266616002,8314.064405112,8.237954069413236e-08,-4.3807764225057675e-20,9.788616344496,-3.193952531149623e-26,-4.3633231299858243e-20,-0.0009553491978846682,0.0,0.0,0.0,-125.63517265600001,306.7741877712,0.506924543869528,34076.32726473905,234.17923583333334,-1.7703922028736787e-07,3.4473717518268874e-05,-7.286034809894132,0.0,0.0,0.0,0.409536507,125.6351206408452
13.2,-1.222248e-10,0.12122053429200001,126.56022585288001,8301.454627944,8.412486994612668e-08,-4.415683007545654e-20,9.788655035808,-3.2114058236695664e-26,-4.398229715025711e-20,-0.0009626431906281402,0.0,0.0,0.0,-126.56022582240001,306.827718576,0.50768163535317,34139.13947564863,234.2609695555556,-1.7837368677194605e-07,3.571921957054181e-05,-7.4048514487328845,0.0,0.0,0.0,0.412479956,126.56017429277321
13.3,-1.23444e-10,0.12302337264720001,127.48446418728,8288.752386648,8.604473212332045e-08,-4.4505895925855404e-20,9.788694007536002,-3.2288591161895097e-26,-4.433136300065597e-20,-0.0009699372182781974,0.0,0.0,0.0,-127.4844642076,306.88163464800004,0.50844439600381,34202.44847297329,234.34330594444444,-1.8015297541805023e-07,3.700920383896736e-05,-7.524769538415122,0.0,0.0,0.0,0.415419201,127.48441311684961
13.4,-1.243584e-10,0.12483852096,128.40788020176,8275.95776352,8.813912722571364e-08,-4.4854961776254275e-20,9.788733262728,-3.263765701229396e-26,-4.4680428851054837e-20,-0.0009772312808348396,0.0,0.0,0.0,-128.4078801916,306.935933244,0.5092128258214481,34266.25448653825,234.42624127777776,-1.8148744190262838e-07,3.8388152539698116e-05,-7.645792784309449,0.0,0.0,0.0,0.418354213,128.4078296536364
13.5,-1.255776e-10,0.1266659484456,129.3304663068,8263.070837808,9.00589894029074e-08,-4.502949470145371e-20,9.788772804432,-3.2812189937493395e-26,-4.502949470145371e-20,-0.0009845253608447744,0.0,0.0,0.0,-129.3304663068,306.990614364,0.509986409427266,34330.55831115584,234.50977555555556,-1.8326673054873258e-07,3.976710124042887e-05,-7.767924335756769,0.0,0.0,0.0,0.421284959,129.3304163408068
13.6,-1.267968e-10,0.1285056237096,130.25221491288002,8250.091697904001,9.197885158010118e-08,-4.537856055185257e-20,9.788812626552,-3.3161255787892255e-26,-4.537856055185257e-20,-0.0009918194583080015,0.0,0.0,0.0,-130.2522149332,307.0456752648,0.5107661775789001,34395.36018622733,234.5939048888889,-1.8460119703331074e-07,4.1190532157312225e-05,-7.891169005732871,0.0,0.0,0.0,0.424211408,130.2521655131452
13.7,-1.277112e-10,0.130357514748,131.17311843048,8237.020423056,9.407324668249437e-08,-4.572762640225143e-20,9.788852735184001,-3.333578871309169e-26,-4.572762640225143e-20,-0.0009991136081311063,0.0,0.0,0.0,-131.17311845080002,307.10111808000005,0.511551099518714,34460.65901050678,234.67863311111114,-1.8638048567941494e-07,4.265844529034819e-05,-8.015529378654511,0.0,0.0,0.0,0.427133525,131.1730696083248
13.8,-1.289304e-10,0.1322215895568,132.09316920912002,8223.857101656,9.616764178488756e-08,-4.6076692252650295e-20,9.788893124232,-3.351032163829113e-26,-4.6076692252650295e-20,-0.0010064077754075036,0.0,0.0,0.0,-132.0931692396,307.1569400664,0.5123411752467081,34526.45503775955,234.76395644444446,-1.8815977432551914e-07,4.417084063953676e-05,-8.14100913764919,0.0,0.0,0.0,0.43005128,132.09312096113
13.9,-1.298448e-10,0.1340978158272,133.01235959832002,8210.601819048,9.826203688728076e-08,-4.6425758103049165e-20,9.788933796744,-3.385938748868999e-26,-4.6251225177849733e-20,-0.0010137019601371934,0.0,0.0,0.0,-133.01235962880003,307.21314396720004,0.513137435520518,34592.75209361834,234.84987866666668,-1.8949424081009727e-07,4.5816682637183146e-05,-8.267612544113213,0.0,0.0,0.0,0.432964637,133.012312009234
14.0,-1.3106400000000002e-10,0.1359861609456,133.93068191712,8197.254660576002,1.0035643198967395e-07,-4.677482395344803e-20,9.78897475272,-3.4033920413889424e-26,-4.66002910282486e-20,-0.0010209961972267607,0.0,0.0,0.0,-133.9306819476,307.2697264296,0.513938849582508,34659.547975591246,234.93639600000003,-1.912735294562015e-07,4.7151149121761295e-05,-8.395342707353489,0.0,0.0,0.0,0.435873565,133.93063498453242
14.1,-1.3228320000000002e-10,0.1378865919936,134.84812845408,8183.815711584,1.0245082709206714e-07,-4.7123889803846895e-20,9.789015989112,-3.4208453339088856e-26,-4.694935687864746e-20,-0.0010282904517696207,0.0,0.0,0.0,-134.8481284744,307.32668532,0.514745932811496,34726.84294701967,235.02350461111112,-1.9260799594077962e-07,4.89304377678655e-05,-8.524202692194713,0.0,0.0,0.0,0.438778035,134.8480821703652
14.2,-1.331976e-10,0.1397990754432,135.76469149776,8170.285063512,1.0454522219446034e-07,-4.7472955654245765e-20,9.789057508968002,-3.455751918948772e-26,-4.7298422729046327e-20,-0.0010355847412190655,0.0,0.0,0.0,-135.7646914876,307.38402490560003,0.5155581698286641,34794.63649079683,235.1112121666667,-1.9438728458688383e-07,5.070972641396969e-05,-8.65419736943955,0.0,0.0,0.0,0.441678007,135.76464590151681
14.3,-1.344168e-10,0.14172357776640002,136.68036324528,8156.662801704001,1.0681415022205296e-07,-4.782202150464463e-20,9.789099309240001,-3.4732052114687154e-26,-4.76474885794452e-20,-0.001042879048121803,0.0,0.0,0.0,-136.68036326560002,307.44174030960005,0.5163765913916479,34862.93323694377,235.19951094444446,-1.9616657323298803e-07,5.24890150600739e-05,-8.785329808360917,0.0,0.0,0.0,0.444573455,136.6803183584384
14.4,-1.35636e-10,0.1436600654352,137.59513595472,8142.949020648,1.090830782496456e-07,-4.8171087355043494e-20,9.789141389928,-3.508111796508602e-26,-4.799655442984406e-20,-0.001050173407384418,0.0,0.0,0.0,-137.59513593440002,307.4998336656,0.517199651363994,34931.729666261446,235.28840483333335,-1.9750103971756618e-07,5.4268303706178095e-05,-8.917602406550264,0.0,0.0,0.0,0.447464343,137.59509177302562
