time,gePosition_m_X,gePosition_m_Y,gePosition_m_Z,feVelocity_m_s_X,feVelocity_m_s_Y,feVelocity_m_s_Z,altitudeMsl_m,longitude_rad,latitude_rad,localGravity_m_s2,eulerAngle_rad_Yaw,eulerAngle_rad_Pitch,eulerAngle_rad_Roll,bodyAngularRateWrtEi_rad_s_Roll,bodyAngularRateWrtEi_rad_s_Pitch,bodyAngularRateWrtEi_rad_s_Yaw,altitudeRateWrtMsl_m_s,speedOfSound_m_s,airDensity_kg_m3,ambientPressure_Pa,ambientTemperature_K,aero_bodyForce_N_X,aero_bodyForce_N_Y,aero_bodyForce_N_Z,aero_bodyMoment_Nm_L,aero_bodyMoment_Nm_M,aero_bodyMoment_Nm_N,mach,dynamicPressure_Pa,trueAirspeed_m_s
0.0,6387280.999951441,0.0,0.0,0.0,0.0,0.0,9144.0,0.0,0.0,9.78607229417136,0.0,1.745329251987492e-11,0.0,0.0,0.0,0.0,0.0,303.2314967110032,0.45935725912772696,30180.52669774471,228.79957777777778,-0.0,-0.0,-0.0,0.0,0.0,0.0,0.0,0.0,0.0
0.1,6387280.95136632,2.370448365197928e-07,0.0,0.0,7.0876375853772e-06,0.9752099627638801,9143.95140201744,3.711201031001749e-14,0.0,9.786072434348881,-1.272714193908172e-16,1.7453292519474923e-11,-7.2921151837995234e-06,0.0,0.0,0.0,-0.9752099627638801,303.2317066557192,0.459359861898472,30180.73568037592,228.79989271944444,6.954347702380231e-15,9.685796956058925e-12,-0.00039845477261182566,0.0,0.0,0.0,0.003216055384,0.21843353191512302,0.9752091186027392
0.2,6387280.80506232,1.896354850307352e-06,0.0,0.0,2.842156736679984e-05,1.95041465245728,9143.80512072504,2.9689548779619826e-13,0.0,9.78607287332184,-2.5454284266163427e-16,1.7453292518074923e-11,-1.4584230590279045e-05,0.0,0.0,0.0,-1.95041465245728,303.2323385957304,0.45936769631103674,30181.364724036357,228.8008407038889,2.7817714827146717e-14,1.939138674361578e-11,-0.0015938376552932666,0.0,0.0,0.0,0.00643207997437,0.8737443049379968,1.9504129642882337
0.3,6387280.561283281,6.400175760638881e-06,0.0,0.0,6.3977793216624e-05,2.925608638638432,9143.56131943464,1.0020188872601212e-12,0.0,9.786073611638882,-3.8181427369045136e-16,1.7453292515774922e-11,-2.1876346442067456e-05,0.0,0.0,0.0,-2.925608638638432,303.23339182512,0.4593807536178964,30182.413126370513,228.80242067166668,6.259106666392275e-14,2.9216791345381574e-11,-0.003586203955064269,0.0,0.0,0.0,0.00964804245908,1.9659626384612146,2.9256061067913977
0.4,6387280.219968241,1.5170713963870801e-05,0.0,0.0,0.00011375582418858241,3.90078648975,9143.21999951784,2.37514457507167e-12,0.0,9.78607464923904,-5.090857163592687e-16,1.745329251247492e-11,-2.916846296185758e-05,0.0,0.0,0.0,-3.90078648975,303.234866337792,0.45939903374689794,30183.880881536985,228.80463261444444,1.1127600737309019e-13,3.942637593874002e-11,-0.006375645583566848,0.0,0.0,0.0,0.0128639115235,3.4951389185877533,3.900783114689645
0.5,6387279.7811172,2.9630116657738078e-05,0.0,0.0,0.00017775497189132642,4.87594277343912,9142.78116283392,4.638925751351582e-12,0.0,9.78607598612232,-6.363571745450857e-16,1.7453292508274923e-11,-3.646058037234682e-05,0.0,0.0,0.0,-4.875942773439121,303.2367621264312,0.45942253659754256,30185.7679814919,228.80747651944446,1.7387477977939185e-13,5.0530332039600377e-11,-0.009962291045141628,0.0,0.0,0.0,0.016079655852,5.461343591609683,4.875938555824735
0.6,6387279.24476064,5.12004519230976e-05,0.0,0.0,0.000255974349309612,5.85107205642024,9142.24481185176,8.016003365625422e-12,0.0,9.786077622319201,-7.636286521279029e-16,1.7453292503174922e-11,-4.3752698896136206e-05,0.0,0.0,0.0,-5.85107205642024,303.23907917976004,0.45945126203995473,30188.074415749474,228.81095237222223,2.5039026508226345e-13,6.336900425300894e-11,-0.014346305420374324,0.0,0.0,0.0,0.0192952441283,7.864667154975076,5.8510669970506965
0.7,6387278.61089856,8.130368885767681e-05,0.0,0.0,0.00034841287253532,6.82616890407888,9141.61094949744,1.272900304034567e-11,0.0,9.786079557799201,-8.9090015298572e-16,1.7453292497174925e-11,-5.104481875582503e-05,0.0,0.0,0.0,-6.826168904078881,303.2418174852816,0.45948520991436703,30190.800171525683,228.81506015222223,3.408259824811154e-13,7.919171971065116e-11,-0.019527890344570784,0.0,0.0,0.0,0.0225106450344,10.705220145461583,6.826163003930301
0.8,6387277.87953096,0.00012136167764517121,0.0,0.0,0.00045506925800292003,7.80122788039848,9140.87957930664,1.900053198475865e-11,0.0,9.78608179253184,-1.0181716809985372e-15,1.7453292490174922e-11,-5.8336940174016085e-05,0.0,0.0,0.0,-7.80122788039848,303.244977027756,0.45952438003266627,30193.94523373824,228.81979983722223,4.4518608872072437e-13,9.974602126684202e-11,-0.025507283981610358,0.0,0.0,0.0,0.0257258272508,13.983133124826722,7.801221140580734
0.9,6387277.0506578395,0.00017279612964342243,0.0,0.0,0.0005759420244804241,8.77624354756416,9140.0507053332,2.705317591090774e-11,0.0,9.786084326517122,-1.1454432400383544e-15,1.745329248237492e-11,-6.562906337340466e-05,0.0,0.0,0.0,-8.77624354756416,303.2485577895048,0.4595687721773625,30197.509584958734,228.82517140111113,5.634753775467714e-13,1.2735602090305307e-10,-0.03228476099307522,0.0,0.0,0.0,0.0289407594563,17.698556663078513,8.776235969328914
1.0,6387276.1242792,0.00023702859746677443,0.0,0.0,0.00071102949247716,9.7512104656884,9139.12433221008,3.710949595012529e-11,0.0,9.78608715978552,-1.2727148339981715e-15,1.7453292473474925e-11,-7.292118857639456e-05,0.0,0.0,0.0,-9.7512104656884,303.25255975102084,0.4596183861021047,30201.493205316856,228.8311748138889,6.956992790968796e-13,1.6500648221341943e-10,-0.03986063250253116,0.0,0.0,0.0,0.0321554103273,21.85166131860517,9.751202050495433
1.1,6387275.100425521,0.00031548045505764004,0.0,0.0,0.000860329783580832,10.72612319275008,9138.10046502744,4.939202556627818e-11,0.0,9.7860902922456,-1.3999864667379885e-15,1.7453292463774923e-11,-8.021331600558334e-05,0.0,0.0,0.0,-10.726123192750082,303.2569828897488,0.4596732215316805,30205.89607269193,228.83781004166667,8.418638591706619e-13,2.1642831351072995e-10,-0.04823524605509327,0.0,0.0,0.0,0.0353697485381,26.44263761619806,10.726113942188766
1.2,6387273.97906632,0.000409572877741608,0.0,0.0,0.001023840820844616,11.700976284137282,9136.97910951552,6.412326746651765e-11,0.0,9.78609372395832,-1.5272581421478056e-15,1.745329245307492e-11,-8.750544588357378e-05,0.0,0.0,0.0,-11.700976284137282,303.26182718130485,0.4597332781604703,30210.718162665016,228.84507704833334,1.0019758184668503e-12,2.8618069747147374e-10,-0.057408985572143016,0.0,0.0,0.0,0.0385837427601,31.471696022106105,11.70096619999662
1.3,6387272.760232081,0.000520726822258776,0.0,0.0,0.0012015603289578481,12.675764292555842,9135.76027189224,8.152569051065018e-11,0.0,9.786097454832241,-1.654529864087623e-15,1.7453292441474916e-11,-9.479757843266322e-05,0.0,0.0,0.0,-12.675764292555842,303.26709259856165,0.4597985556550241,30215.95944842318,228.85297579333334,1.1760424916847557e-12,3.797329572891441e-10,-0.06738227130173055,0.0,0.0,0.0,0.041797361662,36.93906691688765,12.675753376780145
1.4,6387271.4439228,0.000650363006818248,0.0,0.0,0.0013934858335114561,13.65048176769408,9134.44395898512,1.0182172662138117e-10,0.0,9.786101484897841,-1.7818016364474406e-15,1.7453292428974924e-11,-0.0001020897138758524,0.0,0.0,0.0,-13.650481767694082,303.27277911225843,0.45986905365199976,30221.619900711576,228.8615062327778,1.364071846594589e-12,5.035513022086076e-10,-0.07815555976261616,0.0,0.0,0.0,0.045010573909,42.84500056505439,13.650470022313824
1.5,6387270.03013848,0.0007999018911038641,0.0,0.0,0.0015996146607084002,14.625123255978961,9133.0301780484,1.2523376768635552e-10,0.0,9.786105814124639,-1.909073463097257e-15,1.745329241547492e-11,-0.00010938185243384168,0.0,0.0,0.0,-14.625123255978963,303.2788866910008,0.45994477175867854,30227.699488120757,228.87066831833334,1.5660724829743368e-12,6.651842907409344e-10,-0.08972934368608745,0.0,0.0,0.0,0.0482233481632,49.18976708284795,14.62511068323404
1.6,6387268.51887912,0.000970763656267128,0.0,0.0,0.001819943937781248,15.59968330033224,9131.5189369764,1.5198416246246716e-10,0.0,9.786110442451681,-2.0363453479170744e-15,1.7453292401074924e-11,-0.00011667399433083082,0.0,0.0,0.0,-15.599683300332241,303.2854153003464,0.46002570955451144,30234.1981767515,228.88046200000002,1.7820536315021531e-12,8.73344245868895e-10,-0.10210415195101533,0.0,0.0,0.0,0.0514356530829,55.97365640194669,15.599669902627502
1.7,6387266.910205681,0.00116436818491404,0.0,0.0,0.002054470592915976,16.57415643992664,9129.910244242561,1.8229521347405972e-10,0.0,9.78611536990944,-2.1636172947668915e-15,1.745329238577492e-11,-0.00012396613978882048,0.0,0.0,0.0,-16.57415643992664,303.2923649043288,0.4601118665875112,30241.115930454198,228.8908872227778,2.012025152550893e-12,1.1379908129612547e-09,-0.11528054951535144,0.0,0.0,0.0,0.0546474573222,63.19697823355543,16.57414221987693
1.8,6387265.2040572,0.00138213504108888,0.0,0.0,0.002303191354300992,17.54853721003344,9128.20410871656,2.1638917391584013e-10,0.0,9.78612059643696,-2.2908893075267094e-15,1.745329236957492e-11,-0.0001312582890298113,0.0,0.0,0.0,-17.54853721003344,303.2997354639336,0.4602032423783755,30248.452710637383,228.9019439288889,2.25599753488923e-12,1.4704211000021632e-09,-0.12925913734139796,0.0,0.0,0.0,0.0578587295314,70.86006202593572,17.548522170300934
1.9,6387263.400494641,0.001625483450187888,0.0,0.0,0.002566102750310016,18.5228201415348,9126.4005399996,2.5448824453764e-10,0.0,9.78612612200376,-2.4181613900665254e-15,1.7453292352374924e-11,-0.0001385504422758004,0.0,0.0,0.0,-18.5228201415348,303.3075269383176,0.4602998364173947,30256.208476411302,228.91363205611114,2.5139818943205016e-12,1.88335280650828e-09,-0.14404055231662935,0.0,0.0,0.0,0.0610694383561,78.96325692193606,18.522804285051134
2.0,6387261.49948752,0.001895832278912568,0.0,0.0,0.002843201109596568,19.49699976098472,9124.499548089121,2.968145705412207e-10,0.0,9.78613194657936,-2.545433546256343e-15,1.7453292334274923e-11,-0.0001458425997487902,0.0,0.0,0.0,-19.49699976098472,303.3157392838944,0.46040164816651336,30264.383184540082,228.92595154000003,2.7859899722103474e-12,2.3910077228048327e-09,-0.15962546717362425,0.0,0.0,0.0,0.0642795524371,87.50693171446322,19.49698309075203
2.1,6387259.501096801,0.002194600015171176,0.0,0.0,0.0031344825604356003,20.47107059012136,9122.501143622641,3.435902384730631e-10,0.0,9.78613807016376,-2.6727057799661606e-15,1.7453292315274926e-11,-0.00015313476167077964,0.0,0.0,0.0,-20.47107059012136,303.3243724546392,0.46050867705675314,30272.976789441716,228.93890231111112,3.0720341339787626e-12,3.009200749482422e-09,-0.17601459039709774,0.0,0.0,0.0,0.0674890404105,96.49147479620797,20.47105310934668
2.2,6387257.405292,0.002523204747949728,0.0,0.0,0.003439943030946,21.44502714571464,9120.40533772536,3.9503727309673824e-10,0.0,9.786144492696,-2.7999780950659773e-15,1.745329229527492e-11,-0.00016042692826476938,0.0,0.0,0.0,-21.44502714571464,303.3334264030032,0.46062092249130554,30281.9892430923,228.95248429722224,3.3721273674364614e-12,3.755423304341345e-09,-0.19320866613493692,0.0,0.0,0.0,0.070697870907,105.91729411032844,21.445008857736614
2.3,6387255.212103601,0.0028830641471830083,0.0,0.0,0.00375957824828592,22.418863939322403,9118.2121421016,4.513776342809846e-10,0.0,9.786151214145601,-2.927250495415794e-15,1.7453292274474924e-11,-0.00016771909975175824,0.0,0.0,0.0,-22.4188639393224,303.34290107778,0.4607383838439852,30291.42049521757,228.96669742333333,3.686283281125693e-12,4.648933272491978e-09,-0.21120847409811583,0.0,0.0,0.0,0.0739060125518,115.7848170953878,22.418844847678898
2.4,6387252.921531601,0.00327559544357376,0.0,0.0,0.00409338373844856,23.39257547707704,9115.921569034801,5.128332138720785e-10,0.0,9.78615823448208,-3.0545229848956117e-15,1.745329225267492e-11,-0.0001750112763537469,0.0,0.0,0.0,-23.39257547707704,303.3527964262392,0.46086106045768405,30301.270493149244,228.98154160944443,4.01451610249202e-12,5.710844822354637e-09,-0.23001482946016566,0.0,0.0,0.0,0.0771134339647,126.09449063029197,23.3925555854775
2.5,6387250.5335760005,0.0037022154083661604,0.0,0.0,0.00444135482668584,24.36615625935024,9113.53363129608,5.796258325696947e-10,0.0,9.786165553674959,-3.1817955673654284e-15,1.745329222987492e-11,-0.00018230345829273772,0.0,0.0,0.0,-24.36615625935024,303.363112393212,0.4609889516474638,30311.53918177713,228.99701677277778,4.356840676029411e-12,6.96420631556279e-09,-0.24962858274730382,0.0,0.0,0.0,0.0803201037592,136.84678097587573,24.36613557162318
2.6,6387248.048297761,0.00416434033323816,0.0,0.0,0.00480348663638064,25.33960078066152,9111.04834226616,6.519772367905496e-10,0.0,9.7861731716328,-3.3090682466752466e-15,1.7453292206274923e-11,-0.00018959564579072616,0.0,0.0,0.0,-25.33960078066152,303.3738489210912,0.4611220566979785,30322.226503740694,229.0131228266667,4.713272461318575e-12,8.434099626717394e-09,-0.27005061972989713,0.0,0.0,0.0,0.0835259905429,148.04217371217956,25.339579300742017
2.7,6387245.4656664,0.0046633860098616005,0.0,0.0,0.00517977408929064,26.31290352919056,9108.46571578296,7.301090955285542e-10,0.0,9.786181088386082,-3.436341026705063e-15,1.7453292181674924e-11,-0.0001968878390697163,0.0,0.0,0.0,-26.312903529190564,303.38500594952643,0.4612603748650213,30333.33239928536,229.02985968055555,5.0838275310652965e-12,1.0147721228101524e-08,-0.29128186130191513,0.0,0.0,0.0,0.0867310629168,159.68117367476881,26.312881261286776
2.8,6387242.7857124,0.005200767709828081,0.0,0.0,0.005570211904847281,27.28605898686864,9105.785766385441,8.142429972202021e-10,0.0,9.786189303843361,-3.56361391130488e-15,1.745329215607492e-11,-0.00020418003835070522,0.0,0.0,0.0,-27.286058986868643,303.39658341633844,0.46140390537449305,30344.856806214677,229.04722724166666,5.468522568760669e-12,1.2134476825995598e-08,-0.3133232633617177,0.0,0.0,0.0,0.0899352894755,171.76430488865915,27.28603593527967
2.9,6387240.00846624,0.005777900164166401,0.0,0.0,0.00597479460030816,28.25906162879952,9103.008509008801,9.046004465925056e-10,0.0,9.78619781797416,-3.690886904334697e-15,1.745329212967492e-11,-0.0002114722438546953,0.0,0.0,0.0,-28.259061628799525,303.4085812566048,0.461552647422403,30356.799659986053,229.06522541222225,5.867374866732776e-12,1.4426065308405324e-08,-0.3361758166861704,0.0,0.0,0.0,0.0931386388065,184.29211049936876,28.259037798003693
3.0,6387237.133927921,0.00639619754307336,0.0,0.0,0.00639351648993408,29.231905923289922,9100.133959258801,1.0014028615126761e-09,0.0,9.786206630748001,-3.818160009654514e-15,1.7453292102274923e-11,-0.00021876445580368538,0.0,0.0,0.0,-29.231905923289922,303.4209994029648,0.46170660017589876,30369.160893758653,229.08385409166667,6.280402323780233e-12,1.7056574578259905e-08,-0.359840546797198,0.0,0.0,0.0,0.0963410794902,197.26515269966168,29.23188131795118
3.1,6387234.16209744,0.007057073435553121,0.0,0.0,0.00682637168517192,30.20458633148376,9097.1621331984,1.1048715698343142e-09,0.0,9.786215742103922,-3.945433231114332e-15,1.745329207397492e-11,-0.00022605667441867431,0.0,0.0,0.0,-30.204586331483764,303.433837785924,0.46186576277172087,30381.94043820186,229.10311317555556,6.707623442681191e-12,2.0062566693886157e-08,-0.38431851382789256,0.0,0.0,0.0,0.0995425801,210.68401265581224,30.20456095630936
3.2,6387231.09300528,0.007761940829026081,0.0,0.0,0.0072733540937402405,31.177097307148802,9094.093047530641,1.2152278062278915e-09,0.0,9.78622515198096,-4.072706572584148e-15,1.745329204477492e-11,-0.00023334889992166445,0.0,0.0,0.0,-31.177097307148802,303.4470963338544,0.4620301343177487,30395.138221638917,229.1230025555556,7.149057327835771e-12,2.348317498916616e-08,-0.4096108123810604,0.0,0.0,0.0,0.102743109201,224.54929043147533,31.177071167114697
3.3,6387227.92668192,0.008512212088724401,0.0,0.0,0.00773445741962928,32.149433296128,9090.92671947672,1.3326927090182145e-09,0.0,9.786234860318162,-4.199980037903965e-15,1.745329201457492e-11,-0.00024064113253365293,0.0,0.0,0.0,-32.149433296128,303.4607749717752,0.46219971389093867,30408.754170046952,229.1435221205556,7.604723682730582e-12,2.736019249110522e-08,-0.43571857138420994,0.0,0.0,0.0,0.105942635353,238.8616049058111,32.14940639653265
3.4,6387224.663127361,0.00930929893739232,0.0,0.0,0.008209675162643761,33.121588737132,9087.66316680648,1.4574873170096705e-09,0.0,9.78624486711552,-4.327253630923783e-15,1.745329198347492e-11,-0.0002479333724746437,0.0,0.0,0.0,-33.121588737132,303.4748736231816,0.4623745005404169,30422.78820696119,229.164671755,8.074642807403233e-12,3.1738164898784174e-08,-0.4626429539409811,0.0,0.0,0.0,0.109141127103,253.6215936930465,33.12156108306346
3.5,6387221.302372079,0.01015461243468168,0.0,0.0,0.008699000618098082,34.0935580602456,9084.3024078384,1.589832566304492e-09,0.0,9.78625517225112,-4.4545273555036e-15,1.7453291951474922e-11,-0.0002552256199666322,0.0,0.0,0.0,-34.0935580602456,303.4893922088256,0.4625544932828406,30437.240253570726,229.18645134055558,8.55883559546203e-12,3.666448313572724e-08,-0.4903851571647817,0.0,0.0,0.0,0.112338552995,268.8299130572479,34.09352965702773
3.6,6387217.84441608,0.01104956295657792,0.0,0.0,0.0092024268762372,35.065335687324,9080.84446147008,1.7299492871140402e-09,0.0,9.78626577572496,-4.581801215483417e-15,1.7453291918474923e-11,-0.00026251787522962237,0.0,0.0,0.0,-35.065335687324,303.5043306473256,0.462739691107552,30452.11022862276,229.2088607538889,9.057323531594958e-12,4.218947936463215e-08,-0.5189464120440066,0.0,0.0,0.0,0.115534881562,284.4872378227854,35.065306540514946
3.7,6387214.28928984,0.011995560174856562,0.0,0.0,0.0097199468219928,36.0369160313832,9077.28934717824,1.878058200577071e-09,0.0,9.786276677445601,-4.709075214703235e-15,1.7453291884674924e-11,-0.0002698101384856114,0.0,0.0,0.0,-36.03691603138321,303.519688854252,0.4629300929729704,30467.39804851836,229.23189986944448,9.570128688589395e-12,4.8366518620557504e-08,-0.5483279832525432,0.0,0.0,0.0,0.118730081328,300.5942612876694,36.03688614697192
3.8,6387210.63705432,0.0129940130363568,0.0,0.0,0.010251553134099362,37.0082934975144,9073.63708492728,2.0343799155465822e-09,0.0,9.78628787735208,-4.836349357013051e-15,1.7453291849874922e-11,-0.0002771024099546016,0.0,0.0,0.0,-37.00829349751441,303.5354667433464,0.46312569780659246,30483.103627120938,229.2555685577778,1.009727372426281e-11,5.525210237517457e-08,-0.5785311689905253,0.0,0.0,0.0,0.12192412081,317.15169512683246,37.008262881048495
3.9,6387206.88764856,0.014046329742316082,0.0,0.0,0.0107972382856428,37.979462480750406,9069.887695291201,2.1991349253958613e-09,0.0,9.786299375383441,-4.963623646262868e-15,1.745329181407492e-11,-0.00028439468985558974,0.0,0.0,0.0,-37.979462480750406,303.5516642256072,0.4633265045075691,30499.226876091412,229.2798666855556,1.0638781878660415e-11,6.29059484289627e-08,-0.609557300806404,0.0,0.0,0.0,0.125116968514,334.1602692997204,37.97943113859752
4.0,6387203.0411640005,0.015153917727735122,0.0,0.0,0.01135699454268888,38.9504173675896,9066.0411994536,2.3725436047861366e-09,0.0,9.7863111715092,-5.090898086282686e-15,1.7453291777474924e-11,-0.00029168697841158015,0.0,0.0,0.0,-38.9504173675896,303.568281210204,0.4635325119441284,30515.767704505182,229.30479411555555,1.1194676970674487e-11,7.139110180230489e-08,-0.6414077434323638,0.0,0.0,0.0,0.12830859294,351.62073195165925,38.95038530590317
4.1,6387199.09757016,0.01631818364043816,0.0,0.0,0.01193081396434416,39.9211525350816,9062.0976190248,2.554826206467388e-09,0.0,9.78632326563792,-5.218172680902502e-15,1.7453291739874925e-11,-0.0002989792758405696,0.0,0.0,0.0,-39.9211525350816,303.58531760295364,0.4637437189551219,30532.726019139376,229.33035070777777,1.1764983395064082e-11,8.077402398331628e-08,-0.6740838945797043,0.0,0.0,0.0,0.131498962575,369.53384931139095,39.92111976009252
4.2,6387195.056928,0.017540533320438003,0.0,0.0,0.012518688401811121,40.89166234991281,9058.05697631616,2.7462028580843947e-09,0.0,9.786335657708639,-5.34544743397232e-15,1.745329170137492e-11,-0.00030627158236355885,0.0,0.0,0.0,-40.89166234991281,303.6027733081488,0.46396012434744766,30550.101724233475,229.35653631722224,1.2349726119029894e-11,9.112470063174448e-08,-0.7075871847609111,0.0,0.0,0.0,0.134688045898,387.90040558956764,40.891628868363895
4.3,6387190.91923752,0.018822371778935282,0.0,0.0,0.0131206094987844,41.86194116962561,9053.919294126721,2.9468935588257035e-09,0.0,9.786348347629922,-5.4727223493221364e-15,1.7453291661874918e-11,-0.0003135638982015483,0.0,0.0,0.0,-41.8619411696256,303.6206482270344,0.4641817269001732,30567.894721728717,229.38335079666666,1.2948930678878091e-11,1.0251672307350338e-07,-0.7419190771072789,0.0,0.0,0.0,0.13787581138,406.72120287341494,41.8619069881926
4.4,6387186.6845596805,0.02016510317743968,0.0,0.0,0.01373656868980488,42.8319833413992,9049.68459586512,3.1571181763343943e-09,0.0,9.78636133537128,-5.599997430771955e-15,1.7453291621474923e-11,-0.00032085622357253826,0.0,0.0,0.0,-42.8319833413992,303.638942258112,0.4644085253609279,30586.104911028662,229.41079399388892,1.3562623176550696e-11,1.1502741056760612e-07,-0.7770810671420525,0.0,0.0,0.0,0.141062227479,425.9970610161285,42.831948466765084
4.5,6387182.352864,0.02157013080686064,0.0,0.0,0.014366557201052161,43.8017832020496,9045.35290542768,3.3770964433395963e-09,0.0,9.78637462084128,-5.7272726821617715e-15,1.745329158017492e-11,-0.0003281485586975277,0.0,0.0,0.0,-43.8017832020496,303.657655298664,0.4646405184464188,30604.732189190774,229.43886575444446,1.4190830276244952e-11,1.2873788634317578e-07,-0.8130746826158419,0.0,0.0,0.0,0.144247262645,445.7288175272284,43.80174764103035
4.6,6387177.924211441,0.023038857066384723,0.0,0.0,0.015010566048363361,44.771335077115204,9040.9242473508,3.607047954479988e-09,0.0,9.78638820397896,-5.854548107311589e-15,1.7453291537974924e-11,-0.000335440903795517,0.0,0.0,0.0,-44.771335077115204,303.67678724262004,0.4648777048444912,30623.776450782705,229.46756591944444,1.4833579200498874e-11,1.4373320469803681e-07,-0.849901483261971,0.0,0.0,0.0,0.147430885317,465.91732745860395,44.7712988372884
4.7,6387173.3986019995,0.0245726834425968,0.0,0.0,0.01566858603836088,45.7406332826856,9036.398646719521,3.84719216297022e-09,0.0,9.7864020846624,-5.981823710041406e-15,1.745329149487492e-11,-0.0003427332590865066,0.0,0.0,0.0,-45.7406332826856,303.69633798116644,0.46512008321103715,30643.237587930238,229.4968943255556,1.5490897726677157e-11,1.6010242723856455e-07,-0.8875630606052031,0.0,0.0,0.0,0.150613063926,486.56346328672834,45.74059637108738
4.8,6387168.77609664,0.0261730104881136,0.0,0.0,0.01634060776628832,46.709672122658404,9031.776129198,4.0977483773545995e-09,0.0,9.7864162628916,-6.109099494181223e-15,1.7453291450774923e-11,-0.000350025624789497,0.0,0.0,0.0,-46.709672122658404,303.71630740396563,0.46536765217308756,30663.11549036514,229.52685080722225,1.6162814183234685e-11,1.7793875254401084e-07,-0.9260610377526751,0.0,0.0,0.0,0.153793766888,507.66811480013985,46.709634546811984
4.9,6387164.05666488,0.027841237800643924,0.0,0.0,0.01702662161710776,47.678445890568,9027.05672099904,4.358935758278234e-09,0.0,9.786430738514161,-6.23637546354104e-15,1.7453291405774918e-11,-0.00035731800112348506,0.0,0.0,0.0,-47.678445890568,303.73669539763205,0.46562041032571977,30683.410045281515,229.55743519444448,1.684935744566862e-11,1.9733958835713742e-07,-0.9653970691447972,0.0,0.0,0.0,0.156972962612,529.232188966335,47.678407657889245
5.0,6387159.24039816,0.02957876400168312,0.0,0.0,0.017726617763457603,48.646948867452004,9022.24044888408,4.630973315118544e-09,0.0,9.7864455114996,-6.3636516219508574e-15,1.7453291359774916e-11,-0.00036461038830747474,0.0,0.0,0.0,-48.646948867452,303.7575018463416,0.46587835623360363,30704.121137431586,229.58864731333333,1.755055693273744e-11,2.1840669050306668e-07,-1.0055728403506343,0.0,0.0,0.0,0.160150619496,551.2566098168559,48.646909986016894
5.1,6387154.327296481,0.031386986715360006,0.0,0.0,0.01844058616598784,49.61517532368,9017.327340285121,4.914079902704045e-09,0.0,9.786460581726,-6.490927973200675e-15,1.7453291312874923e-11,-0.0003719027865614648,0.0,0.0,0.0,-49.61517532368,303.7787266321368,0.4661414884320328,30725.248649221427,229.6204869866667,1.826644260227959e-11,2.4124624554213227e-07,-1.0465900678277018,0.0,0.0,0.0,0.163326705925,573.7423183184919,49.615135801471986
5.2,6387149.31739032,0.033267302546491205,0.0,0.0,0.01916851657290288,50.5831195177344,9012.317423091361,5.208474218050582e-09,0.0,9.78647594916288,-6.61820452112049e-15,1.7453291265074927e-11,-0.00037919519610245364,0.0,0.0,0.0,-50.5831195177344,303.80036963370725,0.4664098054243469,30746.79246051948,229.65295403333332,1.8997044947299075e-11,2.659689780089402e-07,-1.088450498699556,0.0,0.0,0.0,0.166501190274,596.6902722392159,50.58307936244215
5.3,6387144.21067968,0.035221107060312,0.0,0.0,0.01991039851843752,51.5507756949912,9007.210725832081,5.514374797010296e-09,0.0,9.786491613688321,-6.745481269510309e-15,1.7453291216374924e-11,-0.0003864876171494437,0.0,0.0,0.0,-51.5507756949912,303.8224307285232,0.4666833056834787,30768.752448608633,229.68604826833334,1.9742394991428238e-11,2.926902783089715e-07,-1.1311559104888984,0.0,0.0,0.0,0.169674040908,620.1014460332702,51.550734915282796
5.4,6387139.007225521,0.0372497947597992,0.0,0.0,0.02066622132361896,52.5181380898536,9002.0072775852,5.832000010920594e-09,0.0,9.78650757521088,-6.8727582221801256e-15,1.7453291166774922e-11,-0.00039378004992143346,0.0,0.0,0.0,-52.51813808985361,303.8449097903976,0.46696198765092256,30791.128488425653,229.7197695038889,2.0502524285013358e-11,3.215302811011395e-07,-1.174708110895167,0.0,0.0,0.0,0.172845226179,643.9768306687992,52.518096693848356
5.5,6387133.70705832,0.03935475906528,0.0,0.0,0.02143597406005656,53.4852008382744,8996.707108038241,6.161568063253112e-09,0.0,9.7865238336696,-7.000035382919943e-15,1.745329111617492e-11,-0.0004010724946364233,0.0,0.0,0.0,-53.4852008382744,303.8676094744368,0.4672628320594121,30815.73552083203,229.75412303555558,2.1278238174618955e-11,3.5262682207682193e-07,-1.2191532428825023,0.0,0.0,0.0,0.176014828386,668.3417218037285,53.485158834506116
5.6,6387128.31020856,0.041537392279684796,0.0,0.0,0.022219645460879282,54.451957771101604,8991.31024745784,6.50329698455227e-09,0.0,9.78654038894256,-7.127312755529758e-15,1.7453291064674927e-11,-0.00040836495151141174,0.0,0.0,0.0,-54.451957771101604,303.890600856648,0.4675797056933155,30841.918071546166,229.789106685,2.206936416234764e-11,3.8610849391743694e-07,-1.2644814230407102,0.0,0.0,0.0,0.179182778773,693.1907013318925,54.45191516804363
5.7,6387122.81667624,0.043799085570564,0.0,0.0,0.0230172241520484,55.41840299838,8985.816726689762,6.857404629206401e-09,0.0,9.78655724093832,-7.254590343819576e-15,1.7453291012174924e-11,-0.0004156574207664028,0.0,0.0,0.0,-55.41840299838001,303.9140040245736,0.46790225467360885,30868.5695633362,229.82471690722224,2.2875485656498437e-11,4.22103882988373e-07,-1.310668782430566,0.0,0.0,0.0,0.182348977159,718.5106842631991,55.41835980562042
5.8,6387117.22652232,0.0461412289527144,0.0,0.0,0.02382869855665032,56.3845306554528,8980.22657725032,7.224108673143924e-09,0.0,9.78657438959592,-7.381868151559396e-15,1.7453290958874924e-11,-0.0004229499026163914,0.0,0.0,0.0,-56.38453065545281,303.9378188441016,0.46823047715368993,30895.68984351199,229.86095349833334,2.3696641202424036e-11,4.607539664427762e-07,-1.3577175295362751,0.0,0.0,0.0,0.185513391867,744.3028812930893,56.38448688103157
5.9,6387111.53977728,0.048565211267757605,0.0,0.0,0.024654056877675364,57.3503348618136,8974.539831174001,7.603626610447405e-09,0.0,9.78659183479344,-7.509146182569211e-15,1.7453290904574924e-11,-0.00043024239728138146,0.0,0.0,0.0,-57.3503348618136,303.96204517929124,0.4685643712513952,30923.27875665421,229.89781625,2.4532869926014534e-11,5.02205120856446e-07,-1.4056299061058437,0.0,0.0,0.0,0.188675991199,770.5685213498061,57.35029051572548
6.0,6387105.7564716,0.0510724201621944,0.0,0.0,0.02549328709823112,58.315809722630405,8968.7565210744,7.996175749915252e-09,0.0,9.78660957643944,-7.636424440599029e-15,1.7453290849274924e-11,-0.00043753490497736974,0.0,0.0,0.0,-58.3158097226304,303.9866828902392,0.46890393505054645,30951.336144327084,229.9353049511111,2.5384211528493007e-11,5.466092154549978e-07,-1.4544081868485998,0.0,0.0,0.0,0.19183674344,797.3088514316024,58.31576481365948
6.1,6387099.87663576,0.0536642420639352,0.0,0.0,0.026346376980414723,59.28094932600241,8962.87668023568,8.401973211675786e-09,0.0,9.786627614412,-7.763702929458845e-15,1.745329079317492e-11,-0.00044482742592136,0.0,0.0,0.0,-59.2809493260024,304.01173183612804,0.46924916659940386,30979.86184536567,229.97341938611112,2.625070628085525e-11,5.941237422292388e-07,-1.5040546791282674,0.0,0.0,0.0,0.194995616855,824.525136448736,59.280903863871984
6.2,6387093.90030024,0.0563420621612688,0.0,0.0,0.027213314064520322,60.2457477447888,8956.9003423992,8.821235923714028e-09,0.0,9.786645948650161,-7.890981652918664e-15,1.745329073607492e-11,-0.00045211996033034895,0.0,0.0,0.0,-60.2457477447888,304.0371918724824,0.4696000639127284,31008.85569563643,230.01215933611113,2.7132395018398426e-11,6.449119391824884e-07,-1.5545717226382443,0.0,0.0,0.0,0.19815257969,852.2186590080084,60.24570173945369
6.3,6387087.82749552,0.0591072643812216,0.0,0.0,0.02809408566836856,61.210199036304,8950.82754206832,9.254180618381041e-09,0.0,9.786664579032001,-8.01826061475848e-15,1.7453290678074923e-11,-0.0004594125084223388,0.0,0.0,0.0,-61.210199036304004,304.0630628526936,0.4699566249697195,31038.317528276664,230.05152457722224,2.802931913511636e-11,6.991429093961272e-07,-1.6059616890679866,0.0,0.0,0.0,0.201307600171,880.3907192882763,61.210152497033064
6.4,6387081.65828256,0.061961231364259205,0.0,0.0,0.02898867888627024,62.17429723987921,8944.65831417312,9.70102382895564e-09,0.0,9.78668350546608,-8.145539818738296e-15,1.745329061917492e-11,-0.0004667050704123279,0.0,0.0,0.0,-62.1742972398792,304.0893446274096,0.4703188477145313,31068.247173311454,230.09151488333333,2.8941520577827842e-11,7.569917499790921e-07,-1.65822698180053,0.0,0.0,0.0,0.204460646505,909.0426348202017,62.17425017677636
6.5,6387075.39266136,0.06490534444599841,0.0,0.0,0.029897080589178723,63.138036380215205,8938.3926943752,1.016198188620608e-08,0.0,9.78670272783048,-8.272819268638115e-15,1.745329055927492e-11,-0.00047399764651631816,0.0,0.0,0.0,-63.138036380215205,304.1160370457544,0.4706867300562718,31098.64445808458,230.13213002333333,2.98690418405719e-11,8.186396581312738e-07,-1.7113700355655266,0.0,0.0,0.0,0.207611686881,938.1757403282483,63.137988803416526
6.6,6387069.030662401,0.0679409836306896,0.0,0.0,0.030819277422129605,64.10141046342,8932.0307188848,1.063727091479469e-08,0.0,9.78672224600328,-8.400098968227932e-15,1.745329049847492e-11,-0.00048129023695230825,0.0,0.0,0.0,-64.10141046342001,304.1431399525848,0.4710602698700342,31129.509206923387,230.17336976222222,3.081192595846922e-11,8.842740937393606e-07,-1.7653933160878381,0.0,0.0,0.0,0.210760689464,967.7913875247955,64.1013623831665
6.7,6387062.57237712,0.0710695275717096,0.0,0.0,0.0317552558057952,65.064413479752,8925.5724244608,1.112710682982211e-08,0.0,9.78674205989304,-8.527378921247747e-15,1.7453290436774923e-11,-0.0004885828419352965,0.0,0.0,0.0,-65.064413479752,304.1706531915384,0.4714394649938043,31160.841241234488,230.2152338616667,3.177021650189502e-11,9.540888689640221e-07,-1.8202993197761579,0.0,0.0,0.0,0.213907622403,997.8909449473452,65.0643649062915
6.8,6387056.0178055195,0.074292353546568,0.0,0.0,0.0327050019329184,66.027039402096,8919.017848532641,1.1631705333319189e-08,0.0,9.786762169377841,-8.654659131477567e-15,1.7453290374074923e-11,-0.0004958754616802866,0.0,0.0,0.0,-66.02703940209601,304.1985766029,0.47182431323206836,31192.640379551718,230.25772207944445,3.274395757029597e-11,1.028284302228445e-06,-1.8760905733315694,0.0,0.0,0.0,0.217052453826,1028.475797743062,66.0269903455656
6.9,6387049.366978081,0.077610837435876,0.0,0.0,0.0336685017698976,66.98928218565841,8912.367029139361,1.2151281910703965e-08,0.0,9.78678257436624,-8.781939602667383e-15,1.745329031047492e-11,-0.0005031680964032769,0.0,0.0,0.0,-66.9892821856584,304.2269100254304,0.4722148123522053,31224.906437488196,230.30083416888888,3.37331937860072e-11,1.1070673436937682e-06,-1.9327696334361688,0.0,0.0,0.0,0.220195151839,1059.5473474724624,66.98923265730069
7.0,6387042.6199557595,0.081026353699572,0.0,0.0,0.0346457410551408,67.9511357679672,8905.62000486864,1.2686051827238636e-08,0.0,9.78680327473632,-8.9092203385572e-15,1.745329024597492e-11,-0.0005104607463202658,0.0,0.0,0.0,-67.9511357679672,304.255653293928,0.47261096008757914,31257.639227688465,230.34456987944446,3.47379702880248e-11,1.1906516932792995e-06,-1.990339086352727,0.0,0.0,0.0,0.223335684529,1091.1070119466237,67.9510857782598
7.1,6387035.776769041,0.0845402753540616,0.0,0.0,0.035636705297846405,68.912594068872,8898.77681494824,1.3236230124416745e-08,0.0,9.78682427033568,-9.036501342907018e-15,1.7453290180574925e-11,-0.0005177534116452553,0.0,0.0,0.0,-68.91259406887201,304.28480624166724,0.4730127541344465,31290.838559828495,230.38892895722222,3.5758332725466886e-11,1.2792579453231295e-06,-2.0488015475955197,0.0,0.0,0.0,0.226474019963,1123.1562249877807,68.91254362925817
7.2,6387028.8374484,0.0881539739499672,0.0,0.0,0.0366413797773936,69.8736509899344,8891.83749921552,1.3802031616489962e-08,0.0,9.786845561072882,-9.163782619446833e-15,1.745329011417492e-11,-0.0005250460925932455,0.0,0.0,0.0,-69.8736509899344,304.31436869856964,0.4734201921545338,31324.504240663566,230.4339111438889,3.679432725139062e-11,1.373113727166477e-06,-2.108159661529988,0.0,0.0,0.0,0.229610126187,1155.696436233019,69.87360011156218
7.3,6387021.8020548,0.0918688195474392,0.0,0.0,0.0376597495421232,70.8343004153424,8884.80209811744,1.438367088676799e-08,0.0,9.786867146826001,-9.291064171926652e-15,1.7453290046874927e-11,-0.0005323387893792347,0.0,0.0,0.0,-70.83430041534241,304.3443404930328,0.4738332717729753,31358.63607402825,230.47951617722222,3.7846000515897434e-11,1.472453839228188e-06,-2.1684161010124323,0.0,0.0,0.0,0.232743971226,1188.7291109619036,70.83424910894712
7.4,6387014.67061872,0.0956861806945152,0.0,0.0,0.038691799410252,71.7945362100816,8877.670652710562,1.498136228414536e-08,0.0,9.7868890275036,-9.41834600406647e-15,1.745328997867492e-11,-0.0005396315022172229,0.0,0.0,0.0,-71.7945362100816,304.37472144949203,0.47425199057934436,31393.233860740675,230.52574379111113,3.891339965968314e-11,1.5775203578876515e-06,-2.229573567007466,0.0,0.0,0.0,0.235875523086,1222.2557298379277,71.79448448718274
7.5,6387007.443170641,0.0996074244033456,0.0,0.0,0.0397375139662152,72.75435222024001,8870.443204630561,1.559531991934898e-08,0.0,9.78691120289232,-9.545628119606285e-15,1.7453289909574924e-11,-0.0005469242313212139,0.0,0.0,0.0,-72.75435222024001,304.4055113905536,0.4746763461271377,31428.297398554627,230.57259371555557,3.999657230732108e-11,1.6885628194988335e-06,-2.291634788201019,0.0,0.0,0.0,0.23900474975,1256.277788731354,72.7543000924899
7.6,6387000.11974104,0.103633916126724,0.0,0.0,0.0407968775618856,73.7137422742272,8863.119796214161,1.6225757661464914e-08,0.0,9.78693367296168,-9.672910522276101e-15,1.7453289839474924e-11,-0.0005542169769062022,0.0,0.0,0.0,-73.7137422742272,304.4367101363856,0.47510633593274487,31463.82648239896,230.62006567666668,4.1095566560189476e-11,1.8058383321384993e-06,-2.35460252059555,0.0,0.0,0.0,0.242131619182,1290.7967984893905,73.71368975359839
7.7,6386992.700421361,0.1077670197349224,0.0,0.0,0.0418698743153544,74.672700180336,8855.700470346721,1.687288913413358e-08,0.0,9.7869564375288,-9.80019321578592e-15,1.7453289768474923e-11,-0.0005615097391841916,0.0,0.0,0.0,-74.67270018033601,304.46831750380323,0.4755419574780248,31499.820904138178,230.66815939555556,4.2210430989799085e-11,1.929611733215602e-06,-2.418479547140846,0.0,0.0,0.0,0.245256099324,1325.8142847255176,74.6726472786602
7.8,6386985.1852116,0.1120080974913072,0.0,0.0,0.042956488108797604,75.6312197282664,8848.18527055368,1.7536927712111435e-08,0.0,9.78697949647176,-9.927476203865736e-15,1.7453289696574924e-11,-0.0005688025183691819,0.0,0.0,0.0,-75.6312197282664,304.5003333077928,0.47598320820669865,31536.280452524585,230.71687459055556,4.334121463058712e-11,2.060155717873647e-06,-2.4832686773025396,0.0,0.0,0.0,0.248378158098,1361.3317875992375,75.63116645730737
7.9,6386977.5742032,0.116358510029784,0.0,0.0,0.0440567025893904,76.589294688516,8840.57424100056,1.8218086517204378e-08,0.0,9.78700284966864,-1.0054759490185554e-14,1.7453289623674925e-11,-0.0005760953146751713,0.0,0.0,0.0,-76.589294688516,304.532757359988,0.4764300855274418,31573.20491343766,230.76621097555557,4.4487966972755536e-11,2.1977509996471143e-06,-2.5489727466706724,0.0,0.0,0.0,0.251497763406,1397.3508615814621,76.58924106065199
8.0,6386969.86739616,0.1208196163310232,0.0,0.0,0.0451705011674784,77.5469188114656,8832.86742640152,1.8916578415038883e-08,0.0,9.78702649696704,-1.0182043078585369e-14,1.7453289549874917e-11,-0.0005833881283131601,0.0,0.0,0.0,-77.5469188114656,304.56558946958404,0.476882586810276,31610.594069692554,230.81616826055554,4.5650737955954634e-11,2.342686436408402e-06,-2.6155946165326602,0.0,0.0,0.0,0.254614883127,1433.873075234264,77.54686483871384
8.1,6386962.06482096,0.125392773698076,0.0,0.0,0.046297867015053604,78.5040858285984,8825.06487220224,1.9632616011326972e-08,0.0,9.787050438245041,-1.0309326972585187e-14,1.7453289475174924e-11,-0.0005906809594981498,0.0,0.0,0.0,-78.5040858285984,304.59882944364244,0.4773407093912082,31648.447700992187,230.86674615055557,4.682957796003071e-11,2.4952592032613063e-06,-2.6831371734774048,0.0,0.0,0.0,0.25772948512,1470.9000109954143,78.50403152402171
8.2,6386954.166569041,0.1300793377322952,0.0,0.0,0.047438783066364,79.4607894506712,8817.16662442752,2.0366411647886912e-08,0.0,9.78707467338072,-1.0436611175985008e-14,1.7453289399474925e-11,-0.0005979738084401403,0.0,0.0,0.0,-79.46078945067121,304.6324770855672,0.47780445056707654,31686.76558407092,230.9179443477778,4.802453779924338e-11,2.6557749160770327e-06,-2.7516033289549173,0.0,0.0,0.0,0.260841537224,1508.4332649198295,79.46073482646881
8.3,6386946.17267088,0.1348806623101704,0.0,0.0,0.048593232015475205,80.4170233689336,8809.17272974224,2.1118177398628903e-08,0.0,9.7870992021912,-1.0563895692484822e-14,1.7453289322974926e-11,-0.0006052666753521297,0.0,0.0,0.0,-80.41702336893361,304.66653219693364,0.4782738075981272,31725.54749264664,230.96976255,4.923566871443671e-11,2.82454780526397e-06,-2.8209960188448426,0.0,0.0,0.0,0.263951007256,1546.4744464593236,80.41696843794278
8.4,6386938.08318744,0.1397980995592488,0.0,0.0,0.04976119631718481,81.3727812545184,8801.08323535992,2.1888125066937127e-08,0.0,9.787124024585042,-1.0691180525784638e-14,1.745328924547492e-11,-0.0006125595604471197,0.0,0.0,0.0,-81.3727812545184,304.700994575964,0.4787487777090452,31764.793197229275,231.02220044999999,5.0463022365922103e-11,3.0019008460071755e-06,-2.891318203033877,0.0,0.0,0.0,0.267057863013,1585.025178237569,81.37272602923912
8.5,6386929.8981492,0.1448329998331416,0.0,0.0,0.050942658183364804,82.32805675752721,8792.89818928656,2.267646618060828e-08,0.0,9.787149140379361,-1.0818465679484456e-14,1.7453289166974915e-11,-0.0006198524639351086,0.0,0.0,0.0,-82.32805675752721,304.73586401905203,0.4792293580858623,31804.502465360165,231.07525773722224,5.1706650824136943e-11,3.188165937994319e-06,-2.9625728649753955,0.0,0.0,0.0,0.270162072271,1624.0870957819677,82.32800125160442
8.6,6386921.61758664,0.1499867116880544,0.0,0.0,0.0521375995847904,83.2828435082496,8784.617640046321,2.3483411989059026e-08,0.0,9.78717454945224,-1.0945751157384273e-14,1.7453289087674922e-11,-0.0006271453860270979,0.0,0.0,0.0,-83.2828435082496,304.7711403186288,0.47971554587698734,31844.675061468435,231.1289340977778,5.2966606563861977e-11,3.3836840430258647e-06,-3.0347630112268367,0.0,0.0,0.0,0.273263602784,1663.6618472986156,83.28278773467862
8.7,6386913.241591201,0.1552605818574888,0.0,0.0,0.053346002248701604,84.237135115944,8776.24163683392,2.430917345896271e-08,0.0,9.787200251620801,-1.107303696298409e-14,1.7453289007374923e-11,-0.0006344383269350874,0.0,0.0,0.0,-84.237135115944,304.80682326499203,0.4802073381947529,31885.31074691887,231.18322921166668,5.424294245488005e-11,3.5888053431582497e-06,-3.107891671031568,0.0,0.0,0.0,0.276362422288,1703.7510934137458,84.23707908803836
8.8,6386904.77019336,0.16065595522938242,0.0,0.0,0.054567847657279206,85.1909251691424,8767.77022948416,2.5153961270758656e-08,0.0,9.787226246793601,-1.1200323100183908e-14,1.7453288926074924e-11,-0.0006417312868700768,0.0,0.0,0.0,-85.1909251691424,304.842912648744,0.4807047321128381,31926.409279868287,231.23814275722222,5.553571175530373e-11,3.8038894132370538e-06,-3.181961895825136,0.0,0.0,0.0,0.279458498496,1744.3565069343313,85.19086890016806
8.9,6386896.203423601,0.16617417481989602,0.0,0.0,0.055803117049473605,86.14420723534562,8759.20346844144,2.601798581463796e-08,0.0,9.787252534787761,-1.1327609572483726e-14,1.7453288843974922e-11,-0.000649024266041066,0.0,0.0,0.0,-86.14420723534562,304.87940824860004,0.48120772466781464,31967.97041550492,231.29367440555558,5.6844968102234075e-11,4.029305359236692e-06,-3.2569767588215797,0.0,0.0,0.0,0.2825517991,1785.4797726038923,86.14415073897439
9.0,6386887.54137336,0.1718165817502488,0.0,0.0,0.057051791416128005,87.0969748607184,8750.54140488168,2.6901457186703717e-08,0.0,9.7872791154204,-1.1454896383583543e-14,1.7453288760874916e-11,-0.0006563172646590565,0.0,0.0,0.0,-87.09697486071839,304.916309854248,0.4817163128570856,32009.993905809024,231.34982382666666,5.817076550553313e-11,4.265431996162589e-06,-3.332939354501885,0.0,0.0,0.0,0.285642291775,1827.1225868152167,87.09691815075738
9.1,6386878.784042641,0.1775845152205056,0.0,0.0,0.0583138515027216,88.0492215703944,8741.78409055992,2.7804585185480396e-08,0.0,9.7873059885696,-1.1582183537183359e-14,1.7453288676874922e-11,-0.0006636102829340464,0.0,0.0,0.0,-88.04922157039441,304.953617240136,0.48223049364249276,32052.479499600762,231.40659068388888,5.95131583362585e-11,4.512658015210901e-06,-3.409852798173611,0.0,0.0,0.0,0.288729944172,1869.2866573901092,88.04916466072483
9.2,6386869.931522881,0.18347931248610722,0.0,0.0,0.0595892778060168,89.0009408678664,8732.93157787128,2.872757930772504e-08,0.0,9.78733315408296,-1.1709471036883175e-14,1.7453288591974917e-11,-0.0006709033210750353,0.0,0.0,0.0,-89.00094086786642,304.99133018376006,0.4827502639456785,32095.426942635968,231.46397463833335,6.087220132310485e-11,4.771382128220064e-06,-3.487720225486037,0.0,0.0,0.0,0.291814723923,1911.9737032921123,89.00088377299235
9.3,6386860.983875041,0.1895023088322672,0.0,0.0,0.0608780505737544,89.95212623559601,8723.98391991192,2.9670648744413e-08,0.0,9.787360611808081,-1.1836758886382994e-14,1.745328850607492e-11,-0.0006781963792910246,0.0,0.0,0.0,-89.952126235596,305.029448459568,0.48327562065117785,32138.83597736672,231.52197534611113,6.224794953950398e-11,5.042013261488705e-06,-3.5665447919453013,0.0,0.0,0.0,0.294896598641,1955.1854543775262,89.95206896955449
9.4,6386851.9411296,0.1956548375486736,0.0,0.0,0.0621801498037392,90.90277113348961,8714.94117035712,3.0634002377421816e-08,0.0,9.787388361531601,-1.196404708918281e-14,1.7453288419274924e-11,-0.0006854894577910141,0.0,0.0,0.0,-90.90277113348961,305.06797183896003,0.4838065606043571,32182.706343276528,231.58059245777778,6.364045839739739e-11,5.324970705987637e-06,-3.6463296724428917,0.0,0.0,0.0,0.297975535917,1998.9236511272813,90.90271371028466
9.5,6386842.8033475205,0.2019382299054096,0.0,0.0,0.0634955552432304,91.8528690004224,8705.80338361368,3.161784877499337e-08,0.0,9.78741640316208,-1.2091335649082629e-14,1.7453288331574922e-11,-0.0006927825567840035,0.0,0.0,0.0,-91.8528690004224,305.10690009333604,0.4843430806129598,32227.037776545174,231.63982562222222,6.504978363878456e-11,5.620684289812967e-06,-3.727078060744101,0.0,0.0,0.0,0.301051503323,2043.1900443692318,91.8528114344785
9.6,6386833.57055928,0.208353815126436,0.0,0.0,0.0648242463874176,92.8024132527144,8696.570614698,3.262239618806867e-08,0.0,9.78744473648616,-1.2218624569582447e-14,1.745328824297492e-11,-0.000700075676477994,0.0,0.0,0.0,-92.8024132527144,305.146232981904,0.48488517744607623,32271.830010144444,231.69967448222224,6.64759813268267e-11,5.929594561675232e-06,-3.8087931690076196,0.0,0.0,0.0,0.304124468412,2087.986395014814,92.8023555587962
9.7,6386824.242886799,0.21490292036581682,0.0,0.0,0.06616620247850641,93.7513972850448,8687.24291932752,3.3647852546622704e-08,0.0,9.787473361320961,-1.2345913854382264e-14,1.7453288153374924e-11,-0.0007073688170809837,0.0,0.0,0.0,-93.7513972850448,305.18597026996804,0.48543284783362767,32317.08277393392,231.76013867611113,6.791910783561556e-11,6.252152961444219e-06,-3.8914782272828834,0.0,0.0,0.0,0.307194398717,2133.3144737717657,93.75133947777674
9.8,6386814.8202996,0.22158687068089683,0.0,0.0,0.06752140250510881,94.6998144692328,8677.82035382928,3.469442545547559e-08,0.0,9.78750227754456,-1.247320350708208e-14,1.745328806287492e-11,-0.0007146619788009719,0.0,0.0,0.0,-94.6998144692328,305.22611171978406,0.48598608846636676,32362.79579446944,231.82121783944447,6.937921984439099e-11,6.588821963559632e-06,-3.9751364829985305,0.0,0.0,0.0,0.31026126175,2179.1760608999357,94.69975656435255
9.9,6386805.3029196,0.228406989007308,0.0,0.0,0.068889825201024,95.64765815606641,8668.30297523136,3.5762322189929294e-08,0.0,9.78753148497408,-1.2600493531381896e-14,1.745328797137492e-11,-0.0007219551618439619,0.0,0.0,0.0,-95.64765815606641,305.26665708446404,0.48654489599742345,32408.968795194633,231.8829116027778,7.085637432553062e-11,6.940075310918576e-06,-4.059771200450856,0.0,0.0,0.0,0.313325025007,2225.5729458809114,95.64760016727715
10.0,6386795.690807761,0.23536459613367122,0.0,0.0,0.070271449044324,96.5949216722544,8658.690841232401,3.685174969245149e-08,0.0,9.78756098342664,-1.2727783930681713e-14,1.745328787907492e-11,-0.0007292483664189513,0.0,0.0,0.0,-96.59492167225442,305.30760612321603,0.4871092670392129,32455.601496249386,231.94521959166667,7.235062853698788e-11,7.306398147032235e-06,-4.145385660296715,0.0,0.0,0.0,0.316385655961,2272.506927183405,96.59486361575519
10.1,6386785.983964081,0.24246101067599282,0.0,0.0,0.0716662522558296,97.5415983228648,8648.98401014064,3.7962914568312256e-08,0.0,9.78759077274984,-1.2855074708681531e-14,1.7453287785774923e-11,-0.0007365415927299414,0.0,0.0,0.0,-97.5415983228648,305.348958583056,0.4876791981660119,32502.693614517724,232.00814142777782,7.386204001384046e-11,7.688287236969024e-06,-4.231983159028628,0.0,0.0,0.0,0.31944312207,2319.9798119424545,97.54154021378355
10.2,6386776.18251048,0.2496975490505376,0.0,0.0,0.0730742127985008,98.48768139071521,8639.18254102632,3.9096023082093387e-08,0.0,9.78762085273032,-1.2982365869081347e-14,1.7453287691574923e-11,-0.00074383484098493,0.0,0.0,0.0,-98.48768139071521,305.39071421404805,0.4882546859124135,32550.2448636757,232.07167672833336,7.539066655761447e-11,8.08625110440431e-06,-4.319567008436554,0.0,0.0,0.0,0.322497390772,2367.9934156960844,98.48762324426693
10.3,6386766.286446961,0.25707552545066403,0.0,0.0,0.0744953083777416,99.43316413515362,8629.28649356928,4.0251281152452425e-08,0.0,9.7876512231852,-1.3109657415281166e-14,1.7453287596374923e-11,-0.0007511281113899201,0.0,0.0,0.0,-99.4331641351536,305.432872763208,0.4888357267738415,32598.254954095628,232.13582510722225,7.693656622827775e-11,8.500810235082062e-06,-4.408140535100786,0.0,0.0,0.0,0.325548429486,2416.549562074082,99.43310596696006
10.4,6386756.2958954405,0.2645962518169536,0.0,0.0,0.0759295164380472,100.378039792668,8619.29592811992,4.142889434933011e-08,0.0,9.787681883962081,-1.3236949350980984e-14,1.745328750037492e-11,-0.0007584214041499093,0.0,0.0,0.0,-100.37803979266802,305.475433971456,0.48942231720448987,32646.72359294184,232.2005861727778,7.849979733356401e-11,8.932497285925748e-06,-4.497707079835927,0.0,0.0,0.0,0.328596205612,2465.6500825155067,100.37798161846766
10.5,6386746.210855921,0.27226103781557043,0.0,0.0,0.0773768141633088,101.3223015768864,8609.21090572968,4.262906788941257e-08,0.0,9.78771283487808,-1.3364241679780799e-14,1.7453287403274924e-11,-0.0007657147194698987,0.0,0.0,0.0,-101.32230157688642,305.51839757971203,0.4900144536209295,32695.65048397918,232.26595952888889,8.00804184209662e-11,9.381857225869036e-06,-4.588269997170448,0.0,0.0,0.0,0.331640686535,2515.2968159766156,101.3222434127589
10.6,6386736.031450321,0.2800711908077808,0.0,0.0,0.07883717847650881,102.2659426788816,8599.03148815104,4.385200663194247e-08,0.0,9.787744075750322,-1.3491534405180616e-14,1.7453287305374922e-11,-0.0007730080575558878,0.0,0.0,0.0,-102.2659426788816,305.5617633228,0.49061213239850127,32745.03532781238,232.33194477555557,8.167848826750543e-11,9.849447566585047e-06,-4.67983265475952,0.0,0.0,0.0,0.334681839621,2565.491608619647,102.26588454065303
10.7,6386725.75767864,0.28802801582709364,0.0,0.0,0.08031058603636801,103.2089562662568,8588.75773777656,4.5097915074879374e-08,0.0,9.787775606365441,-1.3618827530680431e-14,1.745328720647492e-11,-0.0007803014186108777,0.0,0.0,0.0,-103.20895626625682,305.605530938592,0.49121534987337706,32794.87782159881,232.3985415088889,8.329406587083462e-11,1.033583854682066e-05,-4.772398432895714,0.0,0.0,0.0,0.337719632217,2616.236313515961,103.20889816981929
10.8,6386715.3896628,0.29613281555091364,0.0,0.0,0.0817970132388696,104.1513354828408,8578.38971769984,4.636699735036176e-08,0.0,9.78780742654056,-1.374612105998025e-14,1.745328710677492e-11,-0.0007875948028398677,0.0,0.0,0.0,-104.1513354828408,305.64970015886405,0.4918241023399833,32845.17765928786,232.4657493188889,8.492721043722831e-11,1.0841613304943022e-05,-4.865970723881796,0.0,0.0,0.0,0.340754031657,2667.532790349179,104.15127744477692
10.9,6386704.927433281,0.3043868902746336,0.0,0.0,0.0832964362157352,105.093073450212,8567.92749171552,4.7659457221216505e-08,0.0,9.7878395360928,-1.3873414996580066e-14,1.7453287005974922e-11,-0.0007948882104468571,0.0,0.0,0.0,-105.09307345021202,305.694270706248,0.4924383860546082,32895.9345314294,232.5335677927778,8.657798137535509e-11,1.1367368078041958e-05,-4.960552931585915,0.0,0.0,0.0,0.343785005253,2719.3829050991785,105.0930154868952
11.0,6386694.37108152,0.312791537886336,0.0,0.0,0.0848088308316816,106.03416326586961,8557.371124258321,4.8975498076420914e-08,0.0,9.78787193483928,-1.4000709343979886e-14,1.7453286904374922e-11,-0.0008021816416338466,0.0,0.0,0.0,-106.03416326586961,305.73924230947205,0.4930581972312789,32947.148125221705,232.60199651222223,8.824643828337783e-11,1.1913712409661913e-05,-5.05614847068539,0.0,0.0,0.0,0.346812520306,2771.788529735657,106.03410539336451
11.1,6386683.7206379995,0.32134805383296006,0.0,0.0,0.08633417268564002,106.97459800384321,8546.72068052496,5.031532292656493e-08,0.0,9.787904622566641,-1.41280041057797e-14,1.745328680177492e-11,-0.0008094750966058361,0.0,0.0,0.0,-106.9745980038432,305.78461469116803,0.4936835320443385,32998.81812460718,232.67103505555556,8.993264094094677e-11,1.2481269363716934e-05,-5.152760766355348,0.0,0.0,0.0,0.349836544097,2824.75154190691,106.97454023925422
11.2,6386672.97619416,0.330057731109024,0.0,0.0,0.0878724371083176,107.9143707149976,8535.97622638272,5.1679134400709515e-08,0.0,9.787937599092,-1.4255299285479517e-14,1.7453286698274924e-11,-0.0008167685755638261,0.0,0.0,0.0,-107.9143707149976,305.83038757092,0.49431438662689975,33050.94421008088,232.74068299500001,9.163664929763431e-11,1.3070675666299967e-05,-5.2503932534680375,0.0,0.0,0.0,0.352857043893,2878.2738246190356,107.91431307545474
11.3,6386662.137780481,0.33892186021334403,0.0,0.0,0.0894235991618928,108.85347442611841,8525.13782833896,5.306713474149974e-08,0.0,9.787970864202,-1.4382594886479335e-14,1.7453286593874924e-11,-0.0008240620787108159,0.0,0.0,0.0,-108.85347442611842,305.87656066526404,0.4949507570718758,33103.52605869043,232.81093989944446,9.335852346448323e-11,1.368258196924e-05,-5.349049376103529,0.0,0.0,0.0,0.355873986945,2932.357265929497,108.85341692816321
11.4,6386651.20551888,0.34794172913013605,0.0,0.0,0.09098763363940561,109.7919021411312,8514.20555366304,5.447952580080146e-08,0.0,9.78800441768328,-1.4509890912479155e-14,1.7453286488474924e-11,-0.0008313556062488047,0.0,0.0,0.0,-109.7919021411312,305.923133687688,0.49559263943043413,33156.56334427553,232.88180533333332,9.509832370288623e-11,1.4317653001341587e-05,-5.4487325869714365,0.0,0.0,0.0,0.358887340489,2987.0037586215403,109.79184480197013
11.5,6386640.17943984,0.357118623301584,0.0,0.0,0.09256451506201441,110.7296468395776,8503.179470294881,5.5916509036036106e-08,0.0,9.78803825935296,-1.4637187366978967e-14,1.745328638217492e-11,-0.0008386491583787934,0.0,0.0,0.0,-110.72964683957761,305.97010634863204,0.4962400297125119,33210.055737132694,232.95327885611113,9.685611041435495e-11,1.4976567854627915e-05,-5.549446346788178,0.0,0.0,0.0,0.361897071748,3042.215199883396,110.72958967625823
11.6,6386629.059604321,0.366453825600408,0.0,0.0,0.09415421768021522,111.6667014775296,8492.05964690592,5.737828550546832e-08,0.0,9.78807238902816,-1.4764484253378786e-14,1.7453286274974923e-11,-0.0008459427353017843,0.0,0.0,0.0,-111.66670147752961,306.01747835244004,0.49689292388784684,33264.00290420685,233.02536002222223,9.86319441293995e-11,1.5660020059337816e-05,-5.6511941237876675,0.0,0.0,0.0,0.364903147927,3097.9934909826907,111.66664450726024
11.7,6386617.84610376,0.375948616296336,0.0,0.0,0.0957567154714032,112.60305898698002,8480.84615286864,5.886505586436622e-08,0.0,9.788106806434559,-1.4891781575178603e-14,1.745328616677492e-11,-0.0008532363372187735,0.0,0.0,0.0,-112.60305898698002,306.065249406504,0.4975513178839155,33318.40450904342,233.09804838222223,1.0042588549952162e-10,1.6368717929152254e-05,-5.753979393009591,0.0,0.0,0.0,0.367905536222,3154.3405369312895,112.60300222754452
11.8,6386606.538999121,0.38560427303781597,0.0,0.0,0.0973719821389584,113.53871227645202,8469.5390581956,6.037702036028899e-08,0.0,9.788141511419761,-1.501907933597842e-14,1.7453286057774923e-11,-0.0008605299643297631,0.0,0.0,0.0,-113.53871227645202,306.11341921516805,0.4982152075864487,33373.26021159681,233.1713434827778,1.0223799528431481e-10,1.7103384698644365e-05,-5.8578056356766695,0.0,0.0,0.0,0.370904203812,3211.2582461740703,113.53865574550052
11.9,6386595.138381841,0.39542207082763203,0.0,0.0,0.09899999111255041,114.4736542303896,8458.13843372232,6.191437882942173e-08,0.0,9.788176503739919,-1.5146377539178237e-14,1.7453285947774923e-11,-0.0008678236168347522,0.0,0.0,0.0,-114.47365423038961,306.16198747363205,0.4988845888399472,33428.569668613425,233.2452448638889,1.0406833434167828e-10,1.786475870836996e-05,-5.962676338749827,0.0,0.0,0.0,0.373899117863,3268.7485302394007,114.47359794533884
12.0,6386583.64431288,0.405403281980232,0.0,0.0,0.1006407155453952,115.4078777091576,8446.6443509244,6.347733069168853e-08,0.0,9.78821178321216,-1.5273676188178053e-14,1.745328583677492e-11,-0.0008751172949337417,0.0,0.0,0.0,-115.4078777091576,306.210953874048,0.49955945744716573,33484.33253320081,233.31975206277778,1.05916963617586e-10,1.8653593714641685e-05,-6.068594994127513,0.0,0.0,0.0,0.376890245532,3326.813303413551,115.40782168812005
12.1,6386572.056822721,0.415549176100392,0.0,0.0,0.10229412831456,116.34137554934641,8435.05688197848,6.506607494656365e-08,0.0,9.788247349562159,-1.5400975286677872e-14,1.7453285724874922e-11,-0.0008824109988247322,0.0,0.0,0.0,-116.34137554934641,306.260318117712,0.5002398091680829,33540.54845511486,233.39486461166666,1.0778394413452141e-10,1.9470659015191273e-05,-6.175565098200881,0.0,0.0,0.0,0.379877553959,3385.4544824055324,116.3413198102115
12.2,6386560.37606376,0.42586102006797605,0.0,0.0,0.103960202019744,117.27414056346721,8423.37609985368,6.668081016888269e-08,0.0,9.78828320263752,-1.552827483787769e-14,1.745328561217492e-11,-0.0008897047287067208,0.0,0.0,0.0,-117.27414056346721,306.310079884584,0.5009256397214467,33597.21708052046,233.47058203722224,1.0966933698213605e-10,2.0316739686571132e-05,-6.2835901510975924,0.0,0.0,0.0,0.382861010276,3444.673986002359,117.27408512431604
12.3,6386548.602036,0.436340077992216,0.0,0.0,0.10563890898114481,118.2061655402568,8411.60207812872,6.832173450482846e-08,0.0,9.78831934216392,-1.5655574845377508e-14,1.7453285498374918e-11,-0.0008969984847777099,0.0,0.0,0.0,-118.2061655402568,306.360238866816,0.5016169447832289,33654.33805213512,233.54690386222225,1.1157320330479459e-10,2.1192636840238475e-05,-6.392673656103544,0.0,0.0,0.0,0.385840581603,3504.4737347243113,118.20611041895769
12.4,6386536.734830881,0.44698761119037606,0.0,0.0,0.1073302212406776,119.13744324406801,8399.734891235761,6.998904566704396e-08,0.0,9.78835576795848,-1.5782875312477324e-14,1.7453285383774925e-11,-0.0009042922672347002,0.0,0.0,0.0,-119.13744324406801,306.410794744368,0.5023137199871404,33711.91100918109,233.62382960500003,1.1349560429089912e-10,2.2099167810003364e-05,-6.502819119173568,0.0,0.0,0.0,0.388816235048,3564.855650489773,119.13738845951045
12.5,6386524.774570321,0.45780487816336807,0.0,0.0,0.109034110559232,120.06796641547922,8387.77461424704,7.168294092991999e-08,0.0,9.78839247977736,-1.5910176242877145e-14,1.7453285268174922e-11,-0.0009115860762766887,0.0,0.0,0.0,-120.06796641547922,306.461747200248,0.5030159609241149,33769.93558743324,233.70135877833334,1.1543660116310301e-10,2.3037166366966783e-05,-6.614030047952816,0.0,0.0,0.0,0.39178793771,3625.8216562704924,120.0679119856262
12.6,6386512.7212848,0.468793134565272,0.0,0.0,0.1107505484160624,120.9977277706848,8375.72132293584,7.340361712645363e-08,0.0,9.78842947737672,-1.6037477639776958e-14,1.7453285151674928e-11,-0.0009188799120996795,0.0,0.0,0.0,-120.9977277706848,306.513095911368,0.5037236631428262,33828.41141902753,233.77949089111112,1.173962551654111e-10,2.400748297409237e-05,-6.726309951598839,0.0,0.0,0.0,0.394755656678,3687.373675727695,120.99767371483563
12.7,6386500.575035281,0.47995363317590406,0.0,0.0,0.11247950600878799,121.9267200021048,8363.5750938984,7.51512706428376e-08,0.0,9.7884667605432,-1.6164779506576776e-14,1.7453285034174923e-11,-0.0009261737749006679,0.0,0.0,0.0,-121.92672000210482,306.564840548544,0.5044368221491704,33887.33813255681,233.85822544666667,1.1937462755383846e-10,2.5010984978591988e-05,-6.839662339758493,0.0,0.0,0.0,0.397719359032,3749.51363287692,121.92666633843284
12.8,6386488.335974161,0.491287623867288,0.0,0.0,0.1142209542506496,122.85493577808,8351.33600440152,7.692609741427163e-08,0.0,9.788504329063441,-1.629208184687659e-14,1.7453284915874922e-11,-0.0009334676648736575,0.0,0.0,0.0,-122.85493577808,306.616980782592,0.505155433404722,33946.71535316652,233.93756194500003,1.2137177958351044e-10,2.604855687099016e-05,-6.954090722123115,0.0,0.0,0.0,0.400679011845,3812.243451733705,122.85488252559085
12.9,6386476.00410144,0.502796353579272,0.0,0.0,0.11597486377172882,123.7823677425672,8339.00413244352,7.872829292042446e-08,0.0,9.78854218266312,-1.641938466397641e-14,1.7453284796574924e-11,-0.0009407615822156474,0.0,0.0,0.0,-123.7823677425672,306.669516284328,0.5058794923298247,34006.542702363215,234.01749987944444,1.233877724984319e-10,2.7121100496681496e-05,-7.069598607672324,0.0,0.0,0.0,0.403634582179,3875.5650559497,123.78231492078933
13.0,6386463.57950856,0.514481066295144,0.0,0.0,0.11774120491681442,124.7090085160536,8326.57955678472,8.055805218159418e-08,0.0,9.78858032115936,-1.654668796127623e-14,1.745328467637492e-11,-0.0009480555271216378,0.0,0.0,0.0,-124.7090085160536,306.72244671847204,0.5066089943010151,34066.8197981103,234.09803873944443,1.254226675203666e-10,2.8229535252230688e-05,-7.186189504184722,0.0,0.0,0.0,0.40658603709,3939.4803684583494,124.70895614330023
13.1,6386451.06231744,0.526343003002008,0.0,0.0,0.1195199477435736,125.6348506943376,8314.062356947441,8.24155697534722e-08,0.0,9.78861874424736,-1.6673991742176042e-14,1.7453284555174916e-11,-0.0009553494997856257,0.0,0.0,0.0,-125.63485069433762,306.775771743648,0.5073439346505074,34127.546254732304,234.17917801055555,1.274765258359373e-10,2.9374798403064528e-05,-7.303866917392729,0.0,0.0,0.0,0.409533343627,4003.9913111205806,125.63479878975993
