time,eiPosition_m_X,eiPosition_m_Y,eiPosition_m_Z,gePosition_m_X,gePosition_m_Y,gePosition_m_Z,eiVelocity_m_s_X,eiVelocity_m_s_Y,eiVelocity_m_s_Z,feVelocity_m_s_X,feVelocity_m_s_Y,feVelocity_m_s_Z,altitudeMsl_m,longitude_rad,latitude_rad,localGravity_m_s2,eulerAngle_rad_Yaw,eulerAngle_rad_Pitch,eulerAngle_rad_Roll,bodyAngularRateWrtEi_rad_s_Roll,bodyAngularRateWrtEi_rad_s_Pitch,bodyAngularRateWrtEi_rad_s_Yaw,altitudeRateWrtMsl_m_s,speedOfSound_m_s,airDensity_kg_m3,ambientPressure_Pa,ambientTemperature_K,aero_bodyForce_N_X,aero_bodyForce_N_Y,aero_bodyForce_N_Z,aero_bodyMoment_Nm_L,aero_bodyMoment_Nm_M,aero_bodyMoment_Nm_N,mach,dynamicPressure_Pa,trueAirspeed_m_s,feVelocity_m_s_Z_1
0.0,6387281.000000001,0.0,0.0,6387281.000000001,0.0,0.0,0.0,465.76787589315,0.0,0.0,0.0,0.0,9144.0,0.0,0.0,9.786072158144812,0.0,-0.0,0.0,0.0,0.0,1.1726615295546747e-20,-0.0,303.22990953514415,0.4590410846190738,30148.630867738,228.7993739345824,0.0,0.0,0.0,0.0,0.0,0.0,0.0,0.0,0.0,0.0
0.0099999997764825,6387280.999510697,4.657678758828739,2.9961204671330365e-20,6387280.999512397,2.5321927381583006e-10,2.996120467133037e-20,-0.09786072075655843,465.7678758588967,5.992240896530451e-18,2.0797128178226908e-20,7.254066258997309e-08,0.09752107746510712,9143.999512396906,3.964429838536316e-17,4.690760383583813e-27,9.78607215964136,-5.357399992820183e-46,1.469367938527762e-39,-7.292115000396445e-07,0.0,0.0,1.1726615295546747e-20,-0.09752107746510713,303.22991162934574,0.4590411116038136,30148.633056457864,228.79937709490395,3.315214552690746e-22,-5.827146530942687e-14,-3.981789473900349e-06,-0.0,0.0,-0.0,0.0003216077166143805,0.0021828232469827476,0.09752099231517311,0.09752107746510712
0.0199999995529651,6387280.9980427865,9.315357516946722,1.1984481516048835e-19,6387280.998049579,1.9315620761517495e-09,1.1984481516048835e-19,-0.1957214360970644,465.7678757518549,1.198448086271303e-17,4.159365765249876e-20,2.8588121901052697e-07,0.195042149514058,9143.998049578537,3.024075622697e-16,1.8763040986780476e-26,9.78607216413103,-1.7143679979646198e-44,2.35098870164395e-38,-1.4584230003024082e-06,0.0,0.0,1.1726615295546747e-20,-0.195042149514058,303.2299179119894,0.4590411925585431,30148.639622659015,228.79938657592746,1.1672257209846765e-21,-1.1655035650290807e-13,-1.592715981991162e-05,-0.0,0.0,0.0,0.0006432153750211,0.008731293684680461,0.19504198463034628,0.195042149514058
0.0299999993294477,6387280.995596268,13.97303627363748,2.696508190939397e-19,6387280.995611553,6.454442518588622e-09,2.696508190939397e-19,-0.29358214058375526,465.767875573452,1.797671989230547e-17,6.238991515381084e-20,6.414484897732647e-07,0.29256321070898667,9143.99561155284,1.0105148846626936e-15,4.221683988526668e-26,9.786072171613794,-1.0286207990405127e-43,9.403954806572676e-38,-2.1876345010105156e-06,0.0,0.0,1.1726615295546747e-20,-0.2925632107089866,303.2299283830406,0.45904132748284443,30148.650566308097,228.79940237760138,4.682937661536426e-21,-1.7480771508082763e-13,-3.583611680562528e-05,-0.0,0.0,0.0,0.0009648230043239892,0.01964541566777733,0.2925629616138935,0.29256321070898667
0.0399999991059303,6387280.992171143,18.630715028187407,4.793792065170739e-19,6387280.992198317,1.524413564766292e-08,4.793792065170741e-19,-0.39144282878971665,465.7678753236879,2.3968957230435876e-17,8.318547811926139e-20,1.1392427523093236e-06,0.39008425562287546,9143.99219831755,2.3866392704943963e-15,7.505215554202283e-26,9.786072182089669,2.117582368133499e-22,3.0883308363710865e-28,-2.916846002386639e-06,0.0,0.0,1.1726615295546747e-20,-0.39008425562287546,303.22994304250886,0.4590415163768796,30148.665887419167,228.79942449994056,5.6636809152249535e-21,-2.3306632036008054e-13,-6.370867004369642e-05,-0.0,0.0,-0.0,0.0012864305172115,0.034925194247707,0.39008390793418884,0.39008425562287546
0.050000000745058,6387280.987767413,23.288393779882885,7.490299577135168e-19,6387280.987809867,2.9722905139806246e-08,7.490299577135168e-19,-0.48930349528802664,465.7678750025627,2.996119242631177e-17,1.0398022806584869e-19,1.779264076226213e-06,0.4876052788286985,9143.987809866983,4.6534519455982054e-15,1.172689849003107e-25,9.78607219555866,-1.3714943998371083e-42,7.523163845250139e-37,-3.6460575046534517e-06,0.0,0.0,1.1726615295546747e-20,-0.4876052788286986,303.2299618904179,0.4590417592410137,30148.6855860231,228.79945294298167,5.870871746003474e-21,-2.913614761360834e-13,-9.954483299190529e-05,-0.0,0.0,0.0,0.0016080379718914,0.0545706336049639,0.48760485425448424,0.4876052788286985
0.0599999986588954,6387280.982385075,27.946072528010298,1.078603035805857e-18,6387280.982446212,5.131302333438726e-08,1.0786030358058573e-18,-0.5871641346517524,465.7678746100764,3.595342287516959e-17,1.247718925401508e-19,2.56151183818334e-06,0.5851262748994199,9143.982446212498,8.033625493446712e-15,1.6886732222523455e-25,9.786072212020743,-4.235164736261367e-22,-9.264992507255412e-28,-4.375269008033624e-06,0.0,0.0,1.1726615295546747e-20,-0.58512627489942,303.2299849267182,0.4590420560746848,30148.709662075955,228.79948770665126,1.3821296826047243e-20,-3.49582951192941e-13,-0.00014334462295291517,-0.0,0.0,-0.0,0.0019296451937407,0.07858174628104181,0.5851257392482758,0.5851262748994199
0.0700000002980232,6387280.9760241285,32.603751271856055,1.4680984153075314e-18,6387280.976107344,8.143674957636904e-08,1.4680984153075316e-18,-0.6850247414539485,465.7678741462288,4.194565132726406e-17,1.4556355410779079e-19,3.4859863851759192e-06,0.6826472384079905,9143.976107343875,1.2749830464793448e-14,2.2984716357385733e-25,9.786072231475941,0.0,0.0,-5.104480512749832e-06,0.0,0.0,1.1726615295546747e-20,-0.6826472384079905,303.2300121514527,0.45904240687853853,30148.738115632088,228.79952879101555,2.8430603953725816e-20,-4.0781211170358477e-13,-0.00019510806107470138,-0.0,0.0,-0.0,0.0022512522991746,0.10695854621093019,0.6826466549053193,0.6826472384079905
0.0799999982118606,6387280.968684581,37.26143001070652,1.917516046297502e-18,6387280.968793266,1.2151634321071473e-07,1.9175160462975026e-18,-0.7828853102676528,465.7678736110199,4.793787490888258e-17,1.6635267136811055e-19,4.552687301947567e-06,0.7801681639273441,9143.96879326679,1.902473741243177e-14,3.002085011863466e-25,9.786072253924244,0.0,0.0,-5.833692019024738e-06,0.0,0.0,1.1726615295546747e-20,-0.780168163927344,303.23004356459586,0.4590428116523554,30148.77094667606,228.7995761960378,3.8571213917074175e-20,-4.659572959445358e-13,-0.0002548351723500646,-0.0,0.0,-0.0,0.0025728591717779,0.13970104454262328,0.780167509235859,0.7801681639273441
0.0900000035762786,6387280.960366421,41.91910874384809,2.4268559022973363e-18,6387280.960503979,1.729740852397299e-07,2.4268559022973363e-18,-0.8807458356658857,465.7678730044501,5.3930097072647784e-17,1.8714302925673727e-19,5.7616147277567305e-06,0.8776890460303982,9143.960503978973,2.7081020282233157e-14,3.7995133098166535e-25,9.786072279365651,-1.9749519413917597e-41,6.018531076177708e-36,-6.562903527081022e-06,0.0,0.0,1.1726615295546747e-20,-0.8776890460303981,303.23007916615626,0.45904327039637083,30148.808155229686,228.79962992173273,7.478047373478224e-22,-5.240852876968675e-13,-0.0003225259856170088,-0.0,0.0,0.0,0.0028944655787199,0.17680925242410567,0.8776883022398949,0.8776890460303982
0.1000000014901161,6387280.9510696605,46.576787470567176,2.996117892176844e-18,6387280.951239483,2.3723226099718887e-07,2.996117892176844e-18,-0.9786063122216456,465.767872326519,5.992230582208219e-17,2.079229636105196e-19,7.11276824752075e-06,0.9752098792900478,9143.951239483828,3.7141353700928526e-14,4.690756387654176e-25,9.78607230780016,0.0,0.0,-7.2921150371413565e-06,0.0,0.0,1.1726615295546747e-20,-0.975209879290048,303.23011895611774,0.4590437831105206,30148.849741290833,228.79968996807827,3.471280601908195e-20,-5.820849871901113e-13,-0.00039818053355838794,-0.0,0.0,-0.0,0.0032160719856619,0.21828320329935522,0.9752090339174272,0.9752098792900478
0.1099999994039535,6387280.940794296,51.23446619015012,3.625301979450198e-18,6387280.940999782,3.157130561930899e-07,3.6253019794502e-18,-1.076466734507908,465.7678715772268,6.591450885962707e-17,2.287005091865166e-19,8.606147792761292e-06,1.0727306582791643,9143.940999781358,4.9428396701096465e-14,5.675814189069853e-25,9.786072339227763,-9.655320622006926e-41,2.407412430464683e-35,-8.0213265494284e-06,0.0,0.0,1.1726615295546747e-20,-1.0727306582791643,303.23016293447876,0.4590443497949436,30148.895704874227,228.79975633507468,3.510892397675335e-20,-6.399620991469265e-13,-0.0004817988527021688,-0.0,0.0,0.0,0.0035376779269427,0.264122897168372,1.0727297042684556,1.0727306582791643
0.1199999973177909,6387280.929540327,55.892144901883356,4.314408091614535e-18,6387280.929784872,4.098387951444238e-07,4.314408091614535e-18,-1.1743270970976212,465.7678707565734,7.190671323189506e-17,2.494830449147139e-19,1.0241753017872914e-05,1.1702513775705925,9143.929784870426,6.416483001918432e-14,6.754686601454759e-25,9.786072373648473,-1.0533077054513498e-40,2.4074124304610024e-35,-8.750538064164834e-06,0.0,0.0,1.1726615295546747e-20,-1.1702513775705927,303.2302111012424,0.4590449704498558,30148.94604600119,228.79982902272917,4.0375599641019603e-20,-6.976075012738864e-13,-0.0005733809834214244,-0.0,0.0,0.0,0.0038592836353927,0.3143283451791454,1.1702503746194841,1.1702513775705925
0.1299999952316284,6387280.917307755,60.54982360505324,5.063436167085443e-18,6387280.917594754,5.21031698212937e-07,5.063436167085443e-18,-1.2721873945637054,465.76786986455886,7.78988982791963e-17,2.702502434244374e-19,1.2019583923854503e-05,1.2677720317371501,9143.917594754443,8.157331812002734e-14,7.927373529379969e-25,9.786072411062268,-1.1410833490235043e-40,2.4074124304570012e-35,-9.479749581573324e-06,0.0,0.0,1.1726615295546747e-20,-1.2677720317371501,303.2302634563921,0.45904564507523693,30149.000764674245,228.79990803101978,9.106609110305226e-20,-7.550749550861122e-13,-0.0006729269699339408,-0.0,0.0,-0.0,0.0041808886453509,0.3688996142196263,1.2677709223175049,1.2677720317371501
0.1400000005960464,6387280.904096577,65.20750229894617,5.8723860743139755e-18,6387280.90442943,6.507140723897464e-07,5.8723860743139755e-18,-1.3700476214790485,465.7678689011831,8.389107264859045e-17,2.910110840965029e-19,1.3939640095970833e-05,1.3652926153516198,9143.904429429997,1.0187653903533371e-13,9.193874767965214e-25,9.786072451469169,-8.470329472432652e-22,-4.323663205244724e-27,-1.0208961101876542e-05,0.0,0.0,1.1726615295546747e-20,-1.3652926153516198,303.2303199999402,0.4590463736714583,30149.05986092804,228.7999933599687,7.888027546325546e-20,-8.122193084978376e-13,-0.0007804368603029915,-0.0,0.0,0.0,0.0045024938881397,0.4278367265858032,1.3652914700155259,1.3652926153516198
0.1500000059604644,6387280.889906801,69.86518098284856,6.741257725201623e-18,6387280.890288901,8.003081033848503e-07,6.741257725201626e-18,-1.4679077724165037,465.76786786644624,8.988326296115337e-17,3.1179252032985144e-19,1.600192139678751e-05,1.462813122986753,9143.890288900495,1.2529715181332066e-13,1.0554190180442675e-24,9.786072494869156,1.694065894483265e-21,9.264992788928568e-27,-1.0938172625297158e-05,0.0,0.0,1.1726615295546747e-20,-1.462813122986753,303.23038073187007,0.4590471562385284,30149.123334768166,228.80008500955395,1.2021416362655213e-19,-8.690392898100982e-13,-0.000895910706436309,-0.0,0.0,-0.0,0.0048240981996059,0.49113965998168274,1.4628118950605393,1.462813122986753
0.1599999964237213,6387280.874738423,74.52285965604673,7.67005111490967e-18,6387280.875173167,9.712360635376173e-07,7.67005111490967e-18,-1.565767841948889,465.76786676034806,9.587540956107939e-17,3.3253522864436654e-19,1.8206427203832536e-05,1.5603335492152626,9143.875173167075,1.5205782906975824e-13,1.2008319760482937e-24,9.786072541262232,-5.617641127747453e-40,9.629649721772322e-35,-1.166738415205784e-05,0.0,0.0,1.1726615295546747e-20,-1.5603335492152628,303.2304456521741,0.45904799277659647,30149.191186211996,228.80018297976818,1.2854826763409582e-20,-9.252393073650296e-13,-0.0010193485640867211,-0.0,0.0,0.0,0.0051457020454108,0.5588085035912044,1.5603321974525453,1.5603335492152626
0.1700000017881393,6387280.858591445,79.18053831782714,8.658765891839503e-18,6387280.859082232,1.164920216524479e-06,8.658765891839505e-18,-1.6636278246489806,465.7678655828888,1.0186755312995503e-16,3.532802229544781e-19,2.0553157518452222e-05,1.6578538886098226,9143.859082232006,1.8238124206923669e-13,1.3556262958951294e-24,9.786072590648391,-5.968743708251673e-40,9.629649721751203e-35,-1.239659568238125e-05,0.0,0.0,1.1726615295546747e-20,-1.6578538886098226,303.23051476084015,0.45904888328576304,30149.263415273308,228.80028727059684,1.437742606384705e-19,-9.809033191841356e-13,-0.0011507504928518135,-0.0,0.0,0.0,0.0054673054255545,0.6308432128223962,1.6578524998445512,1.6578538886098226
0.1800000071525573,6387280.841465866,83.83821696747614,9.707402134498269e-18,6387280.84201609,1.3827827913701185e-06,9.707402134498272e-18,-1.7614877150895147,465.76786433406835,1.078597041610406e-16,3.7403832885084942e-19,2.3042112272776248e-05,1.7553741357430648,9143.84201608961,2.164900566566688e-13,1.519801990017745e-24,9.786072643027648,8.470329472360586e-22,5.5589958746872565e-27,-1.3125807216490064e-05,0.0,0.0,1.1726615295546747e-20,-1.7553741357430648,303.2305880578896,0.4590498277665836,30149.34002200313,228.8003978820767,1.0654957502471523e-19,-1.0361160571675422e-12,-0.0012901165561752395,-0.0,0.0,-0.0,0.0057889083400368,0.7072439214511645,1.7553726795835496,1.7553741357430648
0.1899999976158142,6387280.82336169,88.49589560428015,1.0815959881632977e-17,6387280.823974748,1.6262460430880311e-06,1.081595988163298e-17,-1.8593475078431818,465.76786301388677,1.1385185232815205e-16,3.9479955248266027e-19,2.5673290567379202e-05,1.8528942851875765,9143.823974747836,2.5460694275158433e-13,1.693359064632813e-24,9.786072698399979,-1.3341897749665424e-39,1.925929944341023e-34,-1.3855018754606953e-05,0.0,0.0,1.1726615295546747e-20,-1.8528942851875767,303.23066554328534,0.45905082621887444,30149.421006392913,228.8005148141565,7.488081518568146e-20,-1.0903607002701726e-12,-0.001437446821343657,-0.0,0.0,-0.0,0.0061105107888579,0.7880105848855375,1.8528927366695405,1.8528942851875765
0.2000000029802322,6387280.804278918,93.15357422752552,1.1984439007693884e-17,6387280.804958206,1.8967321660511517e-06,1.1984439007693887e-17,-1.957207197482624,465.767861622344,1.1984397589391639e-16,4.1554248881308683e-19,2.844669219595746e-05,1.9504143315158957,9143.804958205552,2.9695456078567734e-13,1.876297500243111e-24,9.786072756765387,-1.4044102922247712e-39,1.9259299443360302e-34,-1.4584230296954573e-05,0.0,0.0,1.1726615295546747e-20,-1.950414331515896,303.23074721702926,0.4590518786429678,30149.506368476323,228.8006380668436,2.3010866360435627e-19,-1.1435973947228636e-12,-0.0015927413594898504,-0.0,0.0,-0.0,0.0064321127720177,0.8731433369014122,1.9504126711025238,1.9504143315158957
0.209999993443489,6387280.784217549,97.81125283649868,1.3212839412707975e-17,6387280.784966462,2.1956634585876602e-06,1.321283941270798e-17,-2.0550667785804344,465.76786015944003,1.2583608395555334e-16,4.362765674010189e-19,3.136231695229428e-05,2.0479342693005136,9143.784966462752,3.4375558747245345e-13,2.068617281364335e-24,9.786072818123872,-1.4746308099116615e-39,1.9259299443307821e-34,-1.53134418437556e-05,0.0,0.0,1.1726615295546747e-20,-2.0479342693005136,303.23083307911793,0.45905298503914954,30149.596108283615,228.8007676401382,2.417761768389327e-19,-1.1958137343449038e-12,-0.001756000245591404,-0.0,0.0,-0.0,0.0067537138238549,0.9626420883148634,2.0479324828824996,2.0479342693005136
0.2199999988079071,6387280.763177582,102.46893143048598,1.4501160798176674e-17,6387280.763999518,2.5244620804187437e-06,1.4501160798176674e-17,-2.1529262457091534,465.7678586251748,1.3182817802340549e-16,4.57003630931413e-19,3.442016442234927e-05,2.1454540931138646,9143.763999518305,3.952326778317481e-13,2.270318361439383e-24,9.786072882475441,-3.089702656097287e-39,3.8518598886505546e-34,-1.604265339523269e-05,0.0,0.0,1.1726615295546747e-20,-2.145454093113865,303.23092312955293,0.4590541454077813,30149.690225851566,228.80090353404762,2.7511579646399066e-19,-1.2468412308020947e-12,-0.0019272235584710843,-0.0,0.0,-0.0,0.0070753144100308,1.056507017493746,2.1454522946624754,2.1454540931138646
0.2300000041723251,6387280.741159021,107.12661000877381,1.5849403134113816e-17,6387280.742057377,2.8845503298725824e-06,1.5849403134113813e-17,-2.2507855934412655,465.7678570195485,1.3782024950815417e-16,4.77715422431361e-19,3.762023398425842e-05,2.242973797528332,9143.742057376752,4.5160850859100527e-13,2.481400735958357e-24,9.786072949820076,-3.2301436933143026e-39,3.8518598886390327e-34,-1.677186495160852e-05,0.0,0.0,1.1726615295546747e-20,-2.242973797528332,303.2310173683108,0.4590553597489266,30149.788721193123,228.80104574854272,2.194084738707081e-19,-1.2963160981542194e-12,-0.0021064113807952468,-0.0,0.0,-0.0,0.0073969140648841,1.1547380352541354,2.242971738483429,2.242973797528332
0.2399999946355819,6387280.71816187,111.78428857064858,1.725756603701334e-17,6387280.719140043,3.277350349344488e-06,1.725756603701334e-17,-2.3486448163491973,465.767855342561,1.4381234173489974e-16,4.984555993507801e-19,4.09625252934585e-05,2.3404933771162373,9143.719140042635,5.1310573207212e-13,2.7018643450724723e-24,9.786073020157762,-3.370584731517237e-39,3.8518598886270005e-34,-1.750107651310417e-05,0.0,0.0,1.1726615295546747e-20,-2.3404933771162373,303.2311157953685,0.4590566280626625,30149.8915943227,228.80119428359419,1.7758214646622638e-19,-1.3441154337397338e-12,-0.0022935637990747675,-0.0,0.0,0.0,0.0077185132540762,1.2573353199638952,2.3404914276103974,2.3404933771162373
0.25,6387280.694186127,116.44196711539668,1.8725649559798058e-17,6387280.695247513,3.70428438518502e-06,1.872564955979806e-17,-2.4465039090053153,465.7678535942123,1.4980435995491543e-16,5.191297453157443e-19,4.444703786686621e-05,2.4380128264498455,9143.695247512544,5.799470168801585e-13,2.931709197269344e-24,9.786073093488515,-3.5110257707489484e-39,3.851859888614455e-34,-1.8230288079946715e-05,0.0,0.0,1.1726615295546747e-20,-2.4380128264498455,303.2312184107365,0.45905795034952057,30149.99884529195,228.80134913922407,2.93803310452601e-19,-1.389992585704287e-12,-0.0024886809036673576,-0.0,0.0,0.0,0.0080401115119457,1.3642987824390866,2.438010626125336,2.4380128264498455
0.2599999904632568,6387280.669231793,121.0996456423045,2.0253653456639135e-17,6387280.670379787,4.166774649092986e-06,2.0253653456639135e-17,-2.5443628659819213,465.7678517745024,1.5579639158941588e-16,5.398256138979164e-19,4.807377129078855e-05,2.5355321401013518,9143.670379785348,6.523550262032295e-13,3.1709352542722784e-24,9.786073169812331,-3.6514668110523066e-39,3.8518598886013976e-34,-1.8959499652353376e-05,0.0,0.0,1.1726615295546747e-20,-2.5355321401013518,303.23132521441556,0.45905932660992216,30150.110474143916,228.80151031544003,1.602066039227963e-19,-1.4337728073561922e-12,-0.002691762788775189,-0.0,0.0,0.0,0.0083617093041539,1.4756286010475785,2.5355300699462893,2.5355321401013518
0.270000010728836,6387280.643298868,125.75732415065839,2.1841577565837845e-17,6387280.644536868,4.666243352767197e-06,2.184157756583785e-17,-2.642221681851254,465.76784988343127,1.6178841248115007e-16,5.605193802072092e-19,5.184272501301239e-05,2.6330513126428943,9143.644536867858,7.305524232379394e-13,3.419542490984683e-24,9.786073249129197,0.0,0.0,-1.968871123055104e-05,0.0,0.0,1.1726615295546747e-20,-2.6330513126428943,303.2314362063721,0.4590607568438627,30150.22648088749,228.80167781219797,3.7252225060332673e-20,-1.475141428380489e-12,-0.0029028095524426395,-0.0,0.0,0.0,0.0086833061650395,1.5913247757893758,2.6330490231552126,2.6330513126428943
0.2800000011920929,6387280.616387356,130.41500263974478,2.3489421348262425e-17,6387280.617718759,5.204112655928839e-06,2.3489421348262425e-17,-2.74008035118548,465.76784792099886,1.677803563652457e-16,5.811451117365284e-19,5.5753898481411416e-05,2.730570338646535,9143.617718758938,8.147618630520585e-13,3.677530823227204e-24,9.786073331439114,-7.864697790090833e-39,7.703719777147492e-34,-2.0417922814761358e-05,0.0,0.0,1.1726615295546747e-20,-2.7305703386465345,303.23155138660655,0.4590622410517922,30150.346865568794,228.80185162950548,2.7792196717961044e-19,-1.5137772551565184e-12,-0.003121821296561206,-0.0,0.0,-0.0,0.0090049020946025,1.7113873958484034,2.730567976364136,2.730570338646535
0.2899999916553497,6387280.588497262,135.07268110885002,2.519718488832009e-17,6387280.589925463,5.781804839580218e-06,2.519718488832009e-17,-2.837938868556698,465.76784588720545,1.737723237018723e-16,6.01803601025047e-19,5.980729107464274e-05,2.8280892126842665,9143.589925463131,9.05206019710446e-13,3.944900264451062e-24,9.786073416742068,-8.145579877641791e-39,7.703719777118303e-34,-2.1147134405205996e-05,0.0,0.0,1.1726615295546747e-20,-2.8280892126842674,303.2316707550947,0.4590637792338615,30150.471628210016,228.8020317673332,4.070837025227916e-19,-1.5492737396059342e-12,-0.003348798126865045,-0.0,0.0,0.0,0.009326497092843,1.8358164612246612,2.8280866842670442,2.8280892126842665
0.3000000119209289,6387280.559628582,139.7303595572605,2.6964868410064148e-17,6387280.561156975,6.4007420114648995e-06,2.696486841006415e-17,-2.9357972285369303,465.76784378205076,1.7976438968460136e-16,6.225703740179931e-19,6.400290251796774e-05,2.925607929328013,9143.561156975895,1.002107540161894e-12,4.221650849979229e-24,9.78607350503807,-8.426461967678959e-39,7.703719777088093e-34,-2.1876346002106603e-05,0.0,0.0,1.1726615295546747e-20,-2.925607929328014,303.23179431185116,0.45906537139073794,30150.600768875658,228.80221822571082,3.9578751270559994e-19,-1.5816374236918099e-12,-0.00358374015293653,-0.0,0.0,-0.0,0.0096480911597609,1.964611971918154,2.9256053921699525,2.925607929328013
0.3100000023841858,6387280.529781318,144.38803798426267,2.8792472000021924e-17,6387280.5314133065,7.062346365955819e-06,2.8792472000021924e-17,-3.0336554256981243,465.7678416055349,1.8575637599713556e-16,6.432674467970642e-19,6.834073170509265e-05,3.0231264831496136,9143.53141330518,1.1056890849278453e-12,4.5077825936120346e-24,9.786073596327103,1.6940658944003903e-21,1.9147652853038004e-26,-2.2605557605688336e-05,0.0,0.0,1.1726615295546747e-20,-3.0231264831496145,303.23192205683694,0.45906701752241297,30150.734287575702,228.80241100458696,4.2541899028895295e-19,-1.6098706196158039e-12,-0.0038266474881975764,-0.0,0.0,0.0,0.0099696842953562,2.097774106296742,3.0231238547668458,3.0231264831496136
0.3199999928474426,6387280.498955473,149.04571638914285,3.067999490232226e-17,6387280.500694446,7.768040097425911e-06,3.067999490232226e-17,-3.1315134546121484,465.7678393576577,1.917482274826184e-16,6.6383999488917175e-19,7.282077863866655e-05,3.120644868720836,9143.50069444644,1.2161733145399429e-12,4.803295377271537e-24,9.786073690609172,1.6940658943932958e-21,1.976531988296975e-26,-2.333476921617284e-05,0.0,0.0,1.1726615295546747e-20,-3.120644868720836,303.23205399006616,0.4590687176295836,30150.872184377768,228.80261010399116,5.1938554435025546e-20,-1.6343403463459326e-12,-0.004077520249920075,-0.0,0.0,0.0,0.010291276499629,2.2353030427282934,3.120642072057724,3.120644868720836
0.3300000131130218,6387280.467151049,153.70339477118748,3.26274359834758e-17,6387280.469000407,8.519245434899859e-06,3.2627435983475805e-17,-3.229371309850788,465.76783703841943,1.9774006015850533e-16,6.844043681383954e-19,7.744304255908692e-05,3.218163080613361,9143.469000406489,1.3337828949654846e-12,5.108189023768032e-24,9.786073787884263,1.6940658943859767e-21,2.0382986148562302e-26,-2.4063980833781785e-05,0.0,0.0,1.1726615295546747e-20,-3.2181630806133614,303.23219011150434,0.459070471712333,30151.01445930001,228.80281552387953,4.0193944652301363e-19,-1.654486602529727e-12,-0.004336358559215271,-0.0,0.0,-0.0,0.0106128677725791,2.3771986028449397,3.2181602893486025,3.218163080613361
0.3400000035762787,6387280.434368048,158.3610731296829,3.463479610037738e-17,6387280.436331186,9.317384399491857e-06,3.463479610037739e-17,-3.3272289859857453,465.76783464781994,2.0373197563356299e-16,7.050625077051764e-19,8.220752242962397e-05,3.3156811133987873,9143.436331186465,1.4587404596319406e-12,5.422463667537259e-24,9.786073888152368,3.388131788756864e-21,4.2001306381496214e-26,-2.4793192458740308e-05,0.0,0.0,1.1726615295546747e-20,-3.3156811133987873,303.23233042114106,0.4590722797710736,30151.161112387686,228.8030272642449,5.937455284059065e-19,-1.6693434430491765e-12,-0.004603162541041423,-0.0,0.0,0.0,0.0109344581142067,2.5234609650145496,3.3156782613334657,3.3156811133987873
0.3499999940395355,6387280.400606469,163.0187514639155,3.67020751931869e-17,6387280.402686785,1.0163879306855961e-05,3.67020751931869e-17,-3.4250864775886347,465.76783218585916,2.0972388252128085e-16,7.257233594779542e-19,8.71142179066699e-05,3.413198961648625,9143.40268678523,1.5912686880915024e-12,5.746119299498471e-24,9.786073991413495,3.3881317887413258e-21,4.323663893794348e-26,-2.5522404091268324e-05,0.0,0.0,1.1726615295546747e-20,-3.413198961648625,303.2324749189756,0.4590741418063574,30151.312143697716,228.8032453250948,3.225012095201545e-19,-1.6788722281302485e-12,-0.004877932324202596,-0.0,0.0,0.0,0.0112560465931892,2.6740901292371184,3.4131959880123137,3.413198961648625
0.3600000143051147,6387280.365866317,167.6764297731717,3.882927296815703e-17,6387280.368067206,1.1060152212758112e-05,3.882927296815704e-17,-3.5229437792309812,465.76782965253716,2.1571574699906882e-16,7.463534332712793e-19,9.216312836948959e-05,3.5107166199342976,9143.368067206193,1.7315902192195329e-12,6.07915587395873e-24,9.786074097667633,3.3881317887253357e-21,4.447197150758739e-26,-2.6251615731589237e-05,0.0,0.0,1.1726615295546747e-20,-3.510716619934297,303.23262360498734,0.45907605781849964,30151.4675532682,228.80346970640736,6.508574470457101e-19,-1.6826801217949453e-12,-0.0051606680413449,-0.0,0.0,0.0,0.0115776350721716,2.8290862738805105,3.510713469385147,3.5107166199342976
0.3700000047683716,6387280.330147594,172.33410805673785,4.1016389921433536e-17,6387280.332472454,1.2007625259593625e-05,4.101638992143354e-17,-3.6208008854842184,465.76782704785404,2.2170764620564557e-16,7.670302002138754e-19,9.735425278161384e-05,3.6082340828271344,9143.332472453892,1.8799277054660894e-12,6.42157346890026e-24,9.78607420691476,-2.0785273349507872e-38,1.5407439553695873e-33,-2.6980827379926442e-05,0.0,0.0,1.1726615295546747e-20,-3.6082340828271335,303.23277647915086,0.4590780278077686,30151.627341133764,228.80370040815333,7.766375351235207e-19,-1.6797573133467437e-12,-0.005451369828958455,-0.0,0.0,-0.0,0.0118992216885089,2.988449577312595,3.6082309507579806,3.6082340828271344
0.3799999952316284,6387280.293450302,176.99178631390035,4.326342546655962e-17,6387280.295902528,1.3007720555106061e-05,4.3263425466559634e-17,-3.718657790919684,465.7678243718096,2.2769946212093107e-16,7.876359726419225e-19,0.00010268759059178473,3.7057513448983674,9143.295902527196,2.0365037938683515e-12,6.77337199282038e-24,9.786074319154894,-4.269407515106764e-38,3.0814879107238134e-33,-2.771003903650335e-05,0.0,0.0,1.1726615295546747e-20,-3.705751344898367,303.2329335414648,0.4590800517747602,30151.791507355996,228.80393743034028,3.4296777697899604e-19,-1.6697932970974067e-12,-0.005750037827380207,-0.0,0.0,0.0,0.0122208073735237,3.152179682797644,3.7057481868247986,3.7057513448983674
0.3899999856948852,6387280.255774439,181.64946454394564,4.5570378331771863e-17,6387280.258357427,1.4061860380297731e-05,4.5570378331771863e-17,-3.8165144901086183,465.7678216244039,2.3369105631828805e-16,8.080326563399502e-19,0.00010816314131813483,3.803268400719136,9143.258357427238,2.2015411586016615e-12,7.134551246932587e-24,9.786074434388022,-4.3817603616150474e-38,3.081487910708042e-33,-2.8439250701539867e-05,0.0,0.0,1.1726615295546747e-20,-3.803268400719136,303.23309479191784,0.45908212971995915,30151.96005198781,228.80418077296113,6.038655746837752e-19,-1.6526169732807143e-12,-0.006056672180791251,-0.0,0.0,-0.0,0.0125423921272158,3.32027712543924,3.803265177585602,3.803268400719136
0.4000000059604645,6387280.217120012,186.30714274616008,4.793724845470716e-17,6387280.219837157,1.51714667736087e-05,4.7937248454707144e-17,-3.9143709776221614,465.76781880563703,2.3968288078801353e-16,8.286725740332334e-19,0.00011378090378584835,3.9007852448604754,9143.219837157423,2.375262435878458e-12,7.505111221804091e-24,9.786074552614133,0.0,0.0,-2.9168462375261142e-05,0.0,0.0,1.1726615295546747e-20,-3.900785244860476,303.23326023048895,0.45908426164374005,30152.132975073568,228.80443043599396,9.659687548235826e-19,-1.6269688832535783e-12,-0.00637127303721417,-0.0,0.0,-0.0,0.0128639759495854,3.4927417268695327,3.90078192304039,3.9007852448604754
0.4099999964237213,6387280.17748702,190.9648209198301,5.036403669392097e-17,6387280.180341722,1.6337961877434283e-05,5.036403669392097e-17,-4.012227248031351,465.7678159155089,2.456747456736939e-16,8.493662017425373e-19,0.00011954087744392795,3.9983018718933203,9143.180341722295,2.5578902781997885e-12,7.885052052190778e-24,9.78607467383322,-4.606466058678068e-38,3.0814879106752712e-33,-2.9897674057888836e-05,0.0,0.0,1.1726615295546747e-20,-3.998301871893321,303.2334298571518,0.45908644754642836,30152.31027665399,228.8046864194096,1.0701236354944664e-18,-1.5925674182565517e-12,-0.00669384054851614,-0.0,0.0,-0.0,0.0131855579093098,3.6695738438242373,3.9982984231891634,3.9983018718933203
0.4199999868869781,6387280.136875468,195.62249906424202,5.2850743152932e-17,6387280.139871123,1.7562767764866296e-05,5.2850743152932024e-17,-4.110083295907119,465.7678129540196,2.516665284964117e-16,8.6999139299124e-19,0.00012544306153355254,4.095818276388503,9143.13987112299,2.7496473272300625e-12,8.274373754647686e-24,9.786074798045272,-4.718818909301378e-38,3.081487910658271e-33,-3.0626885749646346e-05,0.0,0.0,1.1726615295546747e-20,-4.095818276388503,303.2336036718947,0.4590886874285533,30152.491956786696,228.8049487232009,4.843497659356201e-19,-1.5488131442412687e-12,-0.007024374870409831,-0.0,0.0,0.0,0.0135071389377117,3.850773476303363,4.095814678031921,4.095818276388503
0.4300000071525574,6387280.095285355,200.2801771786822,5.539736641029474e-17,6387280.098425358,1.8847306439693056e-05,5.539736641029474e-17,-4.207939115820291,465.767809921169,2.576580896280134e-16,8.904088520734189e-19,0.00013148745515738082,4.193334452916737,9143.098425357235,2.950756213797395e-12,8.673076106988285e-24,9.786074925250299,-4.831171761364943e-38,3.0814879106408607e-33,-3.135609745075533e-05,0.0,0.0,1.1726615295546747e-20,-4.193334452916737,303.2337816747204,0.4590909812908466,30152.67801554611,228.8052173473828,7.430261779128433e-19,-1.494871266387403e-12,-0.007362876162456063,-0.0,0.0,-0.0,0.0138287181034684,4.036340267571177,4.193330687568665,4.193334452916737
0.4399999976158142,6387280.052716685,204.9378552624371,5.800390591129423e-17,6387280.056004433,2.019300014826513e-05,5.800390591129424e-17,-4.305794702341577,465.7678068169571,2.636497550105458e-16,9.10944853490031e-19,0.00013767405741815848,4.290850396048637,9143.05600443298,3.1614396067199956e-12,9.081159022730972e-24,9.786075055448283,-4.943524614903051e-38,3.0814879106230414e-33,-3.208530916143919e-05,0.0,0.0,1.1726615295546747e-20,-4.290850396048637,303.2339638655875,0.4590933291334904,30152.8684529624,228.8054922919041,6.878342225925266e-19,-1.4298955937799129e-12,-0.007709344588050029,-0.0,0.0,-0.0,0.0141502963379025,4.22627493109914,4.290846697105408,4.290850396048637
0.449999988079071,6387280.009169462,209.59553331479307,6.067036174206968e-17,6387280.012608351,2.1601270894370827e-05,6.067036174206968e-17,-4.403650050041579,465.7678036413841,2.6964139384244535e-16,9.31468928138724e-19,0.00014400286748802145,4.388366100354697,9143.012608351359,3.3819201368548733e-12,9.498622515735609e-24,9.786075188639211,-1.5167632409849969e-37,9.244463731814437e-33,-3.281452088191958e-05,0.0,0.0,1.1726615295546747e-20,-4.388366100354697,303.2341502444837,0.459095730957056,30153.063269097718,228.8057735567576,7.207472425954176e-19,-1.3531591207373523e-12,-0.008063780314438187,-0.0,0.0,-0.0,0.0144718727096915,4.42057711015152,4.388362216030121,4.388366100354697
0.4600000083446502,6387279.964643685,214.2532113350365,6.339673307126026e-17,6387279.968237112,2.3073540716450226e-05,6.33967330712603e-17,-4.50150515349078,465.7678003944498,2.756329155122816e-16,9.518907970575627e-19,0.00015047388460849584,4.485881560405298,9142.968237112374,3.612420440499106e-12,9.925466456225777e-24,9.78607532482309,-1.0336460653080098e-37,6.162975821172346e-33,-3.354373261241991e-05,0.0,0.0,1.1726615295546747e-20,-4.485881560405298,303.2343408114016,0.4590981867621949,30153.262464021045,228.80606114194367,1.322121220584218e-18,-1.2640714133440074e-12,-0.008426183512710262,-0.0,0.0,-0.0,0.0147934481501579,4.61924716146405,4.485877734954834,4.485881560405298
0.4699999988079071,6387279.91913936,218.91088932245378,6.618301995611802e-17,6387279.922890721,2.4611231722246885e-05,6.618301995611802e-17,-4.599360007259547,465.76779707615424,2.816243442081994e-16,9.722349808667095e-19,0.00015708710753607034,4.5833967707707,9142.922890720563,3.853163164815308e-12,1.0361690853555902e-23,9.786075463999904,-1.0561166369415025e-37,6.162975821134251e-33,-3.427294435316183e-05,0.0,0.0,1.1726615295546747e-20,-4.583396770770701,303.23453556631387,0.45910069654932,30153.466037782364,228.80635504743304,6.135831926469637e-19,-1.1611319269844362e-12,-0.008796554357797906,-0.0,0.0,0.0,0.0151150226593017,4.822285085036723,4.5833927632675175,4.5833967707707
0.4799999892711639,6387279.872656487,223.56856727633132,6.902922061060631e-17,6387279.876569181,2.6215766088807868e-05,6.902922061060632e-17,-4.697214605918121,465.7677936864974,2.8761561291673464e-16,9.924347985852017e-19,0.00016384253572035535,4.680911726021049,9142.876569180475,4.104370967831963e-12,1.0807295428501593e-23,9.786075606169637,-1.0785872088973347e-37,6.162975821095334e-33,-3.5002156104370486e-05,0.0,0.0,1.1726615295546747e-20,-4.680911726021049,303.2347345091931,0.4591032603188597,30153.67399043332,228.8066552731966,9.677285382270892e-19,-1.0441434396522381e-12,-0.009174893028474702,-0.0,0.0,-0.0,0.0154365943744778,5.029690880869543,4.6809077915802,4.680911726021049
0.4900000095367431,6387279.825195069,228.22624519595544,7.193533461285498e-17,6387279.829272487,2.7888565750618006e-05,7.1935334612855e-17,-4.795068944036625,465.76779022547925,2.936072526925204e-16,1.0130216373367216e-18,0.000170740168195227,4.778426420726356,9142.829272487561,4.3662664696177095e-12,1.1262280115422539e-23,9.786075751332307,0.0,0.0,-3.57313678662658e-05,0.0,0.0,1.1726615295546747e-20,-4.7784264207263565,303.2349376400508,0.45910587807175995,30153.886322067854,228.80696181926407,9.326175446659873e-19,-9.121380963010225e-13,-0.00956119970736817,-0.0,0.0,-0.0,0.0157581660896539,5.241464548962508,4.778422329280853,4.778426420726356
0.5,6387279.77675511,232.8839230806125,7.490136379581453e-17,6387279.781000652,2.9631052538206856e-05,7.490136379581457e-17,-4.892923016185049,465.76778669309994,2.995986332555778e-16,1.0333655496406449e-18,0.0001777800037867376,4.875940849456512,9142.781000652043,4.639072273982144e-12,1.1726645201704357e-23,9.78607589948788,-1.123528353803447e-37,6.1629758210150416e-33,-3.646057963907116e-05,0.0,0.0,1.1726615295546747e-20,-4.875940849456512,303.23514495883467,0.4591085498081628,30154.103032715102,228.80727468556944,1.010106955740413e-18,-7.637202282207857e-13,-0.009955474580934418,-0.0,0.0,0.0,0.0160797350108623,5.45760680278708,4.875936866981507,4.875940849456512
0.5099999904632568,6387279.727336611,237.54160092958904,7.79273072361295e-17,6387279.7317536725,3.1444648663273254e-05,7.79273072361295e-17,-4.990776816933262,465.7677830893593,3.0558996704645266e-16,1.0536793085491065e-18,0.0001849620415982407,4.97345500678128,9142.73175367165,4.923011044427815e-12,1.22003905432108e-23,9.786076050636362,-1.1459989267674417e-37,6.1629758209736684e-33,-3.718979142300998e-05,0.0,0.0,1.1726615295546747e-20,-4.97345500678128,303.2353564655463,0.4591112755289182,30154.32412246196,228.80759387212777,6.437406807365558e-20,-5.980374458679946e-13,-0.010357717839486158,-0.0,0.0,0.0,0.0164013039320707,5.678117285607525,4.973450914070129,4.97345500678128
0.5199999809265137,6387279.676939574,242.19927874217132,8.101316329029282e-17,6387279.681531554,3.33307764068195e-05,8.101316329029284e-17,-5.088630340850994,465.7677794142573,3.115813033028739e-16,1.0740124843052237e-18,0.00019228628080248005,5.07096888727029,9142.681531553195,5.218305455324508e-12,1.2683515883066416e-23,9.786076204777737,-1.1684695000812056e-37,6.162975820931473e-33,-3.791900321830391e-05,0.0,0.0,1.1726615295546747e-20,-5.07096888727029,303.2355721601478,0.4591140552343866,30154.549591355986,228.80791937889512,9.62173826754168e-19,-4.1439900283456137e-13,-0.01076792967716958,-0.0,0.0,-0.0,0.0167228691279888,5.902995997423849,5.0709644705467225,5.07096888727029
0.5299999713897705,6387279.625564004,246.85695651764578,8.415893285416507e-17,6387279.630334295,3.5290857391464666e-05,8.41589328541651e-17,-5.1864835825078455,465.76777566779407,3.175726896146605e-16,1.0944129992504867e-18,0.0001997527201564648,5.168482485493035,9142.630334295542,5.525178077982102e-12,1.3176021361970716e-23,9.786076361912006,-1.190940073751596e-37,6.162975820888463e-33,-3.864821502517811e-05,0.0,0.0,1.1726615295546747e-20,-5.168482485493034,303.23579204263524,0.4591168889253835,30154.779439482027,228.8082512058793,1.4412087002232525e-18,-2.1124323269988693e-13,-0.011186110291984814,-0.0,0.0,0.0,0.0170444343239069,6.132242938236047,5.1684780270233155,5.168482485493035
0.5400000214576721,6387279.573209902,251.51463425529886,8.736461699322831e-17,6387279.578161905,3.732631372495234e-05,8.736461699322834e-17,-5.284336536473274,465.7677718499697,3.2356409228146983e-16,1.114847485573437e-18,0.0002073613586945053,5.2659957960188715,9142.578161904368,5.843851559679794e-12,1.3677907147187948e-23,9.786076522039153,-3.3881317883605048e-21,-6.670795582536666e-26,-3.9377426843850724e-05,0.0,0.0,1.1726615295546747e-20,-5.265995796018873,303.23601611297534,0.4591197766023619,30155.01366689586,228.80858935304363,8.030435474612267e-19,1.2415899520362903e-14,-0.011612259885766358,-0.0,0.0,0.0,0.0173659976571798,6.365859178251304,5.265991092887878,5.2659957960188715
0.550000011920929,6387279.519877274,256.1723119544169,9.063021428747237e-17,6387279.525014378,3.9438567480374335e-05,9.063021428747237e-17,-5.382189197316603,465.7677679607839,3.295553887197846e-16,1.1351936922961742e-18,0.0002151121954509986,5.363508813417018,9142.52501437854,6.174548542289692e-12,1.4189173016859374e-23,9.78607668515918,-3.388131788335957e-21,-6.794328871737873e-26,-4.010663867454691e-05,0.0,0.0,1.1726615295546747e-20,-5.363508813417018,303.2362443711639,0.45912271826616635,30155.25227368541,228.80893382039596,1.5943040538589764e-18,2.575515650310304e-13,-0.012046378664201314,-0.0,0.0,0.0,0.0176875591278076,6.603844003998164,5.363504158752441,5.363508813417018
0.5600000023841858,6387279.465566119,260.8299896142862,9.395572530421115e-17,6387279.470891727,4.1629040557563713e-05,9.395572530421118e-17,-5.480041559607013,465.76776400023675,3.3554671622173876e-16,1.1555892441007989e-18,0.00022300522904460758,5.461021532256552,9142.470891728273,6.517491640576654e-12,1.4709819060272626e-23,9.786076851272055,0.0,0.0,-4.083585051749007e-05,0.0,0.0,1.1726615295546747e-20,-5.461021532256552,303.2364768171477,0.4591257139170277,30155.495259889183,228.80928460787024,1.2035333387927817e-18,5.260717507999209e-13,-0.012488466836804482,-0.0,0.0,-0.0,0.0180091187357902,6.8461974154766265,5.461016734004975,5.461021532256552
0.5699999928474426,6387279.410276443,265.4876672341932,9.734114777548468e-17,6387279.415793949,4.3899154856353565e-05,9.73411477754847e-17,-5.577893617913533,465.7677599683285,3.4153789693679794e-16,1.1758566230101022e-18,0.00023104045878711676,5.558533947106402,9142.415793950164,6.872903469324243e-12,1.5239844922830108e-23,9.786077020377789,-2.5616447442731378e-37,1.2325951641416438e-32,-4.156506237290187e-05,0.0,0.0,1.1726615295546747e-20,-5.558533947106402,303.23671345093226,0.4591287635559457,30155.742625608396,228.80964171548885,9.34813617292423e-19,8.183198830559258e-13,-0.01293852461695393,-0.0,0.0,0.0,0.0183306764811277,7.0929194126866975,5.558529309257508,5.558533947106402
0.5799999833106995,6387279.354008247,270.1453448134244,1.007864819326401e-16,6387279.359721047,4.6250332484487444e-05,1.007864819326401e-16,-5.675745366805057,465.7677558650588,3.475290258559659e-16,1.1960911525939859e-18,0.00023921788343596968,5.656046052535348,9142.359721046485,7.2410066758857636e-12,1.5779250641237302e-23,9.786077192476379,-3.388131788259613e-21,-7.164926286743962e-26,-4.22942742410057e-05,0.0,0.0,1.1726615295546747e-20,-5.656046052535349,303.2369542724979,0.4591318671836201,30155.994370920325,228.81000514323753,1.5472315375843574e-18,1.1358847023666416e-12,-0.013396552221862113,-0.0,0.0,0.0,0.01865223236382,7.344010709099826,5.65604139389801,5.656046052535348
0.5899999737739563,6387279.296761535,274.80302235126607,1.0429172871902263e-16,6387279.30267303,4.868399527249494e-05,1.0429172871902265e-16,-5.773596800850314,465.76775169042776,3.535204183544237e-16,1.2166085406086235e-18,0.00024753750154078605,5.753557843112035,9142.302673028586,7.622023864232939e-12,1.6328036363679502e-23,9.786077367567785,-2.651527047294205e-37,1.2325951641226358e-32,-4.302348612202323e-05,0.0,0.0,1.1726615295546747e-20,-5.753557843112034,303.2371992817863,0.4591350248002629,30156.250495863023,228.81037489104295,1.5953340176299152e-18,1.4808753748438069e-12,-0.013862549872571387,-0.0,0.0,0.0,0.0189737863838672,7.599471304716021,5.753552987926484,5.753557843112035
0.6000000238418579,6387279.23853631,279.4606998470046,1.0785688794058818e-16,6387279.244649891,5.120156505090563e-05,1.078568879405882e-16,-5.871447914617891,465.7677474444355,3.5951156816642127e-16,1.2369028538889076e-18,0.00025599931234430724,5.8510693134049285,9142.244649891929,8.016177638357215e-12,1.6886202060279612e-23,9.786077545652029,3.388131788206464e-21,7.411997814793206e-26,-4.37526980161761e-05,0.0,0.0,1.1726615295546747e-20,-5.851069313404929,303.237448478807,0.45913823640697987,30156.511000547423,228.8107509589349,1.8139172246177133e-18,1.8537531912820257e-12,-0.014336517793991846,-0.0,0.0,0.0,0.0192953385412693,7.8593019130067265,5.851064091342926,5.8510693134049285
0.6100000143051147,6387279.179332579,284.11837729992646,1.1148195964650734e-16,6387279.185651643,5.380446385815958e-05,1.1148195964650737e-16,-5.969298702676216,465.76774312708187,3.65502629175853e-16,1.2571283089232307e-18,0.00026460331439632665,5.94858045798236,9142.185651643325,8.4236906348208e-12,1.7453747739247092e-23,9.786077726729083,3.3881317881792142e-21,7.535532349597052e-26,-4.4481909923689466e-05,0.0,0.0,1.1726615295546747e-20,-5.948580457982361,303.23770186352056,0.4591415020042644,30156.775885035113,228.8111333468696,1.3975207212473623e-18,2.2566395996480538e-12,-0.014818456214858607,-0.0,0.0,-0.0,0.0196168888360261,8.123501107029039,5.9485751947593695,5.94858045798236
0.6200000047683716,6387279.119150338,288.77605470931786,1.151669411178018e-16,6387279.125678283,5.649411380200036e-05,1.151669411178018e-16,-6.067149159593556,465.7677387383669,3.714936085634909e-16,1.2772924190877862e-18,0.0002733495065932421,6.046091271412496,9142.12567828391,8.84478550105654e-12,1.8030672975415317e-23,9.786077910798946,3.388131788151514e-21,7.659064421510421e-26,-4.5211121844784985e-05,0.0,0.0,1.1726615295546747e-20,-6.046091271412496,303.23795943591193,0.45914482159293657,30157.04514941459,228.81152205483994,1.1320396441268437e-18,2.6908224393648914e-12,-0.015308365367759836,-0.0,0.0,0.0,0.0199384372681379,8.392069600254413,6.046086298175812,6.046091271412496
0.6299999952316284,6387279.057989595,293.4337320744654,1.1891183167201427e-16,6387279.064729818,5.927193657435057e-05,1.1891183167201431e-16,-6.164999279938022,465.76773427829073,3.77484632291574e-16,1.2975214792350641e-18,0.0002822378877622343,6.143601748263339,9142.064729818225,9.279684819416569e-12,1.86169776624664e-23,9.786078097861605,-5.662583326314177e-37,2.4651903281653097e-32,-4.594033377968431e-05,0.0,0.0,1.1726615295546747e-20,-6.143601748263338,303.2382211959511,0.4591481951736445,30157.31879376073,228.81191708281693,1.9118325044676383e-18,3.157751748105397e-12,-0.01580624548911985,-0.0,0.0,0.0,0.0202599857002496,8.665008819625761,6.143596420368195,6.143601748263339
0.6399999856948853,6387278.9958503535,298.09140939465533,1.2271663320292128e-16,6387279.00280625,6.213935393643625e-05,1.2271663320292128e-16,-6.26284905827756,465.76772974685304,3.8347577160514784e-16,1.3178870670344237e-18,0.00029126845659196375,6.241111883102731,9142.00280624968,9.728611183124353e-12,1.9212662097429246e-23,9.786078287917048,3.388131788094762e-21,7.906131037577821e-26,-4.6669545728610844e-05,0.0,0.0,1.1726615295546747e-20,-6.241111883102731,303.2384871436129,0.4591516227471127,30157.59681815497,228.8123184307788,1.1221333624392196e-18,3.659231814931517e-12,-0.016312096819208446,-0.0,0.0,0.0,0.0205815304070711,8.942317338200173,6.241106542560577,6.241111883102731
0.6499999761581421,6387278.932732616,302.7490866691741,1.265813443447919e-16,6387278.9399075825,6.509778803065274e-05,1.2658134434479193e-16,-6.360698489179947,465.7677251440541,3.894667316869166e-16,1.3380946978238404e-18,0.0003004412120483922,6.338621670498352,9141.939907582811,1.0191787245101063e-11,1.9817726067029015e-23,9.786078480965262,3.3881317880657107e-21,8.029664349212084e-26,-4.7398757691786255e-05,0.0,0.0,1.1726615295546747e-20,-6.338621670498352,303.238757278867,0.4591551043140175,30157.87922267525,228.81272609869654,2.3473076636502098e-18,4.196342458116168e-12,-0.016825919602136464,-0.0,0.0,-0.0,0.0209030732512474,9.223995869449096,6.33861617414093,6.338621670498352
0.6600000262260437,6387278.868636385,307.4067638973081,1.3050596490688045e-16,6387278.876033817,6.814866047961914e-05,1.3050596490688045e-16,-6.458547567212798,465.7677204698938,3.9545737616662164e-16,1.358008333989225e-18,0.00030975615254313866,6.4361311050177035,9141.876033816487,1.0669435576912854e-11,2.0432169541956527e-23,9.786078677006252,-5.932230268158778e-37,2.4651903281018966e-32,-4.812796966943393e-05,0.0,0.0,1.1726615295546747e-20,-6.4361311050177035,303.2390316017074,0.459158639875365,30158.16600742655,228.81314008657787,9.634997016693037e-19,4.771620733763679e-12,-0.017347714085868243,-0.0,0.0,0.0,0.0212246123701334,9.510044413372544,6.436125315109253,6.4361311050177035
0.6700000166893005,6387278.803561665,312.0644410783437,1.3449049231943322e-16,6387278.81118496,7.129339325247202e-05,1.3449049231943327e-16,-6.556396286943548,465.7677157243721,4.0144803260097923e-16,1.377955864901336e-18,0.0003192132769037213,6.533640181228127,9141.811184960927,1.116177880439914e-11,2.1055992120450855e-23,9.786078876039989,-6.0221125856914076e-37,2.4651903280801042e-32,-4.885718166177728e-05,0.0,0.0,1.1726615295546747e-20,-6.533640181228128,303.239310112079,0.4591622294315461,30158.457172464357,228.8135603943569,1.688566234885417e-18,5.386516147072341e-12,-0.017877480522188245,-0.0,0.0,-0.0,0.0215461514890193,9.800462969970505,6.533634456077577,6.533640181228127
0.6800000071525574,6387278.737508459,316.72211821156725,1.385349271760801e-16,6387278.745361014,7.453340804113396e-05,1.385349271760801e-16,-6.654244642939465,465.7677109074891,4.074386429155852e-16,1.3978795488214937e-18,0.00032881258395776885,6.631148893696779,9141.745361013856,1.1669039510020831e-11,2.1689193896022773e-23,9.786079078066471,6.776263575951708e-21,1.680052859793887e-25,-4.9586393669037956e-05,0.0,0.0,1.1726615295546747e-20,-6.63114889369678,303.23959280998037,0.4591658729836587,30158.752717901854,228.81398702204874,1.6519760031794038e-18,6.042457232830095e-12,-0.018415219166749115,-0.0,0.0,-0.0,0.0218676887452602,10.095252252714443,6.631143106433869,6.631148893696779
0.6899999976158142,6387278.670476772,321.379795296265,1.4263926689231527e-16,6387278.678561981,7.787012681474153e-05,1.4263926689231525e-16,-6.752092629767636,465.76770601924477,4.1342929416542147e-16,1.4178667734077092e-18,0.00033855407218646283,6.7286572369906485,9141.678561980958,1.219144031966256e-11,2.2331774464618907e-23,9.786079283085694,6.7762635758900016e-21,1.7047597706455113e-25,-5.031560569143937e-05,0.0,0.0,1.1726615295546747e-20,-6.728657236990649,303.2398796953756,0.45916957053237445,30159.05264381805,228.81441996961703,1.8357307362426115e-18,6.741824782298136e-12,-0.018960930279029852,-0.0,0.0,-0.0,0.0221892222762107,10.3944115481329,6.728651266178131,6.7286572369906485
0.699999988079071,6387278.602466609,326.0374723317237,1.4680351331455383e-16,6387278.610787871,8.130497129986907e-05,1.4680351331455383e-16,-6.849940241994972,465.767701059639,4.1941999818821923e-16,1.4379297090784957e-18,0.00034843774007110677,6.8261652056765465,9141.61078787131,1.2729203821256215e-11,2.298373411590474e-23,9.78607949109762,-6.291759549426515e-37,2.4651903280127578e-32,-5.1044817729203166e-05,0.0,0.0,1.1726615295546747e-20,-6.826165205676546,303.2401707682141,0.4591733220781921,30159.35695027822,228.81485923700325,2.2594078327367904e-18,7.487028774743683e-12,-0.01951461412234338,-0.0,0.0,0.0,0.0225107558071613,10.697942283168787,6.826159425922394,6.8261652056765465
0.7099999785423279,6387278.53347797,330.6951493172295,1.5102766644881724e-16,6387278.54203868,8.483936325774267e-05,1.510276664488173e-16,-6.947787474188202,465.76769602867193,4.254106192389817e-16,1.457932943535068e-18,0.000358463586578124,6.923672794321092,9141.542038681511,1.328255260818229e-11,2.3645072851420147e-23,9.786079702102265,3.388131787881944e-21,8.770864271800221e-26,-5.177402978255101e-05,0.0,0.0,1.1726615295546747e-20,-6.923672794321092,303.24046602849876,0.4591771276223159,30159.665637405284,228.8153048242299,1.8286952942932296e-18,8.279098444655324e-12,-0.02007627096387391,-0.0,0.0,-0.0,0.0228322856128215,11.005843030879195,6.923666604442596,6.923672794321092
0.7200000286102295,6387278.463510862,335.35282625206884,1.55311726726539e-16,6387278.472314416,8.847472458819539e-05,1.55311726726539e-16,-7.045634320913868,465.76769092634345,4.314014738894328e-16,1.4781933812112178e-18,0.00036863161018897033,7.021179997490719,9141.472314417233,1.3851709295545517e-11,2.431579073931657e-23,9.786079916099611,6.776263575699478e-21,1.7788800133141618e-25,-5.250324185170804e-05,0.0,0.0,1.1726615295546747e-20,-7.02117999749072,303.2407654761931,0.459180987165461,30159.978705282847,228.8157567312606,2.761596872583114e-18,9.12043296494897e-12,-0.020645901074627118,-0.0,0.0,-0.0,0.0231538135558366,11.318115218207032,7.0211737829628,7.021179997490719
0.7300000190734863,6387278.392565285,340.01050313552804,1.5965569327370866e-16,6387278.401615085,9.221247698314983e-05,1.596556932737087e-16,-7.143480776738325,465.7676857526535,4.3739171193895387e-16,1.497861154209206e-18,0.00037894180952381613,7.1186868097516935,9141.40161508416,1.4436896465924052e-11,2.4995887643372206e-23,9.786080133089635,-1.9684219591330252e-36,7.395570983827388e-32,-5.323245393689593e-05,0.0,0.0,1.1726615295546747e-20,-7.1186868097516935,303.24106911126063,0.4591849007083591,30160.296153996183,228.81621495805896,2.817974040189189e-18,1.001303774307188e-11,-0.021223504729450615,-0.0,0.0,0.0,0.0234753396362066,11.6347588451523,7.118680470870972,7.1186868097516935
0.7400000095367432,6387278.3206412485,344.6681799668935,1.640595644245981e-16,6387278.329940684,9.605404206522508e-05,1.6405956442459813e-16,-7.2413268362277385,465.7676805076023,4.433823751070766e-16,1.5179783147937439e-18,0.0003893941829949583,7.216193225670065,9141.329940684558,1.5038336691070278e-11,2.568536330342155e-23,9.786080353072343,-6.651288861417436e-37,2.465190327918376e-32,-5.396166603833632e-05,0.0,0.0,1.1726615295546747e-20,-7.216193225670066,303.2413769336795,0.4591888682519436,30160.617983647342,228.81667950461068,1.922151478107451e-18,1.0959540120730622e-11,-0.021809082207042828,-0.0,0.0,0.0,0.0237968619912862,11.955773198243547,7.216187158779144,7.216193225670065
0.75,6387278.247738752,349.32585674545174,1.685233401080008e-16,6387278.257291223,0.00010000084173425422,1.6852334010800082e-16,-7.339172493948085,465.76767519118954,4.493727466017884e-16,1.5378284036963475e-18,0.00039998872922268917,7.31369923981171,9141.25729122297,1.565625258616234e-11,2.6384217708947871e-23,9.786080576047711,-1.3482342388842692e-36,4.930380655787921e-32,-5.469087815625261e-05,0.0,0.0,1.1726615295546747e-20,-7.313699239811711,303.2416889434175,0.4591928897970367,30160.944194329684,228.8171503708867,1.2399664351621312e-18,1.1961954912898168e-11,-0.022402633789938342,-0.0,0.0,0.0,0.0241183824837207,12.281159704423683,7.313692865463257,7.31369923981171
0.7599999904632568,6387278.1738578,353.983533470489,1.730470180594896e-16,6387278.183666699,0.00010405429789007031,1.7304701805948963e-16,-7.437017744465142,465.76766980341534,4.553629106427622e-16,1.5574959733464982e-18,0.0004107254470353574,7.411204846742307,9141.183666699395,1.6290866766403554e-11,2.709245050606983e-23,9.786080802015743,-1.3662107058965164e-36,4.930380655738436e-32,-5.542009029086648e-05,0.0,0.0,1.1726615295546747e-20,-7.411204846742306,303.242005140462,0.4591969653447279,30161.274786158614,228.81762755688754,2.0687305864531596e-18,1.3021638688202144e-11,-0.023004159764526553,-0.0,0.0,-0.0,0.0244399011135101,12.610916223278332,7.411198572147369,7.411204846742307
0.7699999809265137,6387278.098998397,358.64121014129177,1.7763059775310674e-16,6387278.109067125,0.00010821583201668545,1.7763059775310677e-16,-7.534862582344491,465.7676643442799,4.613529548815513e-16,1.577069008065868e-18,0.00042160433449897654,7.50871004102733,9141.109067125191,1.6942401781921252e-11,2.7810061613091413e-23,9.786081030976401,-1.3841871733257133e-36,4.930380655688296e-32,-5.6149302442401304e-05,0.0,0.0,1.1726615295546747e-20,-7.50871004102733,303.2423255247516,0.4592010948954913,30161.609759200008,228.81811106254003,1.9091946531100445e-18,1.4142295320921421e-11,-0.023613660421007675,-0.0,0.0,-0.0,0.0247614178806543,12.94504632216479,7.508703788219452,7.50871004102733
0.7799999713897705,6387278.023160549,363.29888675714625,1.8227407771749086e-16,6387278.0334925,0.00011248686552880826,1.8227407771749086e-16,-7.632707002151514,465.76765881378304,4.673431640782907e-16,1.5968326007702104e-18,0.0004326253901648628,7.606214817232057,9141.033492500354,1.7611080172018368e-11,2.853705080031176e-23,9.78608126292969,-1.4021636411773431e-36,4.9303806556375e-32,-5.687851461107876e-05,0.0,0.0,1.1726615295546747e-20,-7.606214817232057,303.2426500962733,0.4592052784504451,30161.949113572315,228.81860088784453,2.0264126340595287e-18,1.5326154472767812e-11,-0.024231136053454515,-0.0,0.0,-0.0,0.0250829327851533,13.28354714719722,7.606208023067475,7.606214817232057
0.7900000214576721,6387277.946344257,367.95656331733903,1.8697745950569993e-16,6387277.95694283,0.00011686882053418231,1.8697745950569995e-16,-7.730550998451388,465.76765321192465,4.733332813497535e-16,1.6165302010262526e-18,0.0004437886127229247,7.703719169921563,9140.956942830562,1.8297124584526415e-11,2.9273418311545304e-23,9.78608149787559,-1.4201401094568919e-36,4.9303806555860493e-32,-5.760772679712399e-05,0.0,0.0,1.1726615295546747e-20,-7.703719169921563,303.2429788549893,0.45920951601040827,30162.2928493701,228.81909703276477,2.4424115036300405e-18,1.6574987290588252e-11,-0.024856586959766263,-0.0,0.0,0.0,0.0254044439643621,13.626420125318537,7.703712748527528,7.703719169921563
0.800000011920929,6387277.868549532,372.61423982115645,1.917407439306936e-16,6387277.879418118,0.00012136311830890919,1.917407439306936e-16,-7.828394565809085,465.7676475387049,4.79323310712127e-16,1.6361661578266061e-18,0.00045509400051675723,7.801223093660715,9140.879418119224,1.9000757537100505e-11,3.001916427474441e-23,9.786081735814092,-1.4381165781698425e-36,4.93038065553394e-32,-5.8336939000756896e-05,0.0,0.0,1.1726615295546747e-20,-7.801223093660716,303.24331180087194,0.45921380757633834,30162.640966699546,228.81959949727917,1.7648046973422477e-18,1.7891659957747247e-11,-0.025490013441690253,-0.0,0.0,0.0,0.0257259532809257,13.973665256528745,7.80121649276352,7.801223093660715
0.8100000023841858,6387277.789776372,377.27191626788476,1.9656392561147887e-16,6387277.800918372,0.00012597118068351847,1.9656392561147887e-16,-7.926237698789373,465.7676417941237,4.853131745473011e-16,1.6556631858797815e-18,0.00046654155182061313,7.898726583014181,9140.800918372017,1.9722201634224548e-11,3.0774287848137204e-23,9.786081976745178,-1.4560930473216816e-36,4.93038065548118e-32,-5.9066151222200886e-05,0.0,0.0,1.1726615295546747e-20,-7.898726583014181,303.2436489338833,0.45921815314908343,30162.993465658266,228.82010828135125,1.3605232541412053e-18,1.9279284153055333e-11,-0.026131415804808187,-0.0,0.0,-0.0,0.026047458872199,14.325282540827846,7.898719746387482,7.898726583014181
0.8199999928474426,6387277.710024781,381.9295926568105,2.0144700822001003e-16,6387277.72144359,0.00013069442948853975,2.0144700822001006e-16,-8.0240803919568,465.767635978181,4.913035808934448e-16,1.675729656186506e-18,0.00047813126532473643,7.996229632546403,9140.72144359121,2.0461679480409603e-11,3.153878960730095e-23,9.786082220668844,-1.474069516917893e-36,4.9303806554277617e-32,-5.9795363461679366e-05,0.0,0.0,1.1726615295546747e-20,-7.996229632546403,303.2439902539999,0.45922255272969437,30163.350346360752,228.82062338496692,4.2252300751774124e-18,2.0739603201448827e-11,-0.02678079435855483,-0.0,0.0,-0.0,0.0263689626008272,14.681273405158743,7.9962225093994155,7.996229632546403
0.8299999833106995,6387277.629294766,386.58726898721994,2.0638999631735828e-16,6387277.640993782,0.00013553428600007465,2.0638999631735836e-16,-8.12192263987571,465.7676300908769,4.972937422996701e-16,1.6955784507028367e-18,0.0004898631390264082,8.093732236821623,9140.640993782483,2.121941359339237e-11,3.231267026702265e-23,9.786082467585068,-1.4920459869639593e-36,4.930380655373686e-32,-6.0524575719412246e-05,0.0,0.0,1.1726615295546747e-20,-8.093732236821623,303.2443357611835,0.4592270063190475,30163.711608907648,228.82114480808974,2.9852218372808258e-18,2.227666293816333e-11,-0.02743814941619528,-0.0,0.0,-0.0,0.0266904644668102,15.041636422578536,8.093725272411346,8.093732236821623
0.8399999737739563,6387277.54758633,391.2449452583996,2.1139288448625019e-16,6387277.559568949,0.00014049217204865273,2.1139288448625024e-16,-8.219764437110221,465.76762413221115,5.032840940236125e-16,1.7156451599223708e-18,0.0005017371716853363,8.191234390403855,9140.559568949238,2.1995626577739317e-11,3.309592897987609e-23,9.786082717493843,-1.510022457465369e-36,4.93038065531896e-32,-6.125378799562641e-05,0.0,0.0,1.1726615295546747e-20,-8.191234390403856,303.2446854554057,0.45923151391816036,30164.07725341145,228.82167255069817,3.574514708803347e-18,2.3891956824044482e-11,-0.02810348129484283,-0.0,0.0,0.0,0.027011964470148,15.406373020030127,8.191227544811248,8.191234390403855
0.8500000238418579,6387277.464899478,395.9026214696358,2.1645567420015101e-16,6387277.477169096,0.0001455695090489826,2.1645567420015101e-16,-8.317605778224246,465.76761810218414,5.092736826711053e-16,1.734976722549547e-18,0.0005137533614375468,8.288736087856906,9140.47716909602,2.2790540972943677e-11,3.388856597726615e-23,9.786082970395158,-1.527998928427601e-36,4.930380655263575e-32,-6.198300029054005e-05,0.0,0.0,1.1726615295546747e-20,-8.288736087856908,303.2450393366326,0.4592360755280015,30164.44727998103,228.82220661276327,2.9331484145920925e-18,2.5589079057941366e-11,-0.02877679031544867,-0.0,0.0,0.0,0.0273334607481956,15.77548177057061,8.288729326599121,8.288736087856906
